rectype,month,day,year,eventno,time,lat,long,heading,alt,legtype,legstage,legno,visiblty,glarel,glarer,beaufort,cloud,wx,sightno,anglel,angler,speccode,number,numcalf,anhead,photos,idrel,confidnc,b1,b2,b3,b4,b5,b6,b7,b8,b9,b10,b11,b12,b13,b14,b15,refno,stratum,utc,radalt,gpsspeed,setalt,setvel,lensfl,ggf,int,gpsq,gpssats,roll,pitch,yaw,maghead,notes,edits,glarev,ph_qual,TrackDist
S,10,12,2023,539,93135,41.26456126,-69.79806918,127,459,1,-,,5,,,2,3,H,1,,,,,,,,,,,,,,,,,,,,,,,,,,,,,112.6,1500,100,,,,,,,,,,GOING ON WATCH; BEGIN SURVEY - ,,,,0.154150859
X,10,12,2023,540,93135,41.26454833,-69.79804667,127,459,1,-,,5,,,2,3,H,,,,,,,,,,,,,,,,,,,,,,,,,,,,,,112.6,1500,100,,,,,,,,,,,,,,0.155429412
X,10,12,2023,541,93140,41.26300833,-69.79525667,126,453,1,-,,5,,,2,3,H,,,,,,,,,,,,,,,,,,,,,,,,,,,,,,113.5,1500,100,,,,,,,,,,,,,,0.156218399
X,10,12,2023,542,93145,41.26143667,-69.79243833,127,451,1,-,,5,,,2,3,H,,,,,,,,,,,,,,,,,,,,,,,,,,,,,,113.7,1500,100,,,,,,,,,,,,,,0.158378743
X,10,12,2023,543,93150,41.25981,-69.7897,129,456,1,-,,5,,,2,3,H,,,,,,,,,,,,,,,,,,,,,,,,,,,,,,112,1500,100,,,,,,,,,,,,,,0.15752211
X,10,12,2023,544,93155,41.258135,-69.78713,132,468,1,-,,5,,,2,3,H,,,,,,,,,,,,,,,,,,,,,,,,,,,,,,108.4,1500,100,,,,,,,,,,,,,,0.153521767
X,10,12,2023,545,93200,41.256425,-69.78472833,135,473,1,-,,5,,,2,3,H,,,,,,,,,,,,,,,,,,,,,,,,,,,,,,106.7,1500,100,,,,,,,,,,,,,,0.149304242
X,10,12,2023,546,93205,41.254645,-69.78246167,138,473,1,-,,5,,,2,3,H,,,,,,,,,,,,,,,,,,,,,,,,,,,,,,107.4,1500,100,,,,,,,,,,,,,,0.147949531
X,10,12,2023,547,93210,41.25274833,-69.78033,141,466,1,-,,5,,,2,3,H,,,,,,,,,,,,,,,,,,,,,,,,,,,,,,108.3,1500,100,,,,,,,,,,,,,,0.149084346
X,10,12,2023,548,93215,41.25076333,-69.778335,144,467,1,-,,5,,,2,3,H,,,,,,,,,,,,,,,,,,,,,,,,,,,,,,106.9,1500,100,,,,,,,,,,,,,,0.149377295
X,10,12,2023,549,93220,41.24871833,-69.77656667,150,470,1,-,,5,,,2,3,H,,,,,,,,,,,,,,,,,,,,,,,,,,,,,,104.7,1500,100,,,,,,,,,,,,,,0.146449719
X,10,12,2023,550,93225,41.24659333,-69.77508667,154,475,1,-,,5,,,2,3,H,,,,,,,,,,,,,,,,,,,,,,,,,,,,,,103.3,1500,100,,,,,,,,,,,,,,0.144020352
X,10,12,2023,551,93230,41.244415,-69.77381833,158,473,1,-,,5,,,2,3,H,,,,,,,,,,,,,,,,,,,,,,,,,,,,,,102.4,1500,100,,,,,,,,,,,,,,0.142772404
X,10,12,2023,552,93235,41.24218667,-69.77269167,159,473,1,-,,5,,,2,3,H,,,,,,,,,,,,,,,,,,,,,,,,,,,,,,103,1500,100,,,,,,,,,,,,,,0.143132584
X,10,12,2023,553,93240,41.23995,-69.771625,160,475,1,-,,5,,,2,3,H,,,,,,,,,,,,,,,,,,,,,,,,,,,,,,102.7,1500,100,,,,,,,,,,,,,,0.142663977
X,10,12,2023,554,93240,41.23995,-69.771625,160,475,1,-,,5,,,2,3,H,,,,,,,,,,,,,,,,,,,,,,,,,,,,,,102.7,1500,100,,,,,,,,,,,,,,0
X,10,12,2023,555,93245,41.237735,-69.77058333,161,477,1,-,,5,,,2,3,H,,,,,,,,,,,,,,,,,,,,,,,,,,,,,,101.3,1500,100,,,,,,,,,,,,,,0.141060377
X,10,12,2023,556,93250,41.23551333,-69.76957833,161,474,1,-,,5,,,2,3,H,,,,,,,,,,,,,,,,,,,,,,,,,,,,,,101.6,1500,100,,,,,,,,,,,,,,0.1408965
X,10,12,2023,557,93255,41.233285,-69.76852667,160,470,1,-,,5,,,2,3,H,,,,,,,,,,,,,,,,,,,,,,,,,,,,,,102.7,1500,100,,,,,,,,,,,,,,0.141966808
X,10,12,2023,558,93300,41.23104167,-69.76742167,160,469,1,-,,5,,,2,3,H,,,,,,,,,,,,,,,,,,,,,,,,,,,,,,103.5,1500,100,,,,,,,,,,,,,,0.143635066
X,10,12,2023,559,93305,41.22879333,-69.76633167,160,469,1,-,,5,,,2,3,H,,,,,,,,,,,,,,,,,,,,,,,,,,,,,,103.7,1500,100,,,,,,,,,,,,,,0.143683785
X,10,12,2023,560,93310,41.226525,-69.76527667,162,466,1,-,,5,,,2,3,H,,,,,,,,,,,,,,,,,,,,,,,,,,,,,,104.5,1500,100,,,,,,,,,,,,,,0.144283581
X,10,12,2023,561,93315,41.224225,-69.764265,162,464,1,-,,5,,,2,3,H,,,,,,,,,,,,,,,,,,,,,,,,,,,,,,104.9,1500,100,,,,,,,,,,,,,,0.1454537
X,10,12,2023,562,93320,41.22190667,-69.76329333,163,462,1,-,,5,,,2,3,H,,,,,,,,,,,,,,,,,,,,,,,,,,,,,,104.8,1500,100,,,,,,,,,,,,,,0.145946419
X,10,12,2023,563,93325,41.21961333,-69.76227333,160,463,1,-,,5,,,2,3,H,,,,,,,,,,,,,,,,,,,,,,,,,,,,,,104,1500,100,,,,,,,,,,,,,,0.145193715
X,10,12,2023,564,93330,41.21736,-69.761145,159,463,1,-,,5,,,2,3,H,,,,,,,,,,,,,,,,,,,,,,,,,,,,,,103.8,1500,100,,,,,,,,,,,,,,0.144569918
X,10,12,2023,565,93335,41.215115,-69.76002,160,462,1,-,,5,,,2,3,H,,,,,,,,,,,,,,,,,,,,,,,,,,,,,,103.2,1500,100,,,,,,,,,,,,,,0.14404925
X,10,12,2023,566,93340,41.212855,-69.759,163,459,1,-,,5,,,2,3,H,,,,,,,,,,,,,,,,,,,,,,,,,,,,,,102.6,1500,100,,,,,,,,,,,,,,0.1432987
X,10,12,2023,567,93340,41.212855,-69.759,163,459,1,-,,5,,,2,3,H,,,,,,,,,,,,,,,,,,,,,,,,,,,,,,102.6,1500,100,,,,,,,,,,,,,,0
X,10,12,2023,568,93345,41.21055,-69.758185,167,453,1,-,,5,,,2,3,H,,,,,,,,,,,,,,,,,,,,,,,,,,,,,,103.2,1500,100,,,,,,,,,,,,,,0.143205327
X,10,12,2023,569,93350,41.20821333,-69.75757667,171,454,1,-,,5,,,2,3,H,,,,,,,,,,,,,,,,,,,,,,,,,,,,,,102,1500,100,,,,,,,,,,,,,,0.142960071
X,10,12,2023,570,93355,41.20589333,-69.75716833,173,460,1,-,,5,,,2,3,H,,,,,,,,,,,,,,,,,,,,,,,,,,,,,,100,1500,100,,,,,,,,,,,,,,0.140509726
X,10,12,2023,571,93400,41.203595,-69.75683833,173,460,1,-,,5,,,2,3,H,,,,,,,,,,,,,,,,,,,,,,,,,,,,,,99.8,1500,100,,,,,,,,,,,,,,0.138795806
X,10,12,2023,572,93405,41.20128333,-69.75646167,173,456,1,-,,5,,,2,3,H,,,,,,,,,,,,,,,,,,,,,,,,,,,,,,101.2,1500,100,,,,,,,,,,,,,,0.139832637
X,10,12,2023,573,93410,41.198945,-69.75607333,173,454,1,-,,5,,,2,3,H,,,,,,,,,,,,,,,,,,,,,,,,,,,,,,102.3,1500,100,,,,,,,,,,,,,,0.141486407
X,10,12,2023,574,93410,41.198945,-69.75607333,173,454,1,-,,5,,,2,3,H,,,,,,,,,,,,,,,,,,,,,,,,,,,,,,102.3,1500,100,,,,,,,,,,,,,,0
X,10,12,2023,575,93415,41.19659333,-69.75570333,173,455,1,-,,5,,,2,3,H,,,,,,,,,,,,,,,,,,,,,,,,,,,,,,102.1,1500,100,,,,,,,,,,,,,,0.142181131
X,10,12,2023,576,93420,41.19427167,-69.75534333,173,463,1,-,,5,,,2,3,H,,,,,,,,,,,,,,,,,,,,,,,,,,,,,,100,1500,100,,,,,,,,,,,,,,0.140339564
X,10,12,2023,577,93425,41.191985,-69.754955,172,468,1,-,,5,,,2,3,H,,,,,,,,,,,,,,,,,,,,,,,,,,,,,,99,1500,100,,,,,,,,,,,,,,0.138409026
X,10,12,2023,578,93430,41.18971833,-69.75449,171,467,1,-,,5,,,2,3,H,,,,,,,,,,,,,,,,,,,,,,,,,,,,,,99.9,1500,100,,,,,,,,,,,,,,0.137703846
X,10,12,2023,579,93435,41.18743667,-69.75396,170,466,1,-,,5,,,2,3,H,,,,,,,,,,,,,,,,,,,,,,,,,,,,,,100.3,1500,100,,,,,,,,,,,,,,0.139069611
X,10,12,2023,580,93440,41.18514833,-69.75344667,171,465,1,-,,5,,,2,3,H,,,,,,,,,,,,,,,,,,,,,,,,,,,,,,99.9,1500,100,,,,,,,,,,,,,,0.139336723
X,10,12,2023,581,93445,41.18285,-69.75302,173,467,1,-,,5,,,2,3,H,,,,,,,,,,,,,,,,,,,,,,,,,,,,,,99.8,1500,100,,,,,,,,,,,,,,0.139333282
X,10,12,2023,582,93450,41.180565,-69.75266,174,472,1,-,,5,,,2,3,H,,,,,,,,,,,,,,,,,,,,,,,,,,,,,,98.5,1500,100,,,,,,,,,,,,,,0.138153552
X,10,12,2023,583,93455,41.17828333,-69.75237667,175,472,1,-,,5,,,2,3,H,,,,,,,,,,,,,,,,,,,,,,,,,,,,,,99.2,1500,100,,,,,,,,,,,,,,0.137589344
X,10,12,2023,584,93500,41.17598667,-69.75204333,173,469,1,-,,5,,,2,3,H,,,,,,,,,,,,,,,,,,,,,,,,,,,,,,100.4,1500,100,,,,,,,,,,,,,,0.138713271
X,10,12,2023,585,93505,41.17366,-69.75169333,174,464,1,-,,5,,,2,3,H,,,,,,,,,,,,,,,,,,,,,,,,,,,,,,101.4,1500,100,,,,,,,,,,,,,,0.140586776
X,10,12,2023,586,93510,41.17131,-69.75139833,175,462,1,-,,5,,,2,3,H,,,,,,,,,,,,,,,,,,,,,,,,,,,,,,102.2,1500,100,,,,,,,,,,,,,,0.141723572
X,10,12,2023,587,93515,41.168965,-69.75111167,175,465,1,-,,5,,,2,3,H,,,,,,,,,,,,,,,,,,,,,,,,,,,,,,101.1,1500,100,,,,,,,,,,,,,,0.141389739
X,10,12,2023,588,93519,41.16716461,-69.75093422,176,467,1,-,,5,,,2,3,H,,,,,,,,,,,,,,,,,,,,,,,,,,,,,,101,1500,100,,,,,,,,,,,,,,0.108393419
S,10,12,2023,589,93520,41.16664833,-69.75088333,176,468,2,1,96,5,2,2,2,3,H,2,,,,,,,,,,,,,,,,,,,,,,,,,,,,,100.9,1500,100,,,,,,,,,,BEGIN LINE,,,,0.139476052
X,10,12,2023,590,93525,41.16433333,-69.75080667,179,468,2,2,96,5,2,2,2,3,H,,,,,,,,,,,,,,,,,,,,,,,,,,,,,,99.5,1500,100,,,,,,,,,,,,,,0.139036848
X,10,12,2023,591,93525,41.1641202,-69.7508013,179,468,2,2,96,5,2,2,2,3,H,,,,,,,,,,,,,,,,,,,,,,,,,,,,,,99.6,1500,100,,,,,,,,,,,,,,0.012799024
X,10,12,2023,592,93530,41.16201667,-69.75074833,178,466,2,2,96,5,2,2,2,3,H,,,,,,,,,,,,,,,,,,,,,,,,,,,,,,100.1,1500,100,,,,,,,,,,,,,,0.139118715
X,10,12,2023,593,93535,41.15969,-69.7506,177,466,2,2,96,5,2,2,2,3,H,,,,,,,,,,,,,,,,,,,,,,,,,,,,,,99.9,1500,100,,,,,,,,,,,,,,0.139854951
X,10,12,2023,594,93540,41.15736167,-69.75044833,178,466,2,2,96,5,2,2,2,3,H,,,,,,,,,,,,,,,,,,,,,,,,,,,,,,100,1500,100,,,,,,,,,,,,,,0.139962215
X,10,12,2023,595,93540,41.15736167,-69.75044833,178,466,2,2,96,5,2,2,2,3,H,,,,,,,,,,,,,,,,,,,,,,,,,,,,,,100,1500,100,,,,,,,,,,,,,,0
X,10,12,2023,596,93545,41.15503667,-69.75036,179,468,2,2,96,5,2,2,2,3,H,,,,,,,,,,,,,,,,,,,,,,,,,,,,,,100.1,1500,100,,,,,,,,,,,,,,0.139651164
X,10,12,2023,597,93550,41.15271,-69.75032,180,470,2,2,96,5,2,2,2,3,H,,,,,,,,,,,,,,,,,,,,,,,,,,,,,,100.7,1500,100,,,,,,,,,,,,,,0.139705834
X,10,12,2023,598,93555,41.15039,-69.75031667,180,472,2,2,96,5,2,2,2,3,H,,,,,,,,,,,,,,,,,,,,,,,,,,,,,,99.8,1500,100,,,,,,,,,,,,,,0.139293942
X,10,12,2023,599,93600,41.14809667,-69.75036833,181,474,2,2,96,5,2,2,2,3,H,,,,,,,,,,,,,,,,,,,,,,,,,,,,,,98.9,1500,100,,,,,,,,,,,,,,0.137712594
X,10,12,2023,600,93605,41.14581167,-69.750465,182,475,2,2,96,5,2,2,2,3,H,,,,,,,,,,,,,,,,,,,,,,,,,,,,,,98,1500,100,,,,,,,,,,,,,,0.137262041
X,10,12,2023,601,93610,41.14352333,-69.75057167,182,475,2,2,96,5,2,2,2,3,H,,,,,,,,,,,,,,,,,,,,,,,,,,,,,,98.5,1500,100,,,,,,,,,,,,,,0.137477198
X,10,12,2023,602,93610,41.14352333,-69.75057167,182,475,2,2,96,5,2,2,2,3,H,,,,,,,,,,,,,,,,,,,,,,,,,,,,,,98.5,1500,100,,,,,,,,,,,,,,0
X,10,12,2023,603,93615,41.14121833,-69.75067667,182,471,2,2,96,5,2,2,2,3,H,,,,,,,,,,,,,,,,,,,,,,,,,,,,,,100.7,1500,100,,,,,,,,,,,,,,0.138474663
X,10,12,2023,604,93620,41.13889167,-69.75073,179,467,2,2,96,5,2,2,2,3,H,,,,,,,,,,,,,,,,,,,,,,,,,,,,,,101.3,1500,100,,,,,,,,,,,,,,0.139714944
X,10,12,2023,605,93625,41.13652667,-69.75067667,179,468,2,2,96,5,2,2,2,3,H,,,,,,,,,,,,,,,,,,,,,,,,,,,,,,101.5,1500,100,,,,,,,,,,,,,,0.142016159
X,10,12,2023,606,93630,41.134175,-69.75061167,179,471,2,2,96,5,2,2,2,3,H,,,,,,,,,,,,,,,,,,,,,,,,,,,,,,101.6,1500,100,,,,,,,,,,,,,,0.141225733
X,10,12,2023,607,93635,41.13182833,-69.75058,180,469,2,2,96,5,2,2,2,3,H,,,,,,,,,,,,,,,,,,,,,,,,,,,,,,101.2,1500,100,,,,,,,,,,,,,,0.140902217
X,10,12,2023,608,93640,41.12947333,-69.75057,180,464,2,2,96,5,2,2,2,3,H,,,,,,,,,,,,,,,,,,,,,,,,,,,,,,102.5,1500,100,,,,,,,,,,,,,,0.141396
X,10,12,2023,609,93645,41.127085,-69.75054,179,466,2,2,96,5,2,2,2,3,H,,,,,,,,,,,,,,,,,,,,,,,,,,,,,,103.6,1500,100,,,,,,,,,,,,,,0.143403043
X,10,12,2023,610,93650,41.12469833,-69.750515,179,468,2,2,96,5,2,2,2,3,H,,,,,,,,,,,,,,,,,,,,,,,,,,,,,,102.8,1500,100,,,,,,,,,,,,,,0.143301018
X,10,12,2023,611,93655,41.12232,-69.75047833,179,471,2,2,96,5,2,2,2,3,H,,,,,,,,,,,,,,,,,,,,,,,,,,,,,,102.6,1500,100,,,,,,,,,,,,,,0.14280585
X,10,12,2023,612,93700,41.11996667,-69.75038333,178,472,2,2,96,5,2,2,2,3,H,,,,,,,,,,,,,,,,,,,,,,,,,,,,,,99.8,1500,100,,,,,,,,,,,,,,0.141360528
X,10,12,2023,613,93705,41.11762167,-69.75025833,177,472,2,2,96,5,2,2,2,3,H,,,,,,,,,,,,,,,,,,,,,,,,,,,,,,101.8,1500,100,,,,,,,,,,,,,,0.140908349
X,10,12,2023,614,93710,41.115265,-69.7501,177,471,2,2,96,5,2,2,2,3,H,,,,,,,,,,,,,,,,,,,,,,,,,,,,,,103.4,1500,100,,,,,,,,,,,,,,0.14167648
X,10,12,2023,615,93715,41.1129,-69.74986833,175,471,2,2,96,5,2,2,2,3,H,,,,,,,,,,,,,,,,,,,,,,,,,,,,,,102.5,1500,100,,,,,,,,,,,,,,0.142381846
X,10,12,2023,616,93720,41.11053833,-69.74966167,177,470,2,2,96,5,2,2,2,3,H,,,,,,,,,,,,,,,,,,,,,,,,,,,,,,102.3,1500,100,,,,,,,,,,,,,,0.142103404
X,10,12,2023,617,93725,41.108175,-69.74955333,180,472,2,2,96,5,2,2,2,3,H,,,,,,,,,,,,,,,,,,,,,,,,,,,,,,101.6,1500,100,,,,,,,,,,,,,,0.141980219
X,10,12,2023,618,93730,41.10582333,-69.749565,180,474,2,2,96,5,2,2,2,3,H,,,,,,,,,,,,,,,,,,,,,,,,,,,,,,100.9,1500,100,,,,,,,,,,,,,,0.141196128
X,10,12,2023,619,93735,41.10347833,-69.74959667,180,477,2,2,96,5,2,2,2,3,H,,,,,,,,,,,,,,,,,,,,,,,,,,,,,,100.9,1500,100,,,,,,,,,,,,,,0.140802161
X,10,12,2023,620,93740,41.101145,-69.74963,181,477,2,2,96,5,2,2,2,3,H,,,,,,,,,,,,,,,,,,,,,,,,,,,,,,101.1,1500,100,,,,,,,,,,,,,,0.140102517
X,10,12,2023,621,93740,41.101145,-69.74963,181,477,2,2,96,5,2,2,2,3,H,,,,,,,,,,,,,,,,,,,,,,,,,,,,,,101.1,1500,100,,,,,,,,,,,,,,0
X,10,12,2023,622,93745,41.09881,-69.74968,181,478,2,2,96,5,2,2,2,3,H,,,,,,,,,,,,,,,,,,,,,,,,,,,,,,101,1500,100,,,,,,,,,,,,,,0.140212718
X,10,12,2023,623,93750,41.09646,-69.749705,180,482,2,2,96,5,2,2,2,3,H,,,,,,,,,,,,,,,,,,,,,,,,,,,,,,100.7,1500,100,,,,,,,,,,,,,,0.141099608
X,10,12,2023,624,93755,41.09413,-69.74973333,180,489,2,2,96,5,2,2,2,3,H,,,,,,,,,,,,,,,,,,,,,,,,,,,,,,100.5,1500,100,,,,,,,,,,,,,,0.139900139
X,10,12,2023,625,93800,41.09182667,-69.74976167,181,491,2,2,96,5,2,2,2,3,H,,,,,,,,,,,,,,,,,,,,,,,,,,,,,,100,1500,100,,,,,,,,,,,,,,0.138299129
X,10,12,2023,626,93805,41.08950333,-69.74980833,181,483,2,2,96,5,2,2,2,3,H,,,,,,,,,,,,,,,,,,,,,,,,,,,,,,100.2,1500,100,,,,,,,,,,,,,,0.139509978
X,10,12,2023,627,93810,41.08712667,-69.74982333,180,472,2,2,96,5,2,2,2,3,H,,,,,,,,,,,,,,,,,,,,,,,,,,,,,,104,1500,100,,,,,,,,,,,,,,0.142697768
X,10,12,2023,628,93810,41.08712667,-69.74982333,180,472,2,2,96,5,2,2,2,3,H,,,,,,,,,,,,,,,,,,,,,,,,,,,,,,104,1500,100,,,,,,,,,,,,,,0
X,10,12,2023,629,93815,41.08468333,-69.749825,180,470,2,2,96,5,2,2,2,3,H,,,,,,,,,,,,,,,,,,,,,,,,,,,,,,105.5,1500,100,,,,,,,,,,,,,,0.14669887
X,10,12,2023,630,93820,41.08224167,-69.74981667,179,469,2,2,96,5,2,2,2,3,H,,,,,,,,,,,,,,,,,,,,,,,,,,,,,,104.9,1500,100,,,,,,,,,,,,,,0.146599268
X,10,12,2023,631,93825,41.07978833,-69.74977,180,466,2,2,96,5,2,2,2,3,H,,,,,,,,,,,,,,,,,,,,,,,,,,,,,,106.7,1500,100,,,,,,,,,,,,,,0.147314395
X,10,12,2023,632,93830,41.07732667,-69.74977167,181,463,2,2,96,5,2,2,2,3,H,,,,,,,,,,,,,,,,,,,,,,,,,,,,,,106.6,1500,100,,,,,,,,,,,,,,0.147799611
X,10,12,2023,633,93835,41.074875,-69.74986,182,465,2,2,96,5,2,2,2,3,H,,,,,,,,,,,,,,,,,,,,,,,,,,,,,,105.2,1500,100,,,,,,,,,,,,,,0.147253472
X,10,12,2023,634,93840,41.07244833,-69.74998333,183,466,2,2,96,5,2,2,2,3,H,,,,,,,,,,,,,,,,,,,,,,,,,,,,,,105,1500,100,,,,,,,,,,,,,,0.14580508
X,10,12,2023,635,93840,41.07244833,-69.74998333,183,466,2,2,96,5,2,2,2,3,H,,,,,,,,,,,,,,,,,,,,,,,,,,,,,,105,1500,100,,,,,,,,,,,,,,0
X,10,12,2023,636,93845,41.07002167,-69.75013667,183,464,2,2,96,5,2,2,2,3,H,,,,,,,,,,,,,,,,,,,,,,,,,,,,,,105.5,1500,100,,,,,,,,,,,,,,0.145863392
S,10,12,2023,637,93849,41.06782617,-69.75028725,183,464,2,2,96,5,3,2,2,3,H,3,,,,,,,,,,,,,,,,,,,,,,,,,,,,,104.6,1500,100,,,,,,,,,,,,,,0.13199475
X,10,12,2023,638,93850,41.06759167,-69.75030333,183,464,2,2,96,5,3,2,2,3,H,,,,,,,,,,,,,,,,,,,,,,,,,,,,,,104.5,1500,100,,,,,,,,,,,,,,0.146093236
X,10,12,2023,639,93855,41.06516,-69.75040333,181,461,2,2,96,5,3,2,2,3,H,,,,,,,,,,,,,,,,,,,,,,,,,,,,,,105.1,1500,100,,,,,,,,,,,,,,0.146068538
X,10,12,2023,640,93900,41.06272,-69.75041333,180,459,2,2,96,5,3,2,2,3,H,,,,,,,,,,,,,,,,,,,,,,,,,,,,,,105.7,1500,100,,,,,,,,,,,,,,0.146499415
X,10,12,2023,641,93905,41.06029167,-69.75038833,180,458,2,2,96,5,3,2,2,3,H,,,,,,,,,,,,,,,,,,,,,,,,,,,,,,104.7,1500,100,,,,,,,,,,,,,,0.145802636
X,10,12,2023,642,93910,41.05787667,-69.75036,179,461,2,2,96,5,3,2,2,3,H,,,,,,,,,,,,,,,,,,,,,,,,,,,,,,103.5,1500,100,,,,,,,,,,,,,,0.145003378
X,10,12,2023,643,93915,41.05547833,-69.75031833,179,460,2,2,96,5,3,2,2,3,H,,,,,,,,,,,,,,,,,,,,,,,,,,,,,,103.1,1500,100,,,,,,,,,,,,,,0.144009386
X,10,12,2023,644,93920,41.05307,-69.75023833,178,457,2,2,96,5,3,2,2,3,H,,,,,,,,,,,,,,,,,,,,,,,,,,,,,,104.9,1500,100,,,,,,,,,,,,,,0.144642792
X,10,12,2023,645,93925,41.05065167,-69.750115,178,452,2,2,96,5,3,2,2,3,H,,,,,,,,,,,,,,,,,,,,,,,,,,,,,,104.9,1500,100,,,,,,,,,,,,,,0.145305182
X,10,12,2023,646,93930,41.04823333,-69.75001167,179,452,2,2,96,5,3,2,2,3,H,,,,,,,,,,,,,,,,,,,,,,,,,,,,,,104.3,1500,100,,,,,,,,,,,,,,0.145273205
X,10,12,2023,647,93935,41.04581333,-69.74995333,179,455,2,2,96,5,3,2,2,3,H,,,,,,,,,,,,,,,,,,,,,,,,,,,,,,104.4,1500,100,,,,,,,,,,,,,,0.145321913
X,10,12,2023,648,93940,41.04340667,-69.74991,180,456,2,2,96,5,3,2,2,3,H,,,,,,,,,,,,,,,,,,,,,,,,,,,,,,103.2,1500,100,,,,,,,,,,,,,,0.14451069
X,10,12,2023,649,93940,41.04340667,-69.74991,180,456,2,2,96,5,3,2,2,3,H,,,,,,,,,,,,,,,,,,,,,,,,,,,,,,103.2,1500,100,,,,,,,,,,,,,,0
X,10,12,2023,650,93945,41.04100167,-69.74991,180,455,2,2,96,5,3,2,2,3,H,,,,,,,,,,,,,,,,,,,,,,,,,,,,,,103.4,1500,100,,,,,,,,,,,,,,0.144397299
X,10,12,2023,651,93950,41.03858667,-69.74993833,181,457,2,2,96,5,3,2,2,3,H,,,,,,,,,,,,,,,,,,,,,,,,,,,,,,104.3,1500,100,,,,,,,,,,,,,,0.145003381
X,10,12,2023,652,93955,41.03617333,-69.749995,181,461,2,2,96,5,3,2,2,3,H,,,,,,,,,,,,,,,,,,,,,,,,,,,,,,103.7,1500,100,,,,,,,,,,,,,,0.144920361
X,10,12,2023,653,94000,41.03377167,-69.75003,180,462,2,2,96,5,3,2,2,3,H,,,,,,,,,,,,,,,,,,,,,,,,,,,,,,103.2,1500,100,,,,,,,,,,,,,,0.144205877
X,10,12,2023,654,94005,41.03136167,-69.75002333,179,460,2,2,96,5,3,2,2,3,H,,,,,,,,,,,,,,,,,,,,,,,,,,,,,,104.2,1500,100,,,,,,,,,,,,,,0.144697817
X,10,12,2023,655,94010,41.02894833,-69.74997833,179,458,2,2,96,5,3,2,2,3,H,,,,,,,,,,,,,,,,,,,,,,,,,,,,,,104.4,1500,100,,,,,,,,,,,,,,0.14491197
X,10,12,2023,656,94015,41.02653167,-69.74991333,179,458,2,2,96,5,3,2,2,3,H,,,,,,,,,,,,,,,,,,,,,,,,,,,,,,103.3,1500,100,,,,,,,,,,,,,,0.145127637
X,10,12,2023,657,94020,41.02412,-69.74989333,180,458,2,2,96,5,3,2,2,3,H,,,,,,,,,,,,,,,,,,,,,,,,,,,,,,104.3,1500,100,,,,,,,,,,,,,,0.144800403
X,10,12,2023,658,94025,41.02170833,-69.74989,180,458,2,2,96,5,3,2,2,3,H,,,,,,,,,,,,,,,,,,,,,,,,,,,,,,104,1500,100,,,,,,,,,,,,,,0.144797648
X,10,12,2023,659,94030,41.01929167,-69.74987833,180,458,2,2,96,5,3,2,2,3,H,,,,,,,,,,,,,,,,,,,,,,,,,,,,,,104.3,1500,100,,,,,,,,,,,,,,0.145098734
X,10,12,2023,660,94035,41.016865,-69.74989667,180,457,2,2,96,5,3,2,2,3,H,,,,,,,,,,,,,,,,,,,,,,,,,,,,,,104.7,1500,100,,,,,,,,,,,,,,0.145700543
X,10,12,2023,661,94040,41.01443167,-69.74995167,181,458,2,2,96,5,3,2,2,3,H,,,,,,,,,,,,,,,,,,,,,,,,,,,,,,104.7,1500,100,,,,,,,,,,,,,,0.146119691
X,10,12,2023,662,94045,41.01201167,-69.75001,181,462,2,2,96,5,3,2,2,3,H,,,,,,,,,,,,,,,,,,,,,,,,,,,,,,103.6,1500,100,,,,,,,,,,,,,,0.145321938
X,10,12,2023,663,94050,41.00962333,-69.75004,180,467,2,2,96,5,3,2,2,3,H,,,,,,,,,,,,,,,,,,,,,,,,,,,,,,103.1,1500,100,,,,,,,,,,,,,,0.143403066
X,10,12,2023,664,94055,41.007255,-69.74999,178,466,2,2,96,5,3,2,2,3,H,,,,,,,,,,,,,,,,,,,,,,,,,,,,,,101.6,1500,100,,,,,,,,,,,,,,0.14221386
X,10,12,2023,665,94100,41.00488,-69.749855,177,465,2,2,96,5,3,2,2,3,H,,,,,,,,,,,,,,,,,,,,,,,,,,,,,,103.5,1500,100,,,,,,,,,,,,,,0.142727215
X,10,12,2023,666,94105,41.00247333,-69.74971333,178,464,2,2,96,5,3,2,2,3,H,,,,,,,,,,,,,,,,,,,,,,,,,,,,,,104.1,1500,100,,,,,,,,,,,,,,0.144639872
X,10,12,2023,667,94110,41.00004833,-69.74968,180,460,2,2,96,5,3,2,2,3,H,,,,,,,,,,,,,,,,,,,,,,,,,,,,,,104.6,1500,100,,,,,,,,,,,,,,0.145605943
X,10,12,2023,668,94110,41.00004833,-69.74968,180,460,2,2,96,5,3,2,2,3,H,,,,,,,,,,,,,,,,,,,,,,,,,,,,,,104.6,1500,100,,,,,,,,,,,,,,0
X,10,12,2023,669,94115,40.99762,-69.74967833,180,458,2,2,96,5,3,2,2,3,H,,,,,,,,,,,,,,,,,,,,,,,,,,,,,,104.1,1500,100,,,,,,,,,,,,,,0.145798263
X,10,12,2023,670,94120,40.99520167,-69.749675,180,460,2,2,96,5,3,2,2,3,H,,,,,,,,,,,,,,,,,,,,,,,,,,,,,,103.9,1500,100,,,,,,,,,,,,,,0.145197917
X,10,12,2023,671,94125,40.99279333,-69.749715,181,461,2,2,96,5,3,2,2,3,H,,,,,,,,,,,,,,,,,,,,,,,,,,,,,,103.6,1500,100,,,,,,,,,,,,,,0.144608796
X,10,12,2023,672,94130,40.99039,-69.74979,182,459,2,2,96,5,3,2,2,3,H,,,,,,,,,,,,,,,,,,,,,,,,,,,,,,103,1500,100,,,,,,,,,,,,,,0.144337257
X,10,12,2023,673,94135,40.98796667,-69.74987167,181,458,2,2,96,5,3,2,2,3,H,,,,,,,,,,,,,,,,,,,,,,,,,,,,,,104.9,1500,100,,,,,,,,,,,,,,0.145545109
X,10,12,2023,674,94140,40.98552667,-69.74994,181,456,2,2,96,5,3,2,2,3,H,,,,,,,,,,,,,,,,,,,,,,,,,,,,,,105.4,1500,100,,,,,,,,,,,,,,0.146531448
X,10,12,2023,675,94145,40.983075,-69.74999667,181,460,2,2,96,5,3,2,2,3,H,,,,,,,,,,,,,,,,,,,,,,,,,,,,,,105.4,1500,100,,,,,,,,,,,,,,0.147221592
X,10,12,2023,676,94150,40.98063833,-69.75007333,181,463,2,2,96,5,3,2,2,3,H,,,,,,,,,,,,,,,,,,,,,,,,,,,,,,104.5,1500,100,,,,,,,,,,,,,,0.146339844
X,10,12,2023,677,94155,40.97821667,-69.75016167,181,465,2,2,96,5,3,2,2,3,H,,,,,,,,,,,,,,,,,,,,,,,,,,,,,,104.5,1500,100,,,,,,,,,,,,,,0.145453092
X,10,12,2023,678,94200,40.97579,-69.75020333,180,465,2,2,96,5,3,2,2,3,H,,,,,,,,,,,,,,,,,,,,,,,,,,,,,,104.6,1500,100,,,,,,,,,,,,,,0.145710417
X,10,12,2023,679,94205,40.97338,-69.75023167,181,463,2,2,96,5,3,2,2,3,H,,,,,,,,,,,,,,,,,,,,,,,,,,,,,,103.5,1500,100,,,,,,,,,,,,,,0.144703202
X,10,12,2023,680,94210,40.97094667,-69.75030333,182,462,2,2,96,5,3,2,2,3,H,,,,,,,,,,,,,,,,,,,,,,,,,,,,,,104.9,1500,100,,,,,,,,,,,,,,0.146134563
X,10,12,2023,681,94215,40.96852,-69.75037,181,462,2,2,96,5,3,2,2,3,H,,,,,,,,,,,,,,,,,,,,,,,,,,,,,,104.5,1500,100,,,,,,,,,,,,,,0.145729519
X,10,12,2023,682,94220,40.96609833,-69.75037667,180,464,2,2,96,5,3,2,2,3,H,,,,,,,,,,,,,,,,,,,,,,,,,,,,,,104.4,1500,100,,,,,,,,,,,,,,0.145398288
X,10,12,2023,683,94225,40.96368667,-69.75034667,179,465,2,2,96,5,3,2,2,3,H,,,,,,,,,,,,,,,,,,,,,,,,,,,,,,104.1,1500,100,,,,,,,,,,,,,,0.144803957
X,10,12,2023,684,94230,40.96127333,-69.75030333,179,467,2,2,96,5,3,2,2,3,H,,,,,,,,,,,,,,,,,,,,,,,,,,,,,,103.8,1500,100,,,,,,,,,,,,,,0.144910956
X,10,12,2023,685,94235,40.95886667,-69.75025,179,469,2,2,96,5,3,2,2,3,H,,,,,,,,,,,,,,,,,,,,,,,,,,,,,,103.6,1500,100,,,,,,,,,,,,,,0.144517599
X,10,12,2023,686,94240,40.95646,-69.75018333,179,468,2,2,96,5,3,2,2,3,H,,,,,,,,,,,,,,,,,,,,,,,,,,,,,,103.5,1500,100,,,,,,,,,,,,,,0.144528981
X,10,12,2023,687,94245,40.95404333,-69.75012167,179,468,2,2,96,5,3,2,2,3,H,,,,,,,,,,,,,,,,,,,,,,,,,,,,,,103.4,1500,100,,,,,,,,,,,,,,0.145124712
X,10,12,2023,688,94250,40.95160333,-69.750075,179,466,2,2,96,5,3,2,2,3,H,,,,,,,,,,,,,,,,,,,,,,,,,,,,,,104.6,1500,100,,,,,,,,,,,,,,0.146513998
X,10,12,2023,689,94255,40.94916667,-69.74998333,178,467,2,2,96,5,3,2,2,3,H,,,,,,,,,,,,,,,,,,,,,,,,,,,,,,105.1,1500,100,,,,,,,,,,,,,,0.146357623
X,10,12,2023,690,94300,40.94672833,-69.74988167,178,470,2,2,96,5,3,2,2,3,H,,,,,,,,,,,,,,,,,,,,,,,,,,,,,,105.5,1500,100,,,,,,,,,,,,,,0.146471228
X,10,12,2023,691,94305,40.9443,-69.74979667,179,472,2,2,96,5,3,2,2,3,H,,,,,,,,,,,,,,,,,,,,,,,,,,,,,,104.6,1500,100,,,,,,,,,,,,,,0.145849194
X,10,12,2023,692,94310,40.94186833,-69.74977167,180,471,2,2,96,5,3,2,2,3,H,,,,,,,,,,,,,,,,,,,,,,,,,,,,,,105.5,1500,100,,,,,,,,,,,,,,0.146002781
X,10,12,2023,693,94310,40.94186833,-69.74977167,180,471,2,2,96,5,3,2,2,3,H,,,,,,,,,,,,,,,,,,,,,,,,,,,,,,105.5,1500,100,,,,,,,,,,,,,,0
X,10,12,2023,694,94315,40.93944,-69.74979667,181,470,2,2,96,5,3,2,2,3,H,,,,,,,,,,,,,,,,,,,,,,,,,,,,,,104.5,1500,100,,,,,,,,,,,,,,0.145802652
X,10,12,2023,695,94320,40.93700667,-69.749845,180,467,2,2,96,5,3,2,2,3,H,,,,,,,,,,,,,,,,,,,,,,,,,,,,,,105,1500,100,,,,,,,,,,,,,,0.146114892
X,10,12,2023,696,94325,40.93457,-69.74988667,181,470,2,2,96,5,3,2,2,3,H,,,,,,,,,,,,,,,,,,,,,,,,,,,,,,104.5,1500,100,,,,,,,,,,,,,,0.146310787
X,10,12,2023,697,94330,40.93215333,-69.74996667,182,473,2,2,96,5,3,2,2,3,H,,,,,,,,,,,,,,,,,,,,,,,,,,,,,,103.8,1500,100,,,,,,,,,,,,,,0.145143139
X,10,12,2023,698,94335,40.92975833,-69.75003333,181,474,2,2,96,5,3,2,2,3,H,,,,,,,,,,,,,,,,,,,,,,,,,,,,,,103.5,1500,100,,,,,,,,,,,,,,0.143828689
X,10,12,2023,699,94340,40.92735167,-69.75007333,181,472,2,2,96,5,3,2,2,3,H,,,,,,,,,,,,,,,,,,,,,,,,,,,,,,104.2,1500,100,,,,,,,,,,,,,,0.144508759
X,10,12,2023,700,94345,40.924925,-69.750135,182,470,2,2,96,5,3,2,2,3,H,,,,,,,,,,,,,,,,,,,,,,,,,,,,,,105.1,1500,100,,,,,,,,,,,,,,0.145725029
X,10,12,2023,701,94350,40.92249167,-69.75020333,181,470,2,2,96,5,3,2,2,3,H,,,,,,,,,,,,,,,,,,,,,,,,,,,,,,104.5,1500,100,,,,,,,,,,,,,,0.14613133
X,10,12,2023,702,94355,40.92006333,-69.750215,180,472,2,2,96,5,3,2,2,3,H,,,,,,,,,,,,,,,,,,,,,,,,,,,,,,104.9,1500,100,,,,,,,,,,,,,,0.145799204
X,10,12,2023,703,94400,40.91762167,-69.75018667,180,470,2,2,96,5,3,2,2,3,H,,,,,,,,,,,,,,,,,,,,,,,,,,,,,,105.6,1500,100,,,,,,,,,,,,,,0.146604419
X,10,12,2023,704,94405,40.91517667,-69.75015333,179,468,2,2,96,5,3,2,2,3,H,,,,,,,,,,,,,,,,,,,,,,,,,,,,,,105.8,1500,100,,,,,,,,,,,,,,0.146806708
X,10,12,2023,705,94410,40.91273167,-69.75009833,179,468,2,2,96,5,3,2,2,3,H,,,,,,,,,,,,,,,,,,,,,,,,,,,,,,105.6,1500,100,,,,,,,,,,,,,,0.146820127
X,10,12,2023,706,94410,40.91273167,-69.75009833,179,468,2,2,96,5,3,2,2,3,H,,,,,,,,,,,,,,,,,,,,,,,,,,,,,,105.6,1500,100,,,,,,,,,,,,,,0
X,10,12,2023,707,94415,40.91028,-69.75004167,179,467,2,2,96,5,3,2,2,3,H,,,,,,,,,,,,,,,,,,,,,,,,,,,,,,106.5,1500,100,,,,,,,,,,,,,,0.147221642
X,10,12,2023,708,94420,40.90781,-69.750015,180,464,2,2,96,5,3,2,2,3,H,,,,,,,,,,,,,,,,,,,,,,,,,,,,,,106.7,1500,100,,,,,,,,,,,,,,0.148304866
X,10,12,2023,709,94425,40.90532667,-69.750045,181,463,2,2,96,5,3,2,2,3,H,,,,,,,,,,,,,,,,,,,,,,,,,,,,,,106.8,1500,100,,,,,,,,,,,,,,0.149106683
X,10,12,2023,710,94430,40.90284833,-69.75008333,180,464,2,2,96,5,3,2,2,3,H,,,,,,,,,,,,,,,,,,,,,,,,,,,,,,106.7,1500,100,,,,,,,,,,,,,,0.148810434
X,10,12,2023,711,94435,40.90038667,-69.75007333,180,465,2,2,96,5,3,2,2,3,H,,,,,,,,,,,,,,,,,,,,,,,,,,,,,,105.7,1500,100,,,,,,,,,,,,,,0.147800289
X,10,12,2023,712,94440,40.897925,-69.75006167,180,465,2,2,96,5,3,2,2,3,H,,,,,,,,,,,,,,,,,,,,,,,,,,,,,,106,1500,100,,,,,,,,,,,,,,0.14780054
X,10,12,2023,713,94445,40.89545167,-69.75007833,180,465,2,2,96,5,3,2,2,3,H,,,,,,,,,,,,,,,,,,,,,,,,,,,,,,106.7,1500,100,,,,,,,,,,,,,,0.14850199
X,10,12,2023,714,94450,40.89298333,-69.75009,180,465,2,2,96,5,3,2,2,3,H,,,,,,,,,,,,,,,,,,,,,,,,,,,,,,105.7,1500,100,,,,,,,,,,,,,,0.148200808
X,10,12,2023,715,94455,40.89051667,-69.75006667,180,466,2,2,96,5,3,2,2,3,H,,,,,,,,,,,,,,,,,,,,,,,,,,,,,,106.5,1500,100,,,,,,,,,,,,,,0.148103581
X,10,12,2023,716,94500,40.88805333,-69.75002667,180,466,2,2,96,5,3,2,2,3,H,,,,,,,,,,,,,,,,,,,,,,,,,,,,,,106,1500,100,,,,,,,,,,,,,,0.147910803
X,10,12,2023,717,94505,40.88559167,-69.75001167,180,467,2,2,96,5,3,2,2,3,H,,,,,,,,,,,,,,,,,,,,,,,,,,,,,,106.3,1500,100,,,,,,,,,,,,,,0.14780116
X,10,12,2023,718,94510,40.88313167,-69.75009833,183,468,2,2,96,5,3,2,2,3,H,,,,,,,,,,,,,,,,,,,,,,,,,,,,,,106.3,1500,100,,,,,,,,,,,,,,0.147751907
X,10,12,2023,719,94515,40.88067167,-69.75029333,183,469,2,2,96,5,3,2,2,3,H,,,,,,,,,,,,,,,,,,,,,,,,,,,,,,105.8,1500,100,,,,,,,,,,,,,,0.14796454
X,10,12,2023,720,94520,40.87822667,-69.750475,183,473,2,2,96,5,3,2,2,3,H,,,,,,,,,,,,,,,,,,,,,,,,,,,,,,105.4,1500,100,,,,,,,,,,,,,,0.147030384
X,10,12,2023,721,94525,40.87579833,-69.750605,182,475,2,2,96,5,3,2,2,3,H,,,,,,,,,,,,,,,,,,,,,,,,,,,,,,104.2,1500,100,,,,,,,,,,,,,,0.14591764
X,10,12,2023,722,94530,40.87337833,-69.75065667,181,477,2,2,96,5,3,2,2,3,H,,,,,,,,,,,,,,,,,,,,,,,,,,,,,,104.2,1500,100,,,,,,,,,,,,,,0.145316839
X,10,12,2023,723,94535,40.87097167,-69.75067167,180,479,2,2,96,5,3,2,2,3,H,,,,,,,,,,,,,,,,,,,,,,,,,,,,,,104,1500,100,,,,,,,,,,,,,,0.144498972
X,10,12,2023,724,94540,40.86856,-69.75061,179,477,2,2,96,5,3,2,2,3,H,,,,,,,,,,,,,,,,,,,,,,,,,,,,,,105,1500,100,,,,,,,,,,,,,,0.144824636
X,10,12,2023,725,94540,40.86856,-69.75061,179,477,2,2,96,5,3,2,2,3,H,,,,,,,,,,,,,,,,,,,,,,,,,,,,,,105,1500,100,,,,,,,,,,,,,,0
X,10,12,2023,726,94545,40.86614167,-69.75051833,178,476,2,2,96,5,3,2,2,3,H,,,,,,,,,,,,,,,,,,,,,,,,,,,,,,105.2,1500,100,,,,,,,,,,,,,,0.145257479
X,10,12,2023,727,94550,40.86370667,-69.75037167,177,475,2,2,96,5,3,2,2,3,H,,,,,,,,,,,,,,,,,,,,,,,,,,,,,,105.4,1500,100,,,,,,,,,,,,,,0.146350109
X,10,12,2023,728,94555,40.86128333,-69.75026,178,476,2,2,96,5,3,2,2,3,H,,,,,,,,,,,,,,,,,,,,,,,,,,,,,,104.6,1500,100,,,,,,,,,,,,,,0.145586366
X,10,12,2023,729,94600,40.85885833,-69.750155,178,475,2,2,96,5,3,2,2,3,H,,,,,,,,,,,,,,,,,,,,,,,,,,,,,,104.8,1500,100,,,,,,,,,,,,,,0.145676157
X,10,12,2023,730,94605,40.85642333,-69.75003333,178,473,2,2,96,5,3,2,2,3,H,,,,,,,,,,,,,,,,,,,,,,,,,,,,,,105.7,1500,100,,,,,,,,,,,,,,0.146302873
X,10,12,2023,731,94610,40.85396,-69.749975,179,470,2,2,96,5,3,2,2,3,H,,,,,,,,,,,,,,,,,,,,,,,,,,,,,,106.5,1500,100,,,,,,,,,,,,,,0.147923382
X,10,12,2023,732,94615,40.85147667,-69.74997333,180,467,2,2,96,5,3,2,2,3,H,,,,,,,,,,,,,,,,,,,,,,,,,,,,,,107,1500,100,,,,,,,,,,,,,,0.149100488
X,10,12,2023,733,94620,40.84899667,-69.75000833,181,467,2,2,96,5,3,2,2,3,H,,,,,,,,,,,,,,,,,,,,,,,,,,,,,,107,1500,100,,,,,,,,,,,,,,0.148908818
X,10,12,2023,734,94625,40.84652667,-69.75006,181,465,2,2,96,5,3,2,2,3,H,,,,,,,,,,,,,,,,,,,,,,,,,,,,,,106.2,1500,100,,,,,,,,,,,,,,0.148318493
X,10,12,2023,735,94630,40.84405333,-69.75012,181,463,2,2,96,5,3,2,2,3,H,,,,,,,,,,,,,,,,,,,,,,,,,,,,,,106.8,1500,100,,,,,,,,,,,,,,0.148525067
X,10,12,2023,736,94635,40.84158833,-69.75013167,180,463,2,2,96,5,3,2,2,3,H,,,,,,,,,,,,,,,,,,,,,,,,,,,,,,106,1500,100,,,,,,,,,,,,,,0.148000676
X,10,12,2023,737,94640,40.83914833,-69.750065,178,466,2,2,96,5,3,2,2,3,H,,,,,,,,,,,,,,,,,,,,,,,,,,,,,,104.5,1500,100,,,,,,,,,,,,,,0.146530009
X,10,12,2023,738,94640,40.83914833,-69.750065,178,466,2,2,96,5,3,2,2,3,H,,,,,,,,,,,,,,,,,,,,,,,,,,,,,,104.5,1500,100,,,,,,,,,,,,,,0
X,10,12,2023,739,94645,40.83673167,-69.74990667,177,466,2,2,96,5,3,2,2,3,H,,,,,,,,,,,,,,,,,,,,,,,,,,,,,,104.4,1500,100,,,,,,,,,,,,,,0.145275913
X,10,12,2023,740,94650,40.83431667,-69.74976,178,467,2,2,96,5,3,2,2,3,H,,,,,,,,,,,,,,,,,,,,,,,,,,,,,,104.2,1500,100,,,,,,,,,,,,,,0.14515069
S,10,12,2023,741,94654,40.83241107,-69.74969908,179,468,2,2,96,5,3,2,1,3,H,4,,,,,,,,,,,,,,,,,,,,,,,,,,,,,103.3,1500,100,,,,,,,,,,,,,,0.114446641
X,10,12,2023,742,94655,40.83191833,-69.74968333,179,469,2,2,96,5,3,2,1,3,H,,,,,,,,,,,,,,,,,,,,,,,,,,,,,,103,1500,100,,,,,,,,,,,,,,0.144039142
X,10,12,2023,743,94700,40.82955833,-69.74963667,180,473,2,2,96,5,3,2,1,3,H,,,,,,,,,,,,,,,,,,,,,,,,,,,,,,101.2,1500,100,,,,,,,,,,,,,,0.141711338
X,10,12,2023,744,94705,40.82722167,-69.74966667,180,472,2,2,96,5,3,2,1,3,H,,,,,,,,,,,,,,,,,,,,,,,,,,,,,,100.9,1500,100,,,,,,,,,,,,,,0.140301155
X,10,12,2023,745,94710,40.824875,-69.74969,181,469,2,2,96,5,3,2,1,3,H,,,,,,,,,,,,,,,,,,,,,,,,,,,,,,101.6,1500,100,,,,,,,,,,,,,,0.140898927
X,10,12,2023,746,94715,40.822515,-69.74969167,180,467,2,2,96,5,3,2,1,3,H,,,,,,,,,,,,,,,,,,,,,,,,,,,,,,102.3,1500,100,,,,,,,,,,,,,,0.141695499
X,10,12,2023,747,94720,40.82015833,-69.74966167,179,467,2,2,96,5,3,2,1,3,H,,,,,,,,,,,,,,,,,,,,,,,,,,,,,,101.9,1500,100,,,,,,,,,,,,,,0.141501909
X,10,12,2023,748,94725,40.817815,-69.74965,181,468,2,2,96,5,3,2,1,3,H,,,,,,,,,,,,,,,,,,,,,,,,,,,,,,100.6,1500,100,,,,,,,,,,,,,,0.140695803
X,10,12,2023,749,94730,40.81549833,-69.74969167,181,470,2,2,96,5,3,2,1,3,H,,,,,,,,,,,,,,,,,,,,,,,,,,,,,,99.1,1500,100,,,,,,,,,,,,,,0.139106611
X,10,12,2023,750,94735,40.813205,-69.74979833,183,469,2,2,96,5,3,2,1,3,H,,,,,,,,,,,,,,,,,,,,,,,,,,,,,,99,1500,100,,,,,,,,,,,,,,0.137778066
X,10,12,2023,751,94740,40.81090667,-69.749915,182,465,2,2,96,5,3,2,1,3,H,,,,,,,,,,,,,,,,,,,,,,,,,,,,,,99.5,1500,100,,,,,,,,,,,,,,0.138094788
X,10,12,2023,752,94745,40.80861333,-69.75001333,182,466,2,2,96,5,3,2,1,3,H,,,,,,,,,,,,,,,,,,,,,,,,,,,,,,98.4,1500,100,,,,,,,,,,,,,,0.137765274
X,10,12,2023,753,94750,40.80635167,-69.750115,182,468,2,2,96,5,3,2,1,3,H,,,,,,,,,,,,,,,,,,,,,,,,,,,,,,97.2,1500,100,,,,,,,,,,,,,,0.135870079
X,10,12,2023,754,94755,40.80411,-69.75020833,182,467,2,2,96,5,3,2,1,3,H,,,,,,,,,,,,,,,,,,,,,,,,,,,,,,96.7,1500,100,,,,,,,,,,,,,,0.134657515
S,10,12,2023,755,94757,40.80289236,-69.75025195,181,466,2,2,96,5,3,2,1,2,H,5,,,,,,,,,,,,,,,,,,,,,,,,,,,,,96.6,1500,100,,,,,,,,,,,,,,0.073134525
S,10,12,2023,756,94759,40.80207176,-69.75028135,181,465,2,2,96,5,3,2,1,2,H,6,,61,SADO,30,,,1,3,3,,,,,,,,,,,,,,,,,,,,96.5,1500,100,,,,,,,,,,,,,,0.122422111
X,10,12,2023,757,94800,40.80187667,-69.75028833,181,465,2,2,96,5,3,2,1,2,H,,,,,,,,,,,,,,,,,,,,,,,,,,,,,,96.5,1500,100,,,,,,,,,,,,,,0.134139639
X,10,12,2023,758,94805,40.799645,-69.750325,180,462,2,2,96,5,3,2,1,2,H,,,,,,,,,,,,,,,,,,,,,,,,,,,,,,96.5,1500,100,,,,,,,,,,,,,,0.13400065
X,10,12,2023,759,94810,40.79742333,-69.75034833,180,462,2,2,96,5,3,2,1,2,H,,,,,,,,,,,,,,,,,,,,,,,,,,,,,,95.4,1500,100,,,,,,,,,,,,,,0.133394098
X,10,12,2023,760,94810,40.79742333,-69.75034833,180,462,2,2,96,5,3,2,1,2,H,,,,,,,,,,,,,,,,,,,,,,,,,,,,,,95.4,1500,100,,,,,,,,,,,,,,0
X,10,12,2023,761,94815,40.79522667,-69.75037333,181,464,2,2,96,5,3,2,1,2,H,,,,,,,,,,,,,,,,,,,,,,,,,,,,,,94.4,1500,100,,,,,,,,,,,,,,0.131893766
X,10,12,2023,762,94820,40.79303667,-69.75040167,180,462,2,2,96,5,3,2,1,2,H,,,,,,,,,,,,,,,,,,,,,,,,,,,,,,94.7,1500,100,,,,,,,,,,,,,,0.131494908
X,10,12,2023,763,94825,40.790825,-69.7504,179,458,2,2,96,5,3,2,1,2,H,,,,,,,,,,,,,,,,,,,,,,,,,,,,,,95.6,1500,100,,,,,,,,,,,,,,0.132789499
X,10,12,2023,764,94830,40.78862333,-69.75036667,180,461,2,2,96,5,3,2,1,2,H,,,,,,,,,,,,,,,,,,,,,,,,,,,,,,93.7,1500,100,,,,,,,,,,,,,,0.132197757
X,10,12,2023,765,94835,40.78646333,-69.75037333,180,466,2,2,96,5,3,2,1,2,H,,,,,,,,,,,,,,,,,,,,,,,,,,,,,,92.4,1500,100,,,,,,,,,,,,,,0.129687742
X,10,12,2023,766,94840,40.78431333,-69.75039833,181,466,2,2,96,5,3,2,1,2,H,,,,,,,,,,,,,,,,,,,,,,,,,,,,,,93,1500,100,,,,,,,,,,,,,,0.129091986
X,10,12,2023,767,94840,40.78431333,-69.75039833,181,466,2,2,96,5,3,2,1,2,H,,,,,,,,,,,,,,,,,,,,,,,,,,,,,,93,1500,100,,,,,,,,,,,,,,0
X,10,12,2023,768,94845,40.78214667,-69.75043,181,464,2,2,96,5,3,2,1,2,H,,,,,,,,,,,,,,,,,,,,,,,,,,,,,,93.8,1500,100,,,,,,,,,,,,,,0.130095623
X,10,12,2023,769,94850,40.77997,-69.75054,183,465,2,2,96,5,3,2,1,2,H,,,,,,,,,,,,,,,,,,,,,,,,,,,,,,93.6,1500,100,,,,,,,,,,,,,,0.130783711
X,10,12,2023,770,94855,40.77779667,-69.75067833,183,470,2,2,96,5,3,2,1,2,H,,,,,,,,,,,,,,,,,,,,,,,,,,,,,,93.4,1500,100,,,,,,,,,,,,,,0.130639406
X,10,12,2023,771,94900,40.77564333,-69.750795,182,476,2,2,96,5,3,2,1,2,H,,,,,,,,,,,,,,,,,,,,,,,,,,,,,,92.9,1500,100,,,,,,,,,,,,,,0.129395887
X,10,12,2023,772,94905,40.77349333,-69.75090167,181,480,2,2,96,5,3,2,1,2,H,,,,,,,,,,,,,,,,,,,,,,,,,,,,,,93.6,1500,100,,,,,,,,,,,,,,0.129178058
X,10,12,2023,773,94910,40.77130167,-69.75092167,180,480,2,2,96,5,3,2,1,2,H,,,,,,,,,,,,,,,,,,,,,,,,,,,,,,95.4,1500,100,,,,,,,,,,,,,,0.131591811
X,10,12,2023,774,94915,40.76908667,-69.75091,179,482,2,2,96,5,3,2,1,2,H,,,,,,,,,,,,,,,,,,,,,,,,,,,,,,96.4,1500,100,,,,,,,,,,,,,,0.132990671
X,10,12,2023,775,94920,40.76683,-69.750845,178,480,2,2,96,5,3,2,1,2,H,,,,,,,,,,,,,,,,,,,,,,,,,,,,,,98.5,1500,100,,,,,,,,,,,,,,0.135523533
X,10,12,2023,776,94925,40.76452333,-69.75073833,178,478,2,2,96,5,3,2,1,2,H,,,,,,,,,,,,,,,,,,,,,,,,,,,,,,100.1,1500,100,,,,,,,,,,,,,,0.138578237
X,10,12,2023,777,94930,40.762185,-69.75059,177,480,2,2,96,5,3,2,1,2,H,,,,,,,,,,,,,,,,,,,,,,,,,,,,,,100.9,1500,100,,,,,,,,,,,,,,0.140556559
X,10,12,2023,778,94935,40.75983833,-69.75036667,176,479,2,2,96,5,3,2,1,2,H,,,,,,,,,,,,,,,,,,,,,,,,,,,,,,102.3,1500,100,,,,,,,,,,,,,,0.141260536
X,10,12,2023,779,94940,40.75746333,-69.75017833,177,480,2,2,96,5,3,2,1,2,H,,,,,,,,,,,,,,,,,,,,,,,,,,,,,,103.3,1500,100,,,,,,,,,,,,,,0.14285309
X,10,12,2023,780,94940,40.75746333,-69.75017833,177,480,2,2,96,5,3,2,1,2,H,,,,,,,,,,,,,,,,,,,,,,,,,,,,,,103.3,1500,100,,,,,,,,,,,,,,0
X,10,12,2023,781,94945,40.755065,-69.750005,177,488,2,2,96,5,3,2,1,2,H,,,,,,,,,,,,,,,,,,,,,,,,,,,,,,103.9,1500,100,,,,,,,,,,,,,,0.144212656
X,10,12,2023,782,94950,40.75268833,-69.74989833,179,492,2,2,96,5,3,2,1,2,H,,,,,,,,,,,,,,,,,,,,,,,,,,,,,,102.7,1500,100,,,,,,,,,,,,,,0.142778599
X,10,12,2023,783,94955,40.75028667,-69.74985667,179,488,2,2,96,5,3,2,1,2,H,,,,,,,,,,,,,,,,,,,,,,,,,,,,,,104.1,1500,100,,,,,,,,,,,,,,0.144209618
X,10,12,2023,784,95000,40.74787167,-69.74985333,180,485,2,2,96,5,3,2,1,2,H,,,,,,,,,,,,,,,,,,,,,,,,,,,,,,104.4,1500,100,,,,,,,,,,,,,,0.144997783
X,10,12,2023,785,95005,40.74545,-69.74986167,180,484,2,2,96,5,3,2,1,2,H,,,,,,,,,,,,,,,,,,,,,,,,,,,,,,104.7,1500,100,,,,,,,,,,,,,,0.145398468
X,10,12,2023,786,95010,40.74302333,-69.74985167,180,482,2,2,96,5,3,2,1,2,H,,,,,,,,,,,,,,,,,,,,,,,,,,,,,,105,1500,100,,,,,,,,,,,,,,0.145698886
X,10,12,2023,787,95015,40.74057,-69.74983667,180,477,2,2,96,5,3,2,1,2,H,,,,,,,,,,,,,,,,,,,,,,,,,,,,,,106.5,1500,100,,,,,,,,,,,,,,0.147300835
X,10,12,2023,788,95020,40.738095,-69.74983167,180,476,2,2,96,5,3,2,1,2,H,,,,,,,,,,,,,,,,,,,,,,,,,,,,,,107,1500,100,,,,,,,,,,,,,,0.148600306
X,10,12,2023,789,95025,40.73561833,-69.749825,180,476,2,2,96,5,3,2,1,2,H,,,,,,,,,,,,,,,,,,,,,,,,,,,,,,106.8,1500,100,,,,,,,,,,,,,,0.148700508
X,10,12,2023,790,95030,40.73315833,-69.74981833,180,477,2,2,96,5,3,2,1,2,H,,,,,,,,,,,,,,,,,,,,,,,,,,,,,,105.7,1500,100,,,,,,,,,,,,,,0.147699836
X,10,12,2023,791,95035,40.73071333,-69.74985167,181,477,2,2,96,5,3,2,1,2,H,,,,,,,,,,,,,,,,,,,,,,,,,,,,,,105.3,1500,100,,,,,,,,,,,,,,0.146806751
X,10,12,2023,792,95040,40.72828667,-69.74990333,181,477,2,2,96,5,3,2,1,2,H,,,,,,,,,,,,,,,,,,,,,,,,,,,,,,105,1500,100,,,,,,,,,,,,,,0.145717139
X,10,12,2023,793,95045,40.72584833,-69.749925,180,473,2,2,96,5,3,2,1,2,H,,,,,,,,,,,,,,,,,,,,,,,,,,,,,,105.7,1500,100,,,,,,,,,,,,,,0.146401967
X,10,12,2023,794,95050,40.723405,-69.74997333,180,472,2,2,96,5,3,2,1,2,H,,,,,,,,,,,,,,,,,,,,,,,,,,,,,,105.6,1500,100,,,,,,,,,,,,,,0.146715335
X,10,12,2023,795,95055,40.72096333,-69.75003,181,468,2,2,96,5,3,2,1,2,H,,,,,,,,,,,,,,,,,,,,,,,,,,,,,,105.3,1500,100,,,,,,,,,,,,,,0.146621458
X,10,12,2023,796,95100,40.71853,-69.75009833,181,468,2,2,96,5,3,2,1,2,H,,,,,,,,,,,,,,,,,,,,,,,,,,,,,,104.9,1500,100,,,,,,,,,,,,,,0.146131533
X,10,12,2023,797,95105,40.71611667,-69.75017167,181,470,2,2,96,5,3,2,1,2,H,,,,,,,,,,,,,,,,,,,,,,,,,,,,,,103.3,1500,100,,,,,,,,,,,,,,0.144936061
X,10,12,2023,798,95110,40.71373667,-69.75026,182,468,2,2,96,5,3,2,1,2,H,,,,,,,,,,,,,,,,,,,,,,,,,,,,,,102.6,1500,100,,,,,,,,,,,,,,0.142952821
X,10,12,2023,799,95115,40.711365,-69.750345,182,467,2,2,96,5,3,2,1,2,H,,,,,,,,,,,,,,,,,,,,,,,,,,,,,,102.1,1500,100,,,,,,,,,,,,,,0.142448486
X,10,12,2023,800,95120,40.70901,-69.75041667,181,466,2,2,96,5,3,2,1,2,H,,,,,,,,,,,,,,,,,,,,,,,,,,,,,,101.3,1500,100,,,,,,,,,,,,,,0.141432891
X,10,12,2023,801,95125,40.706665,-69.75043833,180,465,2,2,96,5,3,2,1,2,H,,,,,,,,,,,,,,,,,,,,,,,,,,,,,,100.9,1500,100,,,,,,,,,,,,,,0.140798325
X,10,12,2023,802,95130,40.704335,-69.75046,181,463,2,2,96,5,3,2,1,2,H,,,,,,,,,,,,,,,,,,,,,,,,,,,,,,100,1500,100,,,,,,,,,,,,,,0.139897741
X,10,12,2023,803,95135,40.70202167,-69.75048333,180,464,2,2,96,5,3,2,1,2,H,,,,,,,,,,,,,,,,,,,,,,,,,,,,,,99.3,1500,100,,,,,,,,,,,,,,0.138897651
X,10,12,2023,804,95140,40.69973,-69.75051833,181,462,2,2,96,5,3,2,1,2,H,,,,,,,,,,,,,,,,,,,,,,,,,,,,,,98.6,1500,100,,,,,,,,,,,,,,0.137601937
X,10,12,2023,805,95140,40.69973,-69.75051833,181,462,2,2,96,5,3,2,1,2,H,,,,,,,,,,,,,,,,,,,,,,,,,,,,,,98.6,1500,100,,,,,,,,,,,,,,0
X,10,12,2023,806,95145,40.697445,-69.75055833,181,459,2,2,96,5,3,2,1,2,H,,,,,,,,,,,,,,,,,,,,,,,,,,,,,,98.3,1500,100,,,,,,,,,,,,,,0.137204527
X,10,12,2023,807,95150,40.69518167,-69.75060167,181,460,2,2,96,5,3,2,1,2,H,,,,,,,,,,,,,,,,,,,,,,,,,,,,,,96.9,1500,100,,,,,,,,,,,,,,0.135905884
X,10,12,2023,808,95155,40.692955,-69.75064167,181,461,2,2,96,5,3,2,1,2,H,,,,,,,,,,,,,,,,,,,,,,,,,,,,,,95.8,1500,100,,,,,,,,,,,,,,0.133702485
X,10,12,2023,809,95200,40.69074167,-69.75066333,180,458,2,2,96,5,3,2,1,2,H,,,,,,,,,,,,,,,,,,,,,,,,,,,,,,95.8,1500,100,,,,,,,,,,,,,,0.132893206
X,10,12,2023,810,95205,40.688525,-69.75067333,180,454,2,2,96,5,3,2,1,2,H,,,,,,,,,,,,,,,,,,,,,,,,,,,,,,95.8,1500,100,,,,,,,,,,,,,,0.133090459
X,10,12,2023,811,95210,40.68630833,-69.75069167,181,453,2,2,96,5,3,2,1,2,H,,,,,,,,,,,,,,,,,,,,,,,,,,,,,,95.3,1500,100,,,,,,,,,,,,,,0.133092297
X,10,12,2023,812,95215,40.684105,-69.75072333,180,453,2,2,96,5,3,2,1,2,H,,,,,,,,,,,,,,,,,,,,,,,,,,,,,,94.5,1500,100,,,,,,,,,,,,,,0.132296997
X,10,12,2023,813,95220,40.68193,-69.75073833,180,455,2,2,96,5,3,2,1,2,H,,,,,,,,,,,,,,,,,,,,,,,,,,,,,,93,1500,100,,,,,,,,,,,,,,0.13058978
X,10,12,2023,814,95225,40.67978333,-69.75075667,180,455,2,2,96,5,3,2,1,2,H,,,,,,,,,,,,,,,,,,,,,,,,,,,,,,92.3,1500,100,,,,,,,,,,,,,,0.128889551
X,10,12,2023,815,95230,40.677645,-69.75072333,179,453,2,2,96,5,3,2,1,2,H,,,,,,,,,,,,,,,,,,,,,,,,,,,,,,93.2,1500,100,,,,,,,,,,,,,,0.128395482
X,10,12,2023,816,95235,40.67550667,-69.75063667,178,452,2,2,96,5,3,2,1,2,H,,,,,,,,,,,,,,,,,,,,,,,,,,,,,,93,1500,100,,,,,,,,,,,,,,0.128447148
X,10,12,2023,817,95240,40.67337,-69.75052667,178,451,2,2,96,5,3,2,1,2,H,,,,,,,,,,,,,,,,,,,,,,,,,,,,,,92.4,1500,100,,,,,,,,,,,,,,0.128384195
X,10,12,2023,818,95245,40.671235,-69.75043,178,450,2,2,96,5,3,2,1,2,H,,,,,,,,,,,,,,,,,,,,,,,,,,,,,,92.5,1500,100,,,,,,,,,,,,,,0.128261937
X,10,12,2023,819,95250,40.66910833,-69.75035833,179,451,2,2,96,5,3,2,1,2,H,,,,,,,,,,,,,,,,,,,,,,,,,,,,,,91.3,1500,100,,,,,,,,,,,,,,0.127727741
X,10,12,2023,820,95255,40.66698167,-69.75030333,179,450,2,2,96,5,3,2,1,2,H,,,,,,,,,,,,,,,,,,,,,,,,,,,,,,92.4,1500,100,,,,,,,,,,,,,,0.127710603
X,10,12,2023,821,95300,40.6648,-69.75028,180,448,2,2,96,5,3,2,1,2,H,,,,,,,,,,,,,,,,,,,,,,,,,,,,,,94.5,1500,100,,,,,,,,,,,,,,0.130992574
X,10,12,2023,822,95305,40.6626,-69.75026167,180,449,2,2,96,5,3,2,1,2,H,,,,,,,,,,,,,,,,,,,,,,,,,,,,,,95,1500,100,,,,,,,,,,,,,,0.132091645
X,10,12,2023,823,95310,40.66040167,-69.75024,180,453,2,2,96,5,3,2,1,2,H,,,,,,,,,,,,,,,,,,,,,,,,,,,,,,94.4,1500,100,,,,,,,,,,,,,,0.131992627
X,10,12,2023,824,95315,40.65822,-69.75024,180,457,2,2,96,5,3,2,1,2,H,,,,,,,,,,,,,,,,,,,,,,,,,,,,,,94.3,1500,100,,,,,,,,,,,,,,0.130988264
X,10,12,2023,825,95320,40.65603,-69.75026333,180,459,2,2,96,5,3,2,1,2,H,,,,,,,,,,,,,,,,,,,,,,,,,,,,,,94.7,1500,100,,,,,,,,,,,,,,0.131492896
X,10,12,2023,826,95325,40.65382167,-69.75029,181,461,2,2,96,5,3,2,1,2,H,,,,,,,,,,,,,,,,,,,,,,,,,,,,,,96.2,1500,100,,,,,,,,,,,,,,0.132594907
S,10,12,2023,827,95330,40.65158,-69.75030667,180,460,2,2,96,5,3,2,1,2,H,7,,32,BODO,5,,,1,3,2,,,,,,,,,,,,,,,,,,,,97.4,1500,100,,,,,,,,,,,,,,0.134592833
S,10,12,2023,828,95330,40.65145824,-69.75031972,181,460,2,3,96,5,3,2,1,2,H,8,,,,,,,,,,,,,,,,,,,,,,,,,,,,,97.5,1500,100,,,,,,,,,,999 FOR BODO IN EVENT 827,,,,0.007334373
X,10,12,2023,829,95335,40.649325,-69.75054833,192,457,4,-,96,5,,,1,2,H,,,,,,,,,,,,,,,,,,,,,,,,,,,,,,99.3,1500,100,,,,,,,,,,,,,,0.135838041
X,10,12,2023,830,95340,40.64718167,-69.751705,212,448,4,-,96,5,,,1,2,H,,,,,,,,,,,,,,,,,,,,,,,,,,,,,,101.3,1500,100,,,,,,,,,,,,,,0.1390561
X,10,12,2023,831,95340,40.64718167,-69.751705,212,448,4,-,96,5,,,1,2,H,,,,,,,,,,,,,,,,,,,,,,,,,,,,,,101.3,1500,100,,,,,,,,,,,,,,0
X,10,12,2023,832,95345,40.64540833,-69.75381,231,447,4,-,96,5,,,1,2,H,,,,,,,,,,,,,,,,,,,,,,,,,,,,,,103.2,1500,100,,,,,,,,,,,,,,0.143289631
X,10,12,2023,833,95345,40.64536843,-69.75391818,232,447,4,-,96,5,,,1,2,H,,,,,,,,,,,,,,,,,,,,,,,,,,,,,,103.2,1500,100,,,,,,,,,,,,,,0.005479768
X,10,12,2023,834,95346,40.64519575,-69.7543863,236,448,4,-,96,5,,,1,2,H,,,,,,,,,,,,,,,,,,,,,,,,,,,,,,103.1,1500,100,,,,,,,,,,,,,,0.029192052
X,10,12,2023,835,95350,40.644365,-69.75663833,254,450,4,-,96,5,,,1,2,H,,,,,,,,,,,,,,,,,,,,,,,,,,,,,,102.8,1500,100,,,,,,,,,,,,,,0.143269012
X,10,12,2023,836,95355,40.64423833,-69.75984,275,440,4,-,96,5,,,1,2,H,,,,,,,,,,,,,,,,,,,,,,,,,,,,,,106.6,1500,100,,,,,,,,,,,,,,0.14605573
X,10,12,2023,837,95400,40.64492,-69.76305333,294,422,4,-,96,5,,,1,2,H,,,,,,,,,,,,,,,,,,,,,,,,,,,,,,112,1500,100,,,,,,,,,,,,,,0.152002154
X,10,12,2023,838,95405,40.64625167,-69.76603333,303,424,4,-,96,5,,,1,2,H,,,,,,,,,,,,,,,,,,,,,,,,,,,,,,112.1,1500,100,,,,,,,,,,,,,,0.157551476
X,10,12,2023,839,95410,40.64790667,-69.76858333,319,435,4,-,96,5,,,1,2,H,,,,,,,,,,,,,,,,,,,,,,,,,,,,,,108.9,1500,100,,,,,,,,,,,,,,0.152866228
X,10,12,2023,840,95410,40.64790667,-69.76858333,319,435,4,-,96,5,,,1,2,H,,,,,,,,,,,,,,,,,,,,,,,,,,,,,,108.9,1500,100,,,,,,,,,,,,,,0
X,10,12,2023,841,95415,40.65005,-69.77015667,342,444,4,-,96,5,,,1,2,H,,,,,,,,,,,,,,,,,,,,,,,,,,,,,,106,1500,100,,,,,,,,,,,,,,0.147299006
X,10,12,2023,842,95420,40.65245667,-69.770535,3,451,4,-,96,5,,,1,2,H,,,,,,,,,,,,,,,,,,,,,,,,,,,,,,104.6,1500,100,,,,,,,,,,,,,,0.145521458
X,10,12,2023,843,95425,40.65476833,-69.769715,25,463,4,-,96,5,,,1,2,H,,,,,,,,,,,,,,,,,,,,,,,,,,,,,,99.5,1500,100,,,,,,,,,,,,,,0.143731572
X,10,12,2023,844,95430,40.65642167,-69.76790333,49,470,4,-,96,5,,,1,2,H,,,,,,,,,,,,,,,,,,,,,,,,,,,,,,94.7,1500,100,,,,,,,,,,,,,,0.129086866
X,10,12,2023,845,95435,40.65742833,-69.76538333,71,466,4,-,96,5,,,1,2,H,,,,,,,,,,,,,,,,,,,,,,,,,,,,,,94.4,1500,100,,,,,,,,,,,,,,0.129722162
S,10,12,2023,846,95436,40.65753869,-69.76442938,76,466,4,-,96,5,,,1,2,H,9,,,,,,,,,,,,,,,,,,,,,,,,,,,,,94.6,1500,100,,,,,,,,,,EXACT - ,,,,0.043952629
X,10,12,2023,847,95440,40.65776167,-69.76250167,85,466,4,-,96,5,,,1,2,H,,,,,,,,,,,,,,,,,,,,,,,,,,,,,,95,1500,100,,,,,,,,,,,,,,0.132770339
X,10,12,2023,848,95445,40.658055,-69.75961667,82,470,4,-,96,5,,,1,2,H,,,,,,,,,,,,,,,,,,,,,,,,,,,,,,94.8,1500,100,,,,,,,,,,,,,,0.132579475
X,10,12,2023,849,95450,40.65792667,-69.75680667,106,472,4,-,96,5,,,1,2,H,,,,,,,,,,,,,,,,,,,,,,,,,,,,,,92.1,1500,100,,,,,,,,,,,,,,0.128219993
X,10,12,2023,850,95455,40.65679333,-69.75437833,132,465,4,-,96,5,,,1,2,H,,,,,,,,,,,,,,,,,,,,,,,,,,,,,,96.2,1500,100,,,,,,,,,,,,,,0.129860648
X,10,12,2023,851,95500,40.65499,-69.752525,150,466,4,-,96,5,,,1,2,H,,,,,,,,,,,,,,,,,,,,,,,,,,,,,,97.2,1500,100,,,,,,,,,,,,,,0.137292754
X,10,12,2023,852,95505,40.652985,-69.75123833,157,478,4,-,96,5,,,1,2,H,,,,,,,,,,,,,,,,,,,,,,,,,,,,,,93.7,1500,100,,,,,,,,,,,,,,0.133889865
X,10,12,2023,853,95510,40.65089,-69.75060333,177,483,4,-,96,5,,,1,2,H,,,,,,,,,,,,,,,,,,,,,,,,,,,,,,93.3,1500,100,,,,,,,,,,,,,,0.129067714
X,10,12,2023,854,95510,40.65089,-69.75060333,177,483,4,-,96,5,,,1,2,H,,,,,,,,,,,,,,,,,,,,,,,,,,,,,,93.3,1500,100,,,,,,,,,,,,,,0
X,10,12,2023,855,95515,40.64867167,-69.75087167,186,480,4,-,96,5,,,1,2,H,,,,,,,,,,,,,,,,,,,,,,,,,,,,,,96,1500,100,,,,,,,,,,,,,,0.133749468
S,10,12,2023,856,95519,40.64675774,-69.75088461,178,477,2,4,96,5,3,2,1,2,H,10,,,,,,,,,,,,,,,,,,,,,,,,,,,,,95.8,1500,100,,,,,,,,,,RESUME LINE,,,,0.114914315
X,10,12,2023,857,95520,40.64645333,-69.75088667,177,476,2,2,96,5,3,2,1,2,H,,,,,,,,,,,,,,,,,,,,,,,,,,,,,,95.7,1500,100,,,,,,,,,,,,,,0.1331915
X,10,12,2023,858,95521,40.64580652,-69.75084836,177,476,2,2,96,5,3,2,1,2,H,,,,,,,,,,,,,,,,,,,,,,,,,,,,,,95.3,1500,100,,,,,,,,,,,,,,0.038873872
X,10,12,2023,859,95525,40.64425833,-69.75075667,179,476,2,2,96,5,3,2,1,2,H,,,,,,,,,,,,,,,,,,,,,,,,,,,,,,94.3,1500,100,,,,,,,,,,,,,,0.131921803
X,10,12,2023,860,95530,40.64209333,-69.75071167,178,474,2,2,96,5,3,2,1,2,H,,,,,,,,,,,,,,,,,,,,,,,,,,,,,,93.1,1500,100,,,,,,,,,,,,,,0.130003755
X,10,12,2023,861,95535,40.63990833,-69.75068167,180,466,2,2,96,5,3,2,1,2,H,,,,,,,,,,,,,,,,,,,,,,,,,,,,,,94.6,1500,100,,,,,,,,,,,,,,0.131195519
X,10,12,2023,862,95540,40.6377,-69.75064333,179,459,2,2,96,5,3,2,1,2,H,,,,,,,,,,,,,,,,,,,,,,,,,,,,,,94.6,1500,100,,,,,,,,,,,,,,0.132600845
X,10,12,2023,863,95540,40.6377,-69.75064333,179,459,2,2,96,5,3,2,1,2,H,,,,,,,,,,,,,,,,,,,,,,,,,,,,,,94.6,1500,100,,,,,,,,,,,,,,0
X,10,12,2023,864,95545,40.635495,-69.75054333,177,456,2,2,96,5,3,2,1,2,H,,,,,,,,,,,,,,,,,,,,,,,,,,,,,,94.6,1500,100,,,,,,,,,,,,,,0.132467586
X,10,12,2023,865,95550,40.63331833,-69.750395,178,455,2,2,96,5,3,2,1,2,H,,,,,,,,,,,,,,,,,,,,,,,,,,,,,,93.5,1500,100,,,,,,,,,,,,,,0.130862707
S,10,12,2023,866,95554,40.63133632,-69.75028144,177,451,2,2,96,5,3,2,1,2,H,11,,35,UNSH,1,,,1,3,0,,,,,,,,,,,,,,,,,,,,94.3,1500,100,,,,,,,,,,,,,,0.1191137
X,10,12,2023,867,95555,40.63113667,-69.75027,177,451,2,2,96,5,3,2,1,2,H,,,,,,,,,,,,,,,,,,,,,,,,,,,,,,94.3,1500,100,,,,,,,,,,,,,,0.131112034
X,10,12,2023,868,95600,40.62893833,-69.75017,179,448,2,2,96,5,3,2,1,2,H,,,,,,,,,,,,,,,,,,,,,,,,,,,,,,94.8,1500,100,,,,,,,,,,,,,,0.132067569
X,10,12,2023,869,95605,40.62674833,-69.75013167,180,448,2,2,96,5,3,2,1,2,H,,,,,,,,,,,,,,,,,,,,,,,,,,,,,,94.6,1500,100,,,,,,,,,,,,,,0.131500203
X,10,12,2023,870,95610,40.62455167,-69.750115,180,445,2,2,96,5,3,2,1,2,H,,,,,,,,,,,,,,,,,,,,,,,,,,,,,,95.2,1500,100,,,,,,,,,,,,,,0.131891058
X,10,12,2023,871,95615,40.62233833,-69.75008,179,442,2,2,96,5,3,2,1,2,H,,,,,,,,,,,,,,,,,,,,,,,,,,,,,,95.7,1500,100,,,,,,,,,,,,,,0.132899117
X,10,12,2023,872,95620,40.620115,-69.75001833,180,440,2,2,96,5,3,2,1,2,H,,,,,,,,,,,,,,,,,,,,,,,,,,,,,,96.3,1500,100,,,,,,,,,,,,,,0.133519529
X,10,12,2023,873,95625,40.61788833,-69.75006333,182,443,2,2,96,5,3,2,1,2,H,,,,,,,,,,,,,,,,,,,,,,,,,,,,,,95.4,1500,100,,,,,,,,,,,,,,0.133705814
X,10,12,2023,874,95630,40.61568167,-69.75016833,182,448,2,2,96,5,3,2,1,2,H,,,,,,,,,,,,,,,,,,,,,,,,,,,,,,94.4,1500,100,,,,,,,,,,,,,,0.132575671
X,10,12,2023,875,95635,40.61348833,-69.75025167,182,450,2,2,96,5,3,2,1,2,H,,,,,,,,,,,,,,,,,,,,,,,,,,,,,,94.6,1500,100,,,,,,,,,,,,,,0.131743496
X,10,12,2023,876,95640,40.61129333,-69.75032833,181,452,2,2,96,5,3,2,1,2,H,,,,,,,,,,,,,,,,,,,,,,,,,,,,,,95,1500,100,,,,,,,,,,,,,,0.131835121
X,10,12,2023,877,95640,40.61129333,-69.75032833,181,452,2,2,96,5,3,2,1,2,H,,,,,,,,,,,,,,,,,,,,,,,,,,,,,,95,1500,100,,,,,,,,,,,,,,0
X,10,12,2023,878,95645,40.609105,-69.75038,180,453,2,2,96,5,3,2,1,2,H,,,,,,,,,,,,,,,,,,,,,,,,,,,,,,94.6,1500,100,,,,,,,,,,,,,,0.131409637
X,10,12,2023,879,95650,40.60691167,-69.75040667,180,454,2,2,96,5,3,2,1,2,H,,,,,,,,,,,,,,,,,,,,,,,,,,,,,,95.2,1500,100,,,,,,,,,,,,,,0.131694346
X,10,12,2023,880,95655,40.60472167,-69.75041833,180,458,2,2,96,5,3,2,1,2,H,,,,,,,,,,,,,,,,,,,,,,,,,,,,,,94,1500,100,,,,,,,,,,,,,,0.131489677
X,10,12,2023,881,95700,40.60254333,-69.750405,180,457,2,2,96,5,3,2,1,2,H,,,,,,,,,,,,,,,,,,,,,,,,,,,,,,93.8,1500,100,,,,,,,,,,,,,,0.130789541
X,10,12,2023,882,95704,40.60080419,-69.75040368,181,452,2,2,96,5,3,2,1,2,H,,,,,,,,,,,,,,,,,,,,,,,,,,,,,,95.2,1500,100,,,,,,,,,,,,,,0.104418948
X,10,12,2023,883,95705,40.60036166,-69.75040334,181,451,2,2,96,5,3,2,1,2,H,,,,,,,,,,,,,,,,,,,,,,,,,,,,,,95.5,1500,100,,,,,,,,,,,,,,0.130988874
S,10,12,2023,884,95705,40.60034833,-69.75040333,181,451,2,5,96,5,3,2,1,2,H,12,,,,,,,,,,,,,,,,,,,,,,,,,,,,,95.5,1500,100,,,,,,,,,,END LINE - ,,,,0.131788825
X,10,12,2023,885,95710,40.59811667,-69.75072667,192,444,3,-,,5,,,1,2,H,,,,,,,,,,,,,,,,,,,,,,,,,,,,,,98.2,1500,100,,,,,,,,,,,,,,0.134798604
X,10,12,2023,886,95715,40.59594167,-69.75172333,205,439,3,-,,5,,,1,2,H,,,,,,,,,,,,,,,,,,,,,,,,,,,,,,99.9,1500,100,,,,,,,,,,,,,,0.138266954
X,10,12,2023,887,95720,40.59398167,-69.75327167,217,447,3,-,,5,,,1,2,H,,,,,,,,,,,,,,,,,,,,,,,,,,,,,,97.7,1500,100,,,,,,,,,,,,,,0.137227001
X,10,12,2023,888,95725,40.59232333,-69.755255,227,453,3,-,,5,,,1,2,H,,,,,,,,,,,,,,,,,,,,,,,,,,,,,,96,1500,100,,,,,,,,,,,,,,0.134499107
X,10,12,2023,889,95730,40.59094,-69.75751333,234,459,3,-,,5,,,1,2,H,,,,,,,,,,,,,,,,,,,,,,,,,,,,,,95.1,1500,100,,,,,,,,,,,,,,0.132286734
X,10,12,2023,890,95735,40.58976333,-69.75998,241,459,3,-,,5,,,1,2,H,,,,,,,,,,,,,,,,,,,,,,,,,,,,,,96.8,1500,100,,,,,,,,,,,,,,0.132812912
X,10,12,2023,891,95740,40.58877333,-69.76265833,247,459,3,-,,5,,,1,2,H,,,,,,,,,,,,,,,,,,,,,,,,,,,,,,97.5,1500,100,,,,,,,,,,,,,,0.135814674
X,10,12,2023,892,95740,40.58877333,-69.76265833,247,459,3,-,,5,,,1,2,H,,,,,,,,,,,,,,,,,,,,,,,,,,,,,,97.5,1500,100,,,,,,,,,,,,,,0
X,10,12,2023,893,95745,40.58806333,-69.765465,256,463,3,-,,5,,,1,2,H,,,,,,,,,,,,,,,,,,,,,,,,,,,,,,96.4,1500,100,,,,,,,,,,,,,,0.134883076
X,10,12,2023,894,95750,40.58769667,-69.76835333,264,467,3,-,,5,,,1,2,H,,,,,,,,,,,,,,,,,,,,,,,,,,,,,,96.2,1500,100,,,,,,,,,,,,,,0.1335217
X,10,12,2023,895,95755,40.58752833,-69.77128833,267,469,3,-,,5,,,1,2,H,,,,,,,,,,,,,,,,,,,,,,,,,,,,,,96.5,1500,100,,,,,,,,,,,,,,0.134203735
X,10,12,2023,896,95800,40.58744167,-69.774235,268,470,3,-,,5,,,1,2,H,,,,,,,,,,,,,,,,,,,,,,,,,,,,,,96.5,1500,100,,,,,,,,,,,,,,0.134455555
X,10,12,2023,897,95805,40.58740167,-69.77717833,270,469,3,-,,5,,,1,2,H,,,,,,,,,,,,,,,,,,,,,,,,,,,,,,97.4,1500,100,,,,,,,,,,,,,,0.134224457
X,10,12,2023,898,95810,40.587385,-69.78015,269,464,3,-,,5,,,1,2,H,,,,,,,,,,,,,,,,,,,,,,,,,,,,,,98.8,1500,100,,,,,,,,,,,,,,0.135498597
X,10,12,2023,899,95815,40.58730167,-69.78317667,267,459,3,-,,5,,,1,2,H,,,,,,,,,,,,,,,,,,,,,,,,,,,,,,100.3,1500,100,,,,,,,,,,,,,,0.138093433
X,10,12,2023,900,95820,40.58718,-69.78624,266,458,3,-,,5,,,1,2,H,,,,,,,,,,,,,,,,,,,,,,,,,,,,,,101.1,1500,100,,,,,,,,,,,,,,0.139865708
X,10,12,2023,901,95825,40.58701167,-69.78929167,265,461,3,-,,5,,,1,2,H,,,,,,,,,,,,,,,,,,,,,,,,,,,,,,100,1500,100,,,,,,,,,,,,,,0.139509745
X,10,12,2023,902,95830,40.58677,-69.792305,263,463,3,-,,5,,,1,2,H,,,,,,,,,,,,,,,,,,,,,,,,,,,,,,99.5,1500,100,,,,,,,,,,,,,,0.138159784
X,10,12,2023,903,95835,40.58648,-69.79529333,262,463,3,-,,5,,,1,2,H,,,,,,,,,,,,,,,,,,,,,,,,,,,,,,98.9,1500,100,,,,,,,,,,,,,,0.137364382
X,10,12,2023,904,95840,40.586165,-69.79828333,262,462,3,-,,5,,,1,2,H,,,,,,,,,,,,,,,,,,,,,,,,,,,,,,99.3,1500,100,,,,,,,,,,,,,,0.137638584
X,10,12,2023,905,95845,40.58584167,-69.80125333,262,464,3,-,,5,,,1,2,H,,,,,,,,,,,,,,,,,,,,,,,,,,,,,,98.4,1500,100,,,,,,,,,,,,,,0.136806107
X,10,12,2023,906,95850,40.58549667,-69.80419167,261,465,3,-,,5,,,1,2,H,,,,,,,,,,,,,,,,,,,,,,,,,,,,,,97.7,1500,100,,,,,,,,,,,,,,0.135570304
X,10,12,2023,907,95855,40.58512167,-69.80710667,260,465,3,-,,5,,,1,2,H,,,,,,,,,,,,,,,,,,,,,,,,,,,,,,97.4,1500,100,,,,,,,,,,,,,,0.134808784
X,10,12,2023,908,95900,40.58468833,-69.81001333,258,464,3,-,,5,,,1,2,H,,,,,,,,,,,,,,,,,,,,,,,,,,,,,,97.4,1500,100,,,,,,,,,,,,,,0.135065669
X,10,12,2023,909,95905,40.58420333,-69.81292667,258,462,3,-,,5,,,1,2,H,,,,,,,,,,,,,,,,,,,,,,,,,,,,,,98.2,1500,100,,,,,,,,,,,,,,0.135995174
X,10,12,2023,910,95910,40.58375167,-69.815865,260,458,3,-,,5,,,1,2,H,,,,,,,,,,,,,,,,,,,,,,,,,,,,,,98.8,1500,100,,,,,,,,,,,,,,0.136698749
X,10,12,2023,911,95910,40.58375167,-69.815865,260,458,3,-,,5,,,1,2,H,,,,,,,,,,,,,,,,,,,,,,,,,,,,,,98.8,1500,100,,,,,,,,,,,,,,0
X,10,12,2023,912,95915,40.58340833,-69.81883333,263,455,3,-,,5,,,1,2,H,,,,,,,,,,,,,,,,,,,,,,,,,,,,,,99,1500,100,,,,,,,,,,,,,,0.136911382
X,10,12,2023,913,95920,40.58320167,-69.82183167,267,455,3,-,,5,,,1,2,H,,,,,,,,,,,,,,,,,,,,,,,,,,,,,,99.3,1500,100,,,,,,,,,,,,,,0.137281066
X,10,12,2023,914,95925,40.58314833,-69.82485167,271,455,3,-,,5,,,1,2,H,,,,,,,,,,,,,,,,,,,,,,,,,,,,,,99.1,1500,100,,,,,,,,,,,,,,0.137744599
X,10,12,2023,915,95930,40.58319,-69.82786333,272,458,3,-,,5,,,1,2,H,,,,,,,,,,,,,,,,,,,,,,,,,,,,,,98.7,1500,100,,,,,,,,,,,,,,0.137350183
X,10,12,2023,916,95935,40.58323167,-69.83084667,271,461,3,-,,5,,,1,2,H,,,,,,,,,,,,,,,,,,,,,,,,,,,,,,97.8,1500,100,,,,,,,,,,,,,,0.136058358
X,10,12,2023,917,95940,40.58324,-69.83382333,270,460,3,-,,5,,,1,2,H,,,,,,,,,,,,,,,,,,,,,,,,,,,,,,98.1,1500,100,,,,,,,,,,,,,,0.135732239
X,10,12,2023,918,95940,40.58324,-69.83382333,270,460,3,-,,5,,,1,2,H,,,,,,,,,,,,,,,,,,,,,,,,,,,,,,98.1,1500,100,,,,,,,,,,,,,,0
X,10,12,2023,919,95945,40.58325333,-69.836825,271,459,3,-,,5,,,1,2,H,,,,,,,,,,,,,,,,,,,,,,,,,,,,,,99.1,1500,100,,,,,,,,,,,,,,0.136873597
X,10,12,2023,920,95950,40.58332333,-69.83983833,272,458,3,-,,5,,,1,2,H,,,,,,,,,,,,,,,,,,,,,,,,,,,,,,99.4,1500,100,,,,,,,,,,,,,,0.137467414
X,10,12,2023,921,95955,40.58342,-69.842855,271,459,3,-,,5,,,1,2,H,,,,,,,,,,,,,,,,,,,,,,,,,,,,,,99.4,1500,100,,,,,,,,,,,,,,0.137677364
X,10,12,2023,922,1.00E+05,40.58340333,-69.84586667,267,460,3,-,,5,,,1,2,H,,,,,,,,,,,,,,,,,,,,,,,,,,,,,,99.3,1500,100,,,,,,,,,,,,,,0.137330547
X,10,12,2023,923,100005,40.583235,-69.84887833,265,460,3,-,,5,,,1,2,H,,,,,,,,,,,,,,,,,,,,,,,,,,,,,,99,1500,100,,,,,,,,,,,,,,0.137698502
X,10,12,2023,924,100010,40.583015,-69.851875,264,461,3,-,,5,,,1,2,H,,,,,,,,,,,,,,,,,,,,,,,,,,,,,,99.1,1500,100,,,,,,,,,,,,,,0.137280459
X,10,12,2023,925,100015,40.58281167,-69.85487833,266,462,3,-,,5,,,1,2,H,,,,,,,,,,,,,,,,,,,,,,,,,,,,,,99,1500,100,,,,,,,,,,,,,,0.13749101
X,10,12,2023,926,100020,40.58269667,-69.85788833,268,462,3,-,,5,,,1,2,H,,,,,,,,,,,,,,,,,,,,,,,,,,,,,,99.1,1500,100,,,,,,,,,,,,,,0.137425817
X,10,12,2023,927,100025,40.58263667,-69.86089833,268,464,3,-,,5,,,1,2,H,,,,,,,,,,,,,,,,,,,,,,,,,,,,,,99.2,1500,100,,,,,,,,,,,,,,0.1372997
X,10,12,2023,928,100030,40.58253333,-69.863895,266,464,3,-,,5,,,1,2,H,,,,,,,,,,,,,,,,,,,,,,,,,,,,,,98.8,1500,100,,,,,,,,,,,,,,0.136785389
X,10,12,2023,929,100035,40.582355,-69.866875,265,466,3,-,,5,,,1,2,H,,,,,,,,,,,,,,,,,,,,,,,,,,,,,,98.2,1500,100,,,,,,,,,,,,,,0.136306111
X,10,12,2023,930,100040,40.58213833,-69.86983667,264,466,3,-,,5,,,1,2,H,,,,,,,,,,,,,,,,,,,,,,,,,,,,,,98.2,1500,100,,,,,,,,,,,,,,0.135674432
X,10,12,2023,931,100040,40.58213833,-69.86983667,264,466,3,-,,5,,,1,2,H,,,,,,,,,,,,,,,,,,,,,,,,,,,,,,98.2,1500,100,,,,,,,,,,,,,,0
X,10,12,2023,932,100045,40.58187333,-69.87280333,264,466,3,-,,5,,,1,2,H,,,,,,,,,,,,,,,,,,,,,,,,,,,,,,98.4,1500,100,,,,,,,,,,,,,,0.136210278
X,10,12,2023,933,100050,40.58184833,-69.87580333,278,460,3,-,,5,,,1,2,H,,,,,,,,,,,,,,,,,,,,,,,,,,,,,,99.8,1500,100,,,,,,,,,,,,,,0.136806327
X,10,12,2023,934,100055,40.58259,-69.87876333,298,448,3,-,,5,,,1,2,H,,,,,,,,,,,,,,,,,,,,,,,,,,,,,,104.6,1500,100,,,,,,,,,,,,,,0.142129303
X,10,12,2023,935,100100,40.584,-69.88133667,313,451,3,-,,5,,,1,2,H,,,,,,,,,,,,,,,,,,,,,,,,,,,,,,103.1,1500,100,,,,,,,,,,,,,,0.144690895
X,10,12,2023,936,100105,40.58580833,-69.88328167,327,459,3,-,,5,,,1,2,H,,,,,,,,,,,,,,,,,,,,,,,,,,,,,,100,1500,100,,,,,,,,,,,,,,0.140190823
X,10,12,2023,937,100110,40.58787833,-69.88463167,339,461,3,-,,5,,,1,2,H,,,,,,,,,,,,,,,,,,,,,,,,,,,,,,99.8,1500,100,,,,,,,,,,,,,,0.138691791
X,10,12,2023,938,100115,40.59012167,-69.88532667,354,458,3,-,,5,,,1,2,H,,,,,,,,,,,,,,,,,,,,,,,,,,,,,,99.5,1500,100,,,,,,,,,,,,,,0.138368136
X,10,12,2023,939,100120,40.592435,-69.88534833,3,464,3,-,,5,,,1,2,H,,,,,,,,,,,,,,,,,,,,,,,,,,,,,,97.8,1500,100,,,,,,,,,,,,,,0.138897104
X,10,12,2023,940,100125,40.594655,-69.88492667,13,471,3,-,,5,,,1,2,H,,,,,,,,,,,,,,,,,,,,,,,,,,,,,,96.8,1500,100,,,,,,,,,,,,,,0.134669043
X,10,12,2023,941,100130,40.59681,-69.88439833,7,474,3,-,,5,,,1,2,H,,,,,,,,,,,,,,,,,,,,,,,,,,,,,,94.7,1500,100,,,,,,,,,,,,,,0.131610073
X,10,12,2023,942,100135,40.59899,-69.884095,6,472,3,-,,5,,,1,2,H,,,,,,,,,,,,,,,,,,,,,,,,,,,,,,95.2,1500,100,,,,,,,,,,,,,,0.131616667
X,10,12,2023,943,100135,40.59906746,-69.88408665,6,472,3,-,,5,,,1,2,H,,,,,,,,,,,,,,,,,,,,,,,,,,,,,,95.3,1500,100,,,,,,,,,,,,,,0.004666367
S,10,12,2023,944,100139,40.60073213,-69.88390712,4,472,2,1,88,5,1,2,2,2,H,13,,,,,,,,,,,,,,,,,,,,,,,,,,,,,95.3,1500,100,,,,,,,,,,BEGIN LINE,,,,0.104948329
X,10,12,2023,945,100140,40.6012,-69.88385667,3,472,2,2,88,5,1,2,2,2,H,,,,,,,,,,,,,,,,,,,,,,,,,,,,,,95.3,1500,100,,,,,,,,,,,,,,0.133133487
X,10,12,2023,946,100145,40.60341833,-69.88375833,2,472,2,2,88,5,1,2,2,2,H,,,,,,,,,,,,,,,,,,,,,,,,,,,,,,96,1500,100,,,,,,,,,,,,,,0.133265158
X,10,12,2023,947,100150,40.60564667,-69.88362833,2,463,2,2,88,5,1,2,2,2,H,,,,,,,,,,,,,,,,,,,,,,,,,,,,,,98,1500,100,,,,,,,,,,,,,,0.133921325
X,10,12,2023,948,100155,40.60799333,-69.88358333,1,451,2,2,88,5,1,2,2,2,H,,,,,,,,,,,,,,,,,,,,,,,,,,,,,,102.1,1500,100,,,,,,,,,,,,,,0.14090987
X,10,12,2023,949,100200,40.61040833,-69.88349833,1,449,2,2,88,5,1,2,2,2,H,,,,,,,,,,,,,,,,,,,,,,,,,,,,,,104,1500,100,,,,,,,,,,,,,,0.145049457
X,10,12,2023,950,100205,40.612825,-69.88345667,1,454,2,2,88,5,1,2,2,2,H,,,,,,,,,,,,,,,,,,,,,,,,,,,,,,103.3,1500,100,,,,,,,,,,,,,,0.145110199
X,10,12,2023,951,100210,40.61521,-69.88343833,0,459,2,2,88,5,1,2,2,2,H,,,,,,,,,,,,,,,,,,,,,,,,,,,,,,102.4,1500,100,,,,,,,,,,,,,,0.143198928
X,10,12,2023,952,100210,40.61521,-69.88343833,0,459,2,2,88,5,1,2,2,2,H,,,,,,,,,,,,,,,,,,,,,,,,,,,,,,102.4,1500,100,,,,,,,,,,,,,,0
X,10,12,2023,953,100215,40.61758667,-69.88343,0,458,2,2,88,5,1,2,2,2,H,,,,,,,,,,,,,,,,,,,,,,,,,,,,,,103,1500,100,,,,,,,,,,,,,,0.142696659
X,10,12,2023,954,100220,40.61997167,-69.883425,0,459,2,2,88,5,1,2,2,2,H,,,,,,,,,,,,,,,,,,,,,,,,,,,,,,103,1500,100,,,,,,,,,,,,,,0.143196672
X,10,12,2023,955,100225,40.62236,-69.8834,0,463,2,2,88,5,1,2,2,2,H,,,,,,,,,,,,,,,,,,,,,,,,,,,,,,103,1500,100,,,,,,,,,,,,,,0.143401151
S,10,12,2023,956,100226,40.62308674,-69.88339388,0,463,2,2,88,5,1,2,2,2,H,14,,,UNDO,10,,,1,3,2,53,,,,,,,,,,,,,,,,,,,102.8,1500,100,,,,,,,,,,,,,,0.043634814
X,10,12,2023,957,100230,40.62473667,-69.88338,0,464,2,2,88,5,1,2,2,2,H,,,,,,,,,,,,,,,,,,,,,,,,,,,,,,102.4,1500,100,,,,,,,,,,,,,,0.142699064
X,10,12,2023,958,100235,40.62711333,-69.88339667,359,464,2,2,88,5,1,2,2,2,H,,,,,,,,,,,,,,,,,,,,,,,,,,,,,,102.5,1500,100,,,,,,,,,,,,,,0.142698174
P,10,12,2023,959,100238,40.62862705,-69.88342836,359,464,2,2,88,5,1,2,2,2,H,15,61,,FG-U,1,,,1,9,0,,,,,,,,,,,,,,,,,,,,102.8,1500,100,,,,,,,,,,,,,,0.090895716
X,10,12,2023,960,100240,40.62950167,-69.88344667,359,463,2,2,88,5,1,2,2,2,H,,,,,,,,,,,,,,,,,,,,,,,,,,,,,,102.9,1500,100,,,,,,,,,,,,,,0.143414724
