rectype,month,day,year,eventno,time,lat,long,heading,alt,legtype,legstage,legno,visiblty,glarel,glarer,beaufort,cloud,wx,sightno,anglel,angler,speccode,number,numcalf,anhead,photos,idrel,confidnc,b1,b2,b3,b4,b5,b6,b7,b8,b9,b10,b11,b12,b13,b14,b15,refno,stratum,utc,radalt,gpsspeed,setalt,setvel,lensfl,ggf,int,gpsq,gpssats,roll,pitch,yaw,maghead,notes,edits,glarev,ph_qual,TrackDist
S,10,17,2023,245,90753,41.37178922,-71.31512726,215,453,1,-,,5,,,3,3,C,1,,,,,,,,,,,,,,,,,,,,,,,,,,,,,117.2,1500,100,,,,,,,,,,"ON WATCH, BEGIN SURVEY",,,,0.094632023
X,10,17,2023,246,90755,41.37086333,-71.315985,215,453,1,-,,5,,,3,3,C,,,,,,,,,,,,,,,,,,,,,,,,,,,,,,116.5,1500,100,,,,,,,,,,,,,,0.162336602
X,10,17,2023,247,90800,41.36866333,-71.31801,215,454,1,-,,5,,,3,3,C,,,,,,,,,,,,,,,,,,,,,,,,,,,,,,115.1,1500,100,,,,,,,,,,,,,,0.160538702
X,10,17,2023,248,90800,41.36866333,-71.31801,215,454,1,-,,5,,,3,3,C,,,,,,,,,,,,,,,,,,,,,,,,,,,,,,115.1,1500,100,,,,,,,,,,,,,,0
X,10,17,2023,249,90805,41.36651,-71.31999167,215,457,1,-,,5,,,3,3,C,,,,,,,,,,,,,,,,,,,,,,,,,,,,,,112.6,1500,100,,,,,,,,,,,,,,0.157125334
X,10,17,2023,250,90810,41.36438833,-71.321925,214,460,1,-,,5,,,3,3,C,,,,,,,,,,,,,,,,,,,,,,,,,,,,,,110.2,1500,100,,,,,,,,,,,,,,0.154326497
X,10,17,2023,251,90815,41.36223,-71.32363667,209,461,1,-,,5,,,3,3,C,,,,,,,,,,,,,,,,,,,,,,,,,,,,,,107.7,1500,100,,,,,,,,,,,,,,0.150805162
X,10,17,2023,252,90820,41.36001333,-71.32508167,205,462,1,-,,5,,,3,3,C,,,,,,,,,,,,,,,,,,,,,,,,,,,,,,106.3,1500,100,,,,,,,,,,,,,,0.148165915
X,10,17,2023,253,90825,41.35778833,-71.32644,204,460,1,-,,5,,,3,3,C,,,,,,,,,,,,,,,,,,,,,,,,,,,,,,105.4,1500,100,,,,,,,,,,,,,,0.146947065
X,10,17,2023,254,90830,41.35553667,-71.32761667,200,459,1,-,,5,,,3,3,C,,,,,,,,,,,,,,,,,,,,,,,,,,,,,,104.1,1500,100,,,,,,,,,,,,,,0.145219468
X,10,17,2023,255,90830,41.35553667,-71.32761667,200,459,1,-,,5,,,3,3,C,,,,,,,,,,,,,,,,,,,,,,,,,,,,,,104.1,1500,100,,,,,,,,,,,,,,0
X,10,17,2023,256,90835,41.35325833,-71.32864333,198,456,1,-,,5,,,3,3,C,,,,,,,,,,,,,,,,,,,,,,,,,,,,,,103.7,1500,100,,,,,,,,,,,,,,0.144405858
X,10,17,2023,257,90840,41.35096667,-71.32966167,199,452,1,-,,5,,,3,3,C,,,,,,,,,,,,,,,,,,,,,,,,,,,,,,104.3,1500,100,,,,,,,,,,,,,,0.145045651
X,10,17,2023,258,90845,41.34864167,-71.33055167,195,450,1,-,,5,,,3,3,C,,,,,,,,,,,,,,,,,,,,,,,,,,,,,,103.9,1500,100,,,,,,,,,,,,,,0.145243334
X,10,17,2023,259,90850,41.346275,-71.33113667,189,447,1,-,,5,,,3,3,C,,,,,,,,,,,,,,,,,,,,,,,,,,,,,,103.5,1500,100,,,,,,,,,,,,,,0.144521521
X,10,17,2023,260,90855,41.34386667,-71.33153,187,443,1,-,,5,,,3,3,C,,,,,,,,,,,,,,,,,,,,,,,,,,,,,,104.6,1500,100,,,,,,,,,,,,,,0.145680314
X,10,17,2023,261,90900,41.34145167,-71.331895,187,450,1,-,,5,,,3,3,C,,,,,,,,,,,,,,,,,,,,,,,,,,,,,,104.1,1500,100,,,,,,,,,,,,,,0.145928186
X,10,17,2023,262,90900,41.34145167,-71.331895,187,450,1,-,,5,,,3,3,C,,,,,,,,,,,,,,,,,,,,,,,,,,,,,,104.1,1500,100,,,,,,,,,,,,,,0
X,10,17,2023,263,90905,41.33908333,-71.33222333,185,456,1,-,,5,,,3,3,C,,,,,,,,,,,,,,,,,,,,,,,,,,,,,,101.8,1500,100,,,,,,,,,,,,,,0.142964023
X,10,17,2023,264,90910,41.33673333,-71.33240667,183,457,1,-,,5,,,3,3,C,,,,,,,,,,,,,,,,,,,,,,,,,,,,,,101.1,1500,100,,,,,,,,,,,,,,0.141336919
X,10,17,2023,265,90915,41.33438167,-71.332535,182,457,1,-,,5,,,3,3,C,,,,,,,,,,,,,,,,,,,,,,,,,,,,,,101.7,1500,100,,,,,,,,,,,,,,0.141313622
S,10,17,2023,266,90915,41.33432405,-71.33253561,182,457,2,1,1,5,3,1,3,3,C,2,,,,,,,,,,,,,,,,,,,,,,,,,,,,,101.7,1500,100,,,,,,,,,,ON TRACK,,,,0.003459688
X,10,17,2023,267,90919,41.33213053,-71.3325589,180,457,2,2,1,5,3,1,3,3,C,,,,,,,,,,,,,,,,,,,,,,,,,,,,,,101.3,1500,100,,,,,,,,,,,,,,0.135163568
X,10,17,2023,268,90920,41.33202667,-71.33256,180,457,2,2,1,5,3,1,3,3,C,,,,,,,,,,,,,,,,,,,,,,,,,,,,,,101.3,1500,100,,,,,,,,,,,,,,0.141399769
X,10,17,2023,269,90925,41.32966667,-71.33255,180,455,2,2,1,5,3,1,3,3,C,,,,,,,,,,,,,,,,,,,,,,,,,,,,,,101.4,1500,100,,,,,,,,,,,,,,0.141696196
X,10,17,2023,270,90930,41.32728167,-71.33253667,180,449,2,2,1,5,3,1,3,3,C,,,,,,,,,,,,,,,,,,,,,,,,,,,,,,103.6,1500,100,,,,,,,,,,,,,,0.143197752
X,10,17,2023,271,90935,41.32487333,-71.33255667,180,448,2,2,1,5,3,1,3,3,C,,,,,,,,,,,,,,,,,,,,,,,,,,,,,,104,1500,100,,,,,,,,,,,,,,0.144600246
X,10,17,2023,272,90940,41.32249667,-71.33259667,181,449,2,2,1,5,3,1,3,3,C,,,,,,,,,,,,,,,,,,,,,,,,,,,,,,102,1500,100,,,,,,,,,,,,,,0.142707551
X,10,17,2023,273,90945,41.32013167,-71.33265667,181,449,2,2,1,5,3,1,3,3,C,,,,,,,,,,,,,,,,,,,,,,,,,,,,,,101.9,1500,100,,,,,,,,,,,,,,0.142021453
X,10,17,2023,274,90950,41.31775833,-71.33272,181,447,2,2,1,5,3,1,3,3,C,,,,,,,,,,,,,,,,,,,,,,,,,,,,,,102.6,1500,100,,,,,,,,,,,,,,0.142524634
X,10,17,2023,275,90955,41.31538333,-71.33277167,181,445,2,2,1,5,3,1,3,3,C,,,,,,,,,,,,,,,,,,,,,,,,,,,,,,102.2,1500,100,,,,,,,,,,,,,,0.142615119
X,10,17,2023,276,91000,41.313005,-71.332825,181,447,2,2,1,5,3,1,3,3,C,,,,,,,,,,,,,,,,,,,,,,,,,,,,,,101.8,1500,100,,,,,,,,,,,,,,0.142816474
X,10,17,2023,277,91005,41.31067,-71.332875,181,450,2,2,1,5,3,1,3,3,C,,,,,,,,,,,,,,,,,,,,,,,,,,,,,,100.7,1500,100,,,,,,,,,,,,,,0.1402126
X,10,17,2023,278,91010,41.308375,-71.33291,181,452,2,2,1,5,3,1,3,3,C,,,,,,,,,,,,,,,,,,,,,,,,,,,,,,98,1500,100,,,,,,,,,,,,,,0.13780189
X,10,17,2023,279,91015,41.30608167,-71.33293,180,452,2,2,1,5,3,1,3,3,C,,,,,,,,,,,,,,,,,,,,,,,,,,,,,,98.8,1500,100,,,,,,,,,,,,,,0.137695736
X,10,17,2023,280,91020,41.30379167,-71.33292833,180,452,2,2,1,5,3,1,3,3,C,,,,,,,,,,,,,,,,,,,,,,,,,,,,,,98.4,1500,100,,,,,,,,,,,,,,0.137492667
X,10,17,2023,281,91025,41.30150833,-71.332945,180,454,2,2,1,5,3,1,3,3,C,,,,,,,,,,,,,,,,,,,,,,,,,,,,,,98.5,1500,100,,,,,,,,,,,,,,0.137094438
X,10,17,2023,282,91030,41.29923333,-71.33296333,180,454,2,2,1,5,3,1,3,3,C,,,,,,,,,,,,,,,,,,,,,,,,,,,,,,98.1,1500,100,,,,,,,,,,,,,,0.136594543
X,10,17,2023,283,91030,41.29923333,-71.33296333,180,454,2,2,1,5,3,1,3,3,C,,,,,,,,,,,,,,,,,,,,,,,,,,,,,,98.1,1500,100,,,,,,,,,,,,,,0
X,10,17,2023,284,91035,41.29693667,-71.33299,181,453,2,2,1,5,3,1,3,3,C,,,,,,,,,,,,,,,,,,,,,,,,,,,,,,99.2,1500,100,,,,,,,,,,,,,,0.137898163
X,10,17,2023,285,91040,41.29463333,-71.33306,182,455,2,2,1,5,3,1,3,3,C,,,,,,,,,,,,,,,,,,,,,,,,,,,,,,99.2,1500,100,,,,,,,,,,,,,,0.138329231
X,10,17,2023,286,91045,41.292345,-71.33312,181,456,2,2,1,5,3,1,3,3,C,,,,,,,,,,,,,,,,,,,,,,,,,,,,,,98.5,1500,100,,,,,,,,,,,,,,0.137419237
X,10,17,2023,287,91050,41.29004333,-71.33313833,180,455,2,2,1,5,3,1,3,3,C,,,,,,,,,,,,,,,,,,,,,,,,,,,,,,99.5,1500,100,,,,,,,,,,,,,,0.138195594
X,10,17,2023,288,91055,41.28772333,-71.33313167,180,455,2,2,1,5,3,1,3,3,C,,,,,,,,,,,,,,,,,,,,,,,,,,,,,,100.9,1500,100,,,,,,,,,,,,,,0.139294185
X,10,17,2023,289,91100,41.285385,-71.33315833,181,455,2,2,1,5,3,1,3,3,C,,,,,,,,,,,,,,,,,,,,,,,,,,,,,,100.9,1500,100,,,,,,,,,,,,,,0.140399757
X,10,17,2023,290,91100,41.285385,-71.33315833,181,455,2,2,1,5,3,1,3,3,C,,,,,,,,,,,,,,,,,,,,,,,,,,,,,,100.9,1500,100,,,,,,,,,,,,,,0
X,10,17,2023,291,91105,41.28304,-71.333205,181,455,2,2,1,5,3,1,3,3,C,,,,,,,,,,,,,,,,,,,,,,,,,,,,,,101.1,1500,100,,,,,,,,,,,,,,0.140810614
X,10,17,2023,292,91110,41.28068833,-71.33323167,180,454,2,2,1,5,3,1,3,3,C,,,,,,,,,,,,,,,,,,,,,,,,,,,,,,101.4,1500,100,,,,,,,,,,,,,,0.141200268
X,10,17,2023,293,91115,41.27833,-71.33323333,180,455,2,2,1,5,3,1,3,3,C,,,,,,,,,,,,,,,,,,,,,,,,,,,,,,102,1500,100,,,,,,,,,,,,,,0.141595431
X,10,17,2023,294,91120,41.27597333,-71.33323167,180,457,2,2,1,5,3,1,3,3,C,,,,,,,,,,,,,,,,,,,,,,,,,,,,,,101.9,1500,100,,,,,,,,,,,,,,0.141495364
X,10,17,2023,295,91125,41.27361667,-71.333245,180,459,2,2,1,5,3,1,3,3,C,,,,,,,,,,,,,,,,,,,,,,,,,,,,,,101.2,1500,100,,,,,,,,,,,,,,0.141496623
X,10,17,2023,296,91130,41.27125667,-71.333295,181,460,2,2,1,5,3,1,3,3,C,,,,,,,,,,,,,,,,,,,,,,,,,,,,,,101.4,1500,100,,,,,,,,,,,,,,0.141713441
X,10,17,2023,297,91135,41.26889,-71.333345,181,461,2,2,1,5,3,1,3,3,C,,,,,,,,,,,,,,,,,,,,,,,,,,,,,,101.9,1500,100,,,,,,,,,,,,,,0.142113662
X,10,17,2023,298,91140,41.26652667,-71.33337333,180,462,2,2,1,5,3,1,3,3,C,,,,,,,,,,,,,,,,,,,,,,,,,,,,,,102,1500,100,,,,,,,,,,,,,,0.141901375
X,10,17,2023,299,91145,41.264155,-71.33340833,181,463,2,2,1,5,3,1,3,3,C,,,,,,,,,,,,,,,,,,,,,,,,,,,,,,102.2,1500,100,,,,,,,,,,,,,,0.142404711
X,10,17,2023,300,91150,41.261785,-71.33344333,181,463,2,2,1,5,3,1,3,3,C,,,,,,,,,,,,,,,,,,,,,,,,,,,,,,102.5,1500,100,,,,,,,,,,,,,,0.142304651
X,10,17,2023,301,91155,41.25941167,-71.33345167,180,464,2,2,1,5,3,1,3,3,C,,,,,,,,,,,,,,,,,,,,,,,,,,,,,,102.7,1500,100,,,,,,,,,,,,,,0.142496515
X,10,17,2023,302,91200,41.25703167,-71.33343,180,466,2,2,1,5,3,1,3,3,C,,,,,,,,,,,,,,,,,,,,,,,,,,,,,,102.8,1500,100,,,,,,,,,,,,,,0.142899634
X,10,17,2023,303,91200,41.25703167,-71.33343,180,466,2,2,1,5,3,1,3,3,C,,,,,,,,,,,,,,,,,,,,,,,,,,,,,,102.8,1500,100,,,,,,,,,,,,,,0
X,10,17,2023,304,91205,41.25465,-71.33339833,179,469,2,2,1,5,3,1,3,3,C,,,,,,,,,,,,,,,,,,,,,,,,,,,,,,102.8,1500,100,,,,,,,,,,,,,,0.143003499
X,10,17,2023,305,91210,41.25227333,-71.33336167,179,472,2,2,1,5,3,1,3,3,C,,,,,,,,,,,,,,,,,,,,,,,,,,,,,,102.4,1500,100,,,,,,,,,,,,,,0.142705751
X,10,17,2023,306,91215,41.24989833,-71.333315,179,475,2,2,1,5,3,1,3,3,C,,,,,,,,,,,,,,,,,,,,,,,,,,,,,,102.2,1500,100,,,,,,,,,,,,,,0.142611645
X,10,17,2023,307,91220,41.24753333,-71.33325667,179,477,2,2,1,5,3,1,3,3,C,,,,,,,,,,,,,,,,,,,,,,,,,,,,,,101.8,1500,100,,,,,,,,,,,,,,0.142020096
X,10,17,2023,308,91225,41.24518833,-71.33313833,178,478,2,2,1,5,3,1,3,3,C,,,,,,,,,,,,,,,,,,,,,,,,,,,,,,101.3,1500,100,,,,,,,,,,,,,,0.140896176
X,10,17,2023,309,91230,41.24281167,-71.33301833,178,473,2,2,1,5,3,1,3,3,C,,,,,,,,,,,,,,,,,,,,,,,,,,,,,,103.6,1500,100,,,,,,,,,,,,,,0.142798951
X,10,17,2023,310,91230,41.24281167,-71.33301833,178,473,2,2,1,5,3,1,3,3,C,,,,,,,,,,,,,,,,,,,,,,,,,,,,,,103.6,1500,100,,,,,,,,,,,,,,0
X,10,17,2023,311,91235,41.24037667,-71.33294333,179,469,2,2,1,5,3,1,3,3,C,,,,,,,,,,,,,,,,,,,,,,,,,,,,,,105.8,1500,100,,,,,,,,,,,,,,0.146237718
X,10,17,2023,312,91240,41.23792,-71.33291333,180,470,2,2,1,5,3,1,3,3,C,,,,,,,,,,,,,,,,,,,,,,,,,,,,,,106,1500,100,,,,,,,,,,,,,,0.147505608
X,10,17,2023,313,91245,41.23547333,-71.33286,179,470,2,2,1,5,3,1,3,3,C,,,,,,,,,,,,,,,,,,,,,,,,,,,,,,105.7,1500,100,,,,,,,,,,,,,,0.14691872
X,10,17,2023,314,91250,41.233015,-71.33284333,180,470,2,2,1,5,3,1,3,3,C,,,,,,,,,,,,,,,,,,,,,,,,,,,,,,105.7,1500,100,,,,,,,,,,,,,,0.147601376
X,10,17,2023,315,91255,41.23055333,-71.33287,180,467,2,2,1,5,3,1,3,3,C,,,,,,,,,,,,,,,,,,,,,,,,,,,,,,106.3,1500,100,,,,,,,,,,,,,,0.147804497
X,10,17,2023,316,91300,41.22807667,-71.33286833,180,461,2,2,1,5,3,1,3,3,C,,,,,,,,,,,,,,,,,,,,,,,,,,,,,,107.2,1500,100,,,,,,,,,,,,,,0.148700218
X,10,17,2023,317,91305,41.22559,-71.33284,180,463,2,2,1,5,3,1,3,3,C,,,,,,,,,,,,,,,,,,,,,,,,,,,,,,106.9,1500,100,,,,,,,,,,,,,,0.149306086
S,10,17,2023,318,91307,41.22439186,-71.3328335,180,466,2,2,1,5,3,1,3,3,C,3,,,RECV,1,,,1,9,0,,,,,,,,,,,,,,,,,,,,105.9,1500,100,,,,,,,,,,,,,,0.071937346
X,10,17,2023,319,91310,41.22313167,-71.33282667,180,469,2,2,1,5,3,1,3,3,C,,,,,,,,,,,,,,,,,,,,,,,,,,,,,,104.7,1500,100,,,,,,,,,,,,,,0.147600685
X,10,17,2023,320,91315,41.220725,-71.33285333,181,472,2,2,1,5,3,1,3,3,C,,,,,,,,,,,,,,,,,,,,,,,,,,,,,,103.3,1500,100,,,,,,,,,,,,,,0.144502385
X,10,17,2023,321,91320,41.218315,-71.3329,181,468,2,2,1,5,3,1,3,3,C,,,,,,,,,,,,,,,,,,,,,,,,,,,,,,104.1,1500,100,,,,,,,,,,,,,,0.144712849
X,10,17,2023,322,91325,41.21587333,-71.33293667,181,467,2,2,1,5,3,1,3,3,C,,,,,,,,,,,,,,,,,,,,,,,,,,,,,,105,1500,100,,,,,,,,,,,,,,0.146608136
X,10,17,2023,323,91330,41.21342667,-71.33296167,180,467,2,2,1,5,3,1,3,3,C,,,,,,,,,,,,,,,,,,,,,,,,,,,,,,105.4,1500,100,,,,,,,,,,,,,,0.146903325
X,10,17,2023,324,91330,41.21342667,-71.33296167,180,467,2,2,1,5,3,1,3,3,C,,,,,,,,,,,,,,,,,,,,,,,,,,,,,,105.4,1500,100,,,,,,,,,,,,,,0
X,10,17,2023,325,91335,41.21097,-71.33298333,180,468,2,2,1,5,3,1,3,3,C,,,,,,,,,,,,,,,,,,,,,,,,,,,,,,106.6,1500,100,,,,,,,,,,,,,,0.147502636
X,10,17,2023,326,91340,41.20851333,-71.33304667,181,470,2,2,1,5,3,1,3,3,C,,,,,,,,,,,,,,,,,,,,,,,,,,,,,,105.9,1500,100,,,,,,,,,,,,,,0.147527128
X,10,17,2023,327,91345,41.20607167,-71.33311833,181,472,2,2,1,5,3,1,3,3,C,,,,,,,,,,,,,,,,,,,,,,,,,,,,,,105,1500,100,,,,,,,,,,,,,,0.146634521
X,10,17,2023,328,91350,41.20365833,-71.33314833,180,475,2,2,1,5,3,1,3,3,C,,,,,,,,,,,,,,,,,,,,,,,,,,,,,,104.2,1500,100,,,,,,,,,,,,,,0.144903974
X,10,17,2023,329,91355,41.20125,-71.33314833,180,475,2,2,1,5,3,1,3,3,C,,,,,,,,,,,,,,,,,,,,,,,,,,,,,,104.1,1500,100,,,,,,,,,,,,,,0.144597434
X,10,17,2023,330,91400,41.198835,-71.33311167,179,473,2,2,1,5,3,1,3,3,C,,,,,,,,,,,,,,,,,,,,,,,,,,,,,,104.3,1500,100,,,,,,,,,,,,,,0.145007165
X,10,17,2023,331,91400,41.198835,-71.33311167,179,473,2,2,1,5,3,1,3,3,C,,,,,,,,,,,,,,,,,,,,,,,,,,,,,,104.3,1500,100,,,,,,,,,,,,,,0
X,10,17,2023,332,91405,41.19641,-71.33307333,179,470,2,2,1,5,3,1,3,3,C,,,,,,,,,,,,,,,,,,,,,,,,,,,,,,104.4,1500,100,,,,,,,,,,,,,,0.145608407
X,10,17,2023,333,91410,41.193975,-71.33305333,180,468,2,2,1,5,3,1,3,3,C,,,,,,,,,,,,,,,,,,,,,,,,,,,,,,105.3,1500,100,,,,,,,,,,,,,,0.146201305
X,10,17,2023,334,91415,41.19153,-71.33302167,179,465,2,2,1,5,3,1,3,3,C,,,,,,,,,,,,,,,,,,,,,,,,,,,,,,105.2,1500,100,,,,,,,,,,,,,,0.14680589
X,10,17,2023,335,91420,41.18906,-71.33297667,179,462,2,2,1,5,3,1,3,3,C,,,,,,,,,,,,,,,,,,,,,,,,,,,,,,106.3,1500,100,,,,,,,,,,,,,,0.148313866
X,10,17,2023,336,91425,41.18659833,-71.33293833,180,462,2,2,1,5,3,1,3,3,C,,,,,,,,,,,,,,,,,,,,,,,,,,,,,,106.2,1500,100,,,,,,,,,,,,,,0.147809741
P,10,17,2023,337,91427,41.18548141,-71.33292994,180,461,2,2,1,5,3,1,3,3,C,4,,,FV-C,1,,,1,9,0,,,,,,,,,,,,,,,,,,,,105.8,1500,100,,,,,,,,,,,,,,0.067061493
X,10,17,2023,338,91430,41.18415833,-71.33292,180,461,2,2,1,5,3,1,3,3,C,,,,,,,,,,,,,,,,,,,,,,,,,,,,,,105.2,1500,100,,,,,,,,,,,,,,0.146501058
X,10,17,2023,339,91430,41.18415833,-71.33292,180,461,2,2,1,5,3,1,3,3,C,,,,,,,,,,,,,,,,,,,,,,,,,,,,,,105.2,1500,100,,,,,,,,,,,,,,0
S,10,17,2023,340,91431,41.18364111,-71.33292213,180,460,2,2,1,5,3,1,3,3,C,5,,,FV-C,3,,,1,9,0,,,,,,,,,,,,,,,,,,,,105,1500,100,,,,,,,,,,,,,,0.0310545
X,10,17,2023,341,91435,41.18173,-71.33293,180,460,2,2,1,5,3,1,3,3,C,,,,,,,,,,,,,,,,,,,,,,,,,,,,,,104.2,1500,100,,,,,,,,,,,,,,0.145798944
X,10,17,2023,342,91440,41.17930833,-71.33296667,181,458,2,2,1,5,3,1,3,3,C,,,,,,,,,,,,,,,,,,,,,,,,,,,,,,104.5,1500,100,,,,,,,,,,,,,,0.145407414
X,10,17,2023,343,91445,41.17689,-71.33300833,181,457,2,2,1,5,3,1,3,3,C,,,,,,,,,,,,,,,,,,,,,,,,,,,,,,103.9,1500,100,,,,,,,,,,,,,,0.145210047
X,10,17,2023,344,91450,41.17447833,-71.33307,181,456,2,2,1,5,3,1,3,3,C,,,,,,,,,,,,,,,,,,,,,,,,,,,,,,104.1,1500,100,,,,,,,,,,,,,,0.144824385
X,10,17,2023,345,91455,41.17208667,-71.333155,182,456,2,2,1,5,3,1,3,3,C,,,,,,,,,,,,,,,,,,,,,,,,,,,,,,103,1500,100,,,,,,,,,,,,,,0.143648134
X,10,17,2023,346,91500,41.16969667,-71.33322,181,456,2,2,1,5,3,1,3,3,C,,,,,,,,,,,,,,,,,,,,,,,,,,,,,,102.8,1500,100,,,,,,,,,,,,,,0.14352676
X,10,17,2023,347,91505,41.16730333,-71.333255,180,456,2,2,1,5,3,1,3,3,C,,,,,,,,,,,,,,,,,,,,,,,,,,,,,,103.3,1500,100,,,,,,,,,,,,,,0.143705534
X,10,17,2023,348,91510,41.16491833,-71.33329,181,458,2,2,1,5,3,1,3,3,C,,,,,,,,,,,,,,,,,,,,,,,,,,,,,,102.7,1500,100,,,,,,,,,,,,,,0.143205228
X,10,17,2023,349,91515,41.16253667,-71.33335833,181,458,2,2,1,5,3,1,3,3,C,,,,,,,,,,,,,,,,,,,,,,,,,,,,,,102.4,1500,100,,,,,,,,,,,,,,0.143029709
X,10,17,2023,350,91520,41.16016,-71.33343333,181,458,2,2,1,5,3,1,3,3,C,,,,,,,,,,,,,,,,,,,,,,,,,,,,,,102.2,1500,100,,,,,,,,,,,,,,0.142736419
X,10,17,2023,351,91525,41.157795,-71.33349333,181,459,2,2,1,5,3,1,3,3,C,,,,,,,,,,,,,,,,,,,,,,,,,,,,,,102.2,1500,100,,,,,,,,,,,,,,0.142021581
X,10,17,2023,352,91530,41.15544,-71.33355667,181,460,2,2,1,5,3,1,3,3,C,,,,,,,,,,,,,,,,,,,,,,,,,,,,,,101.8,1500,100,,,,,,,,,,,,,,0.141424259
X,10,17,2023,353,91530,41.15544,-71.33355667,181,460,2,2,1,5,3,1,3,3,C,,,,,,,,,,,,,,,,,,,,,,,,,,,,,,101.8,1500,100,,,,,,,,,,,,,,0
X,10,17,2023,354,91535,41.15308833,-71.333645,182,460,2,2,1,5,3,1,3,3,C,,,,,,,,,,,,,,,,,,,,,,,,,,,,,,101.6,1500,100,,,,,,,,,,,,,,0.141251599
X,10,17,2023,355,91540,41.15073667,-71.33369833,181,460,2,2,1,5,3,1,3,3,C,,,,,,,,,,,,,,,,,,,,,,,,,,,,,,101.4,1500,100,,,,,,,,,,,,,,0.141215727
X,10,17,2023,356,91545,41.14839,-71.33371167,180,459,2,2,1,5,3,1,3,3,C,,,,,,,,,,,,,,,,,,,,,,,,,,,,,,101.3,1500,100,,,,,,,,,,,,,,0.140896229
X,10,17,2023,357,91550,41.14603833,-71.33369667,180,459,2,2,1,5,3,1,3,3,C,,,,,,,,,,,,,,,,,,,,,,,,,,,,,,101.4,1500,100,,,,,,,,,,,,,,0.14119677
X,10,17,2023,358,91555,41.143695,-71.33366167,179,458,2,2,1,5,3,1,3,3,C,,,,,,,,,,,,,,,,,,,,,,,,,,,,,,101.1,1500,100,,,,,,,,,,,,,,0.140703704
X,10,17,2023,359,91600,41.14136,-71.33359667,179,456,2,2,1,5,3,1,3,3,C,,,,,,,,,,,,,,,,,,,,,,,,,,,,,,100.8,1500,100,,,,,,,,,,,,,,0.14022527
X,10,17,2023,360,91600,41.14136,-71.33359667,179,456,2,2,1,5,3,1,3,3,C,,,,,,,,,,,,,,,,,,,,,,,,,,,,,,100.8,1500,100,,,,,,,,,,,,,,0
X,10,17,2023,361,91605,41.13901333,-71.33354833,179,453,2,2,1,5,3,1,3,3,C,,,,,,,,,,,,,,,,,,,,,,,,,,,,,,101.4,1500,100,,,,,,,,,,,,,,0.140911888
X,10,17,2023,362,91610,41.13665,-71.33351833,180,452,2,2,1,5,3,1,3,3,C,,,,,,,,,,,,,,,,,,,,,,,,,,,,,,102.4,1500,100,,,,,,,,,,,,,,0.141902098
X,10,17,2023,363,91615,41.13426667,-71.33348333,179,449,2,2,1,5,3,1,3,3,C,,,,,,,,,,,,,,,,,,,,,,,,,,,,,,103.3,1500,100,,,,,,,,,,,,,,0.143105175
X,10,17,2023,364,91620,41.13187667,-71.333455,180,449,2,2,1,5,3,1,3,3,C,,,,,,,,,,,,,,,,,,,,,,,,,,,,,,103.2,1500,100,,,,,,,,,,,,,,0.143502413
X,10,17,2023,365,91625,41.12950167,-71.33345667,180,451,2,2,1,5,3,1,3,3,C,,,,,,,,,,,,,,,,,,,,,,,,,,,,,,101.8,1500,100,,,,,,,,,,,,,,0.142596106
X,10,17,2023,366,91630,41.12714833,-71.33349,181,456,2,2,1,5,3,1,3,3,C,,,,,,,,,,,,,,,,,,,,,,,,,,,,,,100.9,1500,100,,,,,,,,,,,,,,0.141303251
X,10,17,2023,367,91635,41.12483167,-71.33352,180,460,2,2,1,5,3,1,3,3,C,,,,,,,,,,,,,,,,,,,,,,,,,,,,,,99.8,1500,100,,,,,,,,,,,,,,0.139100343
X,10,17,2023,368,91640,41.12254,-71.333515,180,462,2,2,1,5,3,1,3,3,C,,,,,,,,,,,,,,,,,,,,,,,,,,,,,,98.8,1500,100,,,,,,,,,,,,,,0.1375929
X,10,17,2023,369,91645,41.120245,-71.333495,180,462,2,2,1,5,3,1,3,3,C,,,,,,,,,,,,,,,,,,,,,,,,,,,,,,99.2,1500,100,,,,,,,,,,,,,,0.137795818
X,10,17,2023,370,91650,41.117935,-71.333455,179,461,2,2,1,5,3,1,3,3,C,,,,,,,,,,,,,,,,,,,,,,,,,,,,,,99.6,1500,100,,,,,,,,,,,,,,0.138705256
X,10,17,2023,371,91655,41.11561167,-71.33343167,180,458,2,2,1,5,3,1,3,3,C,,,,,,,,,,,,,,,,,,,,,,,,,,,,,,100.4,1500,100,,,,,,,,,,,,,,0.139497988
X,10,17,2023,372,91700,41.113295,-71.33341833,180,459,2,2,1,5,3,1,3,3,C,,,,,,,,,,,,,,,,,,,,,,,,,,,,,,99.8,1500,100,,,,,,,,,,,,,,0.139095033
X,10,17,2023,373,91705,41.11099667,-71.333405,180,461,2,2,1,5,3,1,3,3,C,,,,,,,,,,,,,,,,,,,,,,,,,,,,,,98.9,1500,100,,,,,,,,,,,,,,0.137994302
X,10,17,2023,374,91710,41.108725,-71.33337833,179,462,2,2,1,5,3,1,3,3,C,,,,,,,,,,,,,,,,,,,,,,,,,,,,,,98,1500,100,,,,,,,,,,,,,,0.13639724
X,10,17,2023,375,91715,41.106455,-71.33333,179,459,2,2,1,5,3,1,3,3,C,,,,,,,,,,,,,,,,,,,,,,,,,,,,,,98.1,1500,100,,,,,,,,,,,,,,0.136309376
X,10,17,2023,376,91720,41.10416833,-71.33331167,180,457,2,2,1,5,3,1,3,3,C,,,,,,,,,,,,,,,,,,,,,,,,,,,,,,99,1500,100,,,,,,,,,,,,,,0.137295017
X,10,17,2023,377,91725,41.10187333,-71.333315,180,456,2,2,1,5,3,1,3,3,C,,,,,,,,,,,,,,,,,,,,,,,,,,,,,,98.6,1500,100,,,,,,,,,,,,,,0.137792932
X,10,17,2023,378,91730,41.09957,-71.33331833,180,456,2,2,1,5,3,1,3,3,C,,,,,,,,,,,,,,,,,,,,,,,,,,,,,,99.4,1500,100,,,,,,,,,,,,,,0.138293269
X,10,17,2023,379,91730,41.09957,-71.33331833,180,456,2,2,1,5,3,1,3,3,C,,,,,,,,,,,,,,,,,,,,,,,,,,,,,,99.4,1500,100,,,,,,,,,,,,,,0
X,10,17,2023,380,91735,41.09727667,-71.33330667,180,457,2,2,1,5,3,1,3,3,C,,,,,,,,,,,,,,,,,,,,,,,,,,,,,,98.6,1500,100,,,,,,,,,,,,,,0.137693794
X,10,17,2023,381,91740,41.09498333,-71.33329,180,457,2,2,1,5,3,1,3,3,C,,,,,,,,,,,,,,,,,,,,,,,,,,,,,,98.7,1500,100,,,,,,,,,,,,,,0.137694847
X,10,17,2023,382,91745,41.092685,-71.33327667,180,457,2,2,1,5,3,1,3,3,C,,,,,,,,,,,,,,,,,,,,,,,,,,,,,,99.1,1500,100,,,,,,,,,,,,,,0.137994303
X,10,17,2023,383,91750,41.090375,-71.33322833,179,457,2,2,1,5,3,1,3,3,C,,,,,,,,,,,,,,,,,,,,,,,,,,,,,,99.6,1500,100,,,,,,,,,,,,,,0.138710699
X,10,17,2023,384,91755,41.08806,-71.333165,179,457,2,2,1,5,3,1,3,3,C,,,,,,,,,,,,,,,,,,,,,,,,,,,,,,100.3,1500,100,,,,,,,,,,,,,,0.139023202
X,10,17,2023,385,91800,41.08573833,-71.333105,179,458,2,2,1,5,3,1,3,3,C,,,,,,,,,,,,,,,,,,,,,,,,,,,,,,100.3,1500,100,,,,,,,,,,,,,,0.13942037
X,10,17,2023,386,91800,41.08573833,-71.333105,179,458,2,2,1,5,3,1,3,3,C,,,,,,,,,,,,,,,,,,,,,,,,,,,,,,100.3,1500,100,,,,,,,,,,,,,,0
X,10,17,2023,387,91805,41.08342833,-71.333015,178,461,2,2,1,5,3,1,3,3,C,,,,,,,,,,,,,,,,,,,,,,,,,,,,,,99.7,1500,100,,,,,,,,,,,,,,0.138753247
X,10,17,2023,388,91810,41.08112,-71.33294833,179,461,2,2,1,5,3,1,3,3,C,,,,,,,,,,,,,,,,,,,,,,,,,,,,,,100.1,1500,100,,,,,,,,,,,,,,0.138626225
X,10,17,2023,389,91815,41.07880833,-71.33294,180,461,2,2,1,5,3,1,3,3,C,,,,,,,,,,,,,,,,,,,,,,,,,,,,,,99.6,1500,100,,,,,,,,,,,,,,0.138794036
X,10,17,2023,390,91820,41.07650333,-71.33294,180,460,2,2,1,5,3,1,3,3,C,,,,,,,,,,,,,,,,,,,,,,,,,,,,,,99.2,1500,100,,,,,,,,,,,,,,0.138393254
X,10,17,2023,391,91825,41.0742,-71.33292833,180,458,2,2,1,5,3,1,3,3,C,,,,,,,,,,,,,,,,,,,,,,,,,,,,,,99.4,1500,100,,,,,,,,,,,,,,0.138294194
X,10,17,2023,392,91830,41.07189,-71.33296167,181,458,2,2,1,5,3,1,3,3,C,,,,,,,,,,,,,,,,,,,,,,,,,,,,,,99.7,1500,100,,,,,,,,,,,,,,0.138701662
X,10,17,2023,393,91835,41.06956667,-71.33299,180,458,2,2,1,5,3,1,3,3,C,,,,,,,,,,,,,,,,,,,,,,,,,,,,,,100.1,1500,100,,,,,,,,,,,,,,0.139499891
X,10,17,2023,394,91840,41.06724833,-71.33301833,181,461,2,2,1,5,3,1,3,3,C,,,,,,,,,,,,,,,,,,,,,,,,,,,,,,99.9,1500,100,,,,,,,,,,,,,,0.139199702
X,10,17,2023,395,91845,41.06493667,-71.33302167,180,461,2,2,1,5,3,1,3,3,C,,,,,,,,,,,,,,,,,,,,,,,,,,,,,,99.7,1500,100,,,,,,,,,,,,,,0.138793606
X,10,17,2023,396,91850,41.06263167,-71.333015,180,460,2,2,1,5,3,1,3,3,C,,,,,,,,,,,,,,,,,,,,,,,,,,,,,,99.7,1500,100,,,,,,,,,,,,,,0.138393583
X,10,17,2023,397,91855,41.06031167,-71.33304,181,458,2,2,1,5,3,1,3,3,C,,,,,,,,,,,,,,,,,,,,,,,,,,,,,,99.9,1500,100,,,,,,,,,,,,,,0.139298458
P,10,17,2023,398,91859,41.05822368,-71.33308194,181,458,2,2,1,5,3,1,3,3,C,6,,,FV-C,1,,,1,9,0,,,,,,,,,,,,,,,,,,,,100.1,1500,100,,,,,,,,,,,,,,0.125378075
X,10,17,2023,399,91900,41.05798833,-71.33308667,181,458,2,2,1,5,3,1,3,3,C,,,,,,,,,,,,,,,,,,,,,,,,,,,,,,100.1,1500,100,,,,,,,,,,,,,,0.139509994
X,10,17,2023,400,91900,41.05798833,-71.33308667,181,458,2,2,1,5,3,1,3,3,C,,,,,,,,,,,,,,,,,,,,,,,,,,,,,,100.1,1500,100,,,,,,,,,,,,,,0
X,10,17,2023,401,91905,41.05567,-71.33310833,180,458,2,2,1,5,3,1,3,3,C,,,,,,,,,,,,,,,,,,,,,,,,,,,,,,99.8,1500,100,,,,,,,,,,,,,,0.13919725
X,10,17,2023,402,91910,41.053365,-71.333115,180,458,2,2,1,5,3,1,3,3,C,,,,,,,,,,,,,,,,,,,,,,,,,,,,,,99.5,1500,100,,,,,,,,,,,,,,0.138393583
X,10,17,2023,403,91915,41.05105333,-71.33310167,179,458,2,2,1,5,3,1,3,3,C,,,,,,,,,,,,,,,,,,,,,,,,,,,,,,99.7,1500,100,,,,,,,,,,,,,,0.138794836
X,10,17,2023,404,91920,41.04873833,-71.33306167,179,458,2,2,1,5,3,1,3,3,C,,,,,,,,,,,,,,,,,,,,,,,,,,,,,,99.9,1500,100,,,,,,,,,,,,,,0.139005458
X,10,17,2023,405,91925,41.04640333,-71.33303667,180,457,2,2,1,5,3,1,3,3,C,,,,,,,,,,,,,,,,,,,,,,,,,,,,,,101.1,1500,100,,,,,,,,,,,,,,0.140199038
X,10,17,2023,406,91930,41.04405167,-71.33302667,180,457,2,2,1,5,3,1,3,3,C,,,,,,,,,,,,,,,,,,,,,,,,,,,,,,101.4,1500,100,,,,,,,,,,,,,,0.141195868
X,10,17,2023,407,91930,41.04405167,-71.33302667,180,457,2,2,1,5,3,1,3,3,C,,,,,,,,,,,,,,,,,,,,,,,,,,,,,,101.4,1500,100,,,,,,,,,,,,,,0
X,10,17,2023,408,91935,41.04170167,-71.333005,179,457,2,2,1,5,3,1,3,3,C,,,,,,,,,,,,,,,,,,,,,,,,,,,,,,100.8,1500,100,,,,,,,,,,,,,,0.141098486
X,10,17,2023,409,91940,41.03935667,-71.33297167,179,458,2,2,1,5,3,1,3,3,C,,,,,,,,,,,,,,,,,,,,,,,,,,,,,,101.2,1500,100,,,,,,,,,,,,,,0.140802964
X,10,17,2023,410,91945,41.03702,-71.33292667,179,461,2,2,1,5,3,1,3,3,C,,,,,,,,,,,,,,,,,,,,,,,,,,,,,,100.2,1500,100,,,,,,,,,,,,,,0.140309335
X,10,17,2023,411,91950,41.034695,-71.33285,179,460,2,2,1,5,3,1,3,3,C,,,,,,,,,,,,,,,,,,,,,,,,,,,,,,100.5,1500,100,,,,,,,,,,,,,,0.139637237
X,10,17,2023,412,91955,41.03236,-71.33278833,179,458,2,2,1,5,3,1,3,3,C,,,,,,,,,,,,,,,,,,,,,,,,,,,,,,100.8,1500,100,,,,,,,,,,,,,,0.140222284
X,10,17,2023,413,92000,41.03001333,-71.33275833,180,457,2,2,1,5,3,1,3,3,C,,,,,,,,,,,,,,,,,,,,,,,,,,,,,,101.5,1500,100,,,,,,,,,,,,,,0.140901491
X,10,17,2023,414,92005,41.02765833,-71.33276667,180,457,2,2,1,5,3,1,3,3,C,,,,,,,,,,,,,,,,,,,,,,,,,,,,,,101.7,1500,100,,,,,,,,,,,,,,0.14139578
X,10,17,2023,415,92010,41.02530833,-71.33280167,181,458,2,2,1,5,3,1,3,3,C,,,,,,,,,,,,,,,,,,,,,,,,,,,,,,100.8,1500,100,,,,,,,,,,,,,,0.14110398
X,10,17,2023,416,92015,41.02297667,-71.33284833,181,456,2,2,1,5,3,1,3,3,C,,,,,,,,,,,,,,,,,,,,,,,,,,,,,,100.3,1500,100,,,,,,,,,,,,,,0.140010291
X,10,17,2023,417,92020,41.02064167,-71.33288167,181,453,2,2,1,5,3,1,3,3,C,,,,,,,,,,,,,,,,,,,,,,,,,,,,,,101,1500,100,,,,,,,,,,,,,,0.140202599
X,10,17,2023,418,92025,41.01829833,-71.33291167,181,453,2,2,1,5,3,1,3,3,C,,,,,,,,,,,,,,,,,,,,,,,,,,,,,,101.1,1500,100,,,,,,,,,,,,,,0.140701368
X,10,17,2023,419,92030,41.01596667,-71.33294167,181,454,2,2,1,5,3,1,3,3,C,,,,,,,,,,,,,,,,,,,,,,,,,,,,,,100.6,1500,100,,,,,,,,,,,,,,0.140000929
X,10,17,2023,420,92030,41.01596667,-71.33294167,181,454,2,2,1,5,3,1,3,3,C,,,,,,,,,,,,,,,,,,,,,,,,,,,,,,100.6,1500,100,,,,,,,,,,,,,,0
S,10,17,2023,421,92034,41.01374241,-71.3329752,180,454,2,2,1,5,3,1,3,3,C,7,,42,FG-U,1,,,1,9,0,,,,,,,,,,,,,,,,,,,,100.1,1500,100,,,,,,,,,,,,,,0.13355429
X,10,17,2023,422,92035,41.013645,-71.33297667,180,454,2,2,1,5,3,1,3,3,C,,,,,,,,,,,,,,,,,,,,,,,,,,,,,,100.1,1500,100,,,,,,,,,,,,,,0.139402946
X,10,17,2023,423,92040,41.011325,-71.333,180,451,2,2,1,5,3,1,3,3,C,,,,,,,,,,,,,,,,,,,,,,,,,,,,,,100,1500,100,,,,,,,,,,,,,,0.139297872
X,10,17,2023,424,92045,41.00899,-71.333015,180,449,2,2,1,5,3,1,3,3,C,,,,,,,,,,,,,,,,,,,,,,,,,,,,,,100.9,1500,100,,,,,,,,,,,,,,0.140196115
X,10,17,2023,425,92050,41.00665833,-71.33302167,180,448,2,2,1,5,3,1,3,3,C,,,,,,,,,,,,,,,,,,,,,,,,,,,,,,100.4,1500,100,,,,,,,,,,,,,,0.139994658
X,10,17,2023,426,92055,41.004335,-71.333035,180,446,2,2,1,5,3,1,3,3,C,,,,,,,,,,,,,,,,,,,,,,,,,,,,,,100.2,1500,100,,,,,,,,,,,,,,0.139495304
X,10,17,2023,427,92100,41.00201,-71.33305333,180,443,2,2,1,5,3,1,3,3,C,,,,,,,,,,,,,,,,,,,,,,,,,,,,,,100.4,1500,100,,,,,,,,,,,,,,0.139596535
X,10,17,2023,428,92105,40.99967667,-71.33304333,180,441,2,2,1,5,3,1,3,3,C,,,,,,,,,,,,,,,,,,,,,,,,,,,,,,100.5,1500,100,,,,,,,,,,,,,,0.140095133
X,10,17,2023,429,92110,40.99734167,-71.33302,179,441,2,2,1,5,3,1,3,3,C,,,,,,,,,,,,,,,,,,,,,,,,,,,,,,100.4,1500,100,,,,,,,,,,,,,,0.140198455
X,10,17,2023,430,92115,40.99502167,-71.33299,180,444,2,2,1,5,3,1,3,3,C,,,,,,,,,,,,,,,,,,,,,,,,,,,,,,99.7,1500,100,,,,,,,,,,,,,,0.139300495
X,10,17,2023,431,92120,40.99274833,-71.33300167,180,449,2,2,1,5,3,1,3,3,C,,,,,,,,,,,,,,,,,,,,,,,,,,,,,,97.5,1500,100,,,,,,,,,,,,,,0.136492997
X,10,17,2023,432,92125,40.99052333,-71.33305667,181,452,2,2,1,5,3,1,3,3,C,,,,,,,,,,,,,,,,,,,,,,,,,,,,,,95.6,1500,100,,,,,,,,,,,,,,0.133613268
X,10,17,2023,433,92130,40.98830667,-71.33311333,181,454,2,2,1,5,3,1,3,3,C,,,,,,,,,,,,,,,,,,,,,,,,,,,,,,95.9,1500,100,,,,,,,,,,,,,,0.133114456
P,10,17,2023,434,92130,40.98828099,-71.33311368,181,453,2,2,1,5,3,1,3,3,C,8,,,FV-T,1,,,1,9,0,,,,,,,,,,,,,,,,,,,,95.9,1500,100,,,,,,,,,,,,,,0.001541877
X,10,17,2023,435,92135,40.98609333,-71.33314333,180,453,2,2,1,5,3,1,3,3,C,,,,,,,,,,,,,,,,,,,,,,,,,,,,,,95.5,1500,100,,,,,,,,,,,,,,0.132896501
X,10,17,2023,436,92140,40.98386,-71.33313,180,451,2,2,1,5,3,1,3,3,C,,,,,,,,,,,,,,,,,,,,,,,,,,,,,,97.2,1500,100,,,,,,,,,,,,,,0.134091716
X,10,17,2023,437,92145,40.98157333,-71.33310833,179,449,2,2,1,5,3,1,3,3,C,,,,,,,,,,,,,,,,,,,,,,,,,,,,,,99.3,1500,100,,,,,,,,,,,,,,0.137296024
X,10,17,2023,438,92150,40.97924667,-71.33308333,180,446,2,2,1,5,3,1,3,3,C,,,,,,,,,,,,,,,,,,,,,,,,,,,,,,100.6,1500,100,,,,,,,,,,,,,,0.139698726
X,10,17,2023,439,92155,40.97691333,-71.33306333,180,447,2,2,1,5,3,1,3,3,C,,,,,,,,,,,,,,,,,,,,,,,,,,,,,,100.8,1500,100,,,,,,,,,,,,,,0.140097333
X,10,17,2023,440,92200,40.97458667,-71.33305833,180,450,2,2,1,5,3,1,3,3,C,,,,,,,,,,,,,,,,,,,,,,,,,,,,,,100.4,1500,100,,,,,,,,,,,,,,0.139694314
X,10,17,2023,441,92200,40.97458667,-71.33305833,180,450,2,2,1,5,3,1,3,3,C,,,,,,,,,,,,,,,,,,,,,,,,,,,,,,100.4,1500,100,,,,,,,,,,,,,,0
X,10,17,2023,442,92205,40.97225833,-71.333065,180,450,2,2,1,5,3,1,3,3,C,,,,,,,,,,,,,,,,,,,,,,,,,,,,,,100.9,1500,100,,,,,,,,,,,,,,0.139794524
X,10,17,2023,443,92210,40.96991667,-71.33309667,181,450,2,2,1,5,3,1,3,3,C,,,,,,,,,,,,,,,,,,,,,,,,,,,,,,101.3,1500,100,,,,,,,,,,,,,,0.140602066
X,10,17,2023,444,92215,40.96757333,-71.333125,181,454,2,2,1,5,3,1,3,3,C,,,,,,,,,,,,,,,,,,,,,,,,,,,,,,101,1500,100,,,,,,,,,,,,,,0.140700668
X,10,17,2023,445,92220,40.965255,-71.33315833,181,460,2,2,1,5,3,1,3,3,C,,,,,,,,,,,,,,,,,,,,,,,,,,,,,,99.6,1500,100,,,,,,,,,,,,,,0.139201996
X,10,17,2023,446,92225,40.96296333,-71.33318667,180,464,2,2,1,5,3,1,3,3,C,,,,,,,,,,,,,,,,,,,,,,,,,,,,,,98.9,1500,100,,,,,,,,,,,,,,0.137598711
X,10,17,2023,447,92230,40.96067167,-71.33321833,181,463,2,2,1,5,3,1,3,3,C,,,,,,,,,,,,,,,,,,,,,,,,,,,,,,98.5,1500,100,,,,,,,,,,,,,,0.137600205
X,10,17,2023,448,92230,40.96067167,-71.33321833,181,463,2,2,1,5,3,1,3,3,C,,,,,,,,,,,,,,,,,,,,,,,,,,,,,,98.5,1500,100,,,,,,,,,,,,,,0
X,10,17,2023,449,92235,40.95835833,-71.33323833,181,461,2,2,1,5,3,1,3,3,C,,,,,,,,,,,,,,,,,,,,,,,,,,,,,,99.9,1500,100,,,,,,,,,,,,,,0.138896551
X,10,17,2023,450,92240,40.95603,-71.33327,181,459,2,2,1,5,3,1,3,3,C,,,,,,,,,,,,,,,,,,,,,,,,,,,,,,100.7,1500,100,,,,,,,,,,,,,,0.139801571
X,10,17,2023,451,92245,40.95369667,-71.33331667,181,458,2,2,1,5,3,1,3,3,C,,,,,,,,,,,,,,,,,,,,,,,,,,,,,,100.2,1500,100,,,,,,,,,,,,,,0.14011038
X,10,17,2023,452,92250,40.95135833,-71.33337667,181,457,2,2,1,5,3,1,3,3,C,,,,,,,,,,,,,,,,,,,,,,,,,,,,,,100.9,1500,100,,,,,,,,,,,,,,0.140420963
X,10,17,2023,453,92255,40.94901167,-71.33340333,180,454,2,2,1,5,3,1,3,3,C,,,,,,,,,,,,,,,,,,,,,,,,,,,,,,101.4,1500,100,,,,,,,,,,,,,,0.140900129
X,10,17,2023,454,92300,40.94663833,-71.33339667,180,450,2,2,1,5,3,1,3,3,C,,,,,,,,,,,,,,,,,,,,,,,,,,,,,,102.5,1500,100,,,,,,,,,,,,,,0.142496339
X,10,17,2023,455,92305,40.94424,-71.33338833,180,447,2,2,1,5,3,1,3,3,C,,,,,,,,,,,,,,,,,,,,,,,,,,,,,,103.5,1500,100,,,,,,,,,,,,,,0.143997526
X,10,17,2023,456,92310,40.94183333,-71.333385,180,448,2,2,1,5,3,1,3,3,C,,,,,,,,,,,,,,,,,,,,,,,,,,,,,,103.4,1500,100,,,,,,,,,,,,,,0.144497446
X,10,17,2023,457,92315,40.93944167,-71.333385,180,451,2,2,1,5,3,1,3,3,C,,,,,,,,,,,,,,,,,,,,,,,,,,,,,,102.8,1500,100,,,,,,,,,,,,,,0.14359676
X,10,17,2023,458,92320,40.93707,-71.33337333,180,453,2,2,1,5,3,1,3,3,C,,,,,,,,,,,,,,,,,,,,,,,,,,,,,,101.8,1500,100,,,,,,,,,,,,,,0.142396934
X,10,17,2023,459,92325,40.93471,-71.33335333,180,455,2,2,1,5,3,1,3,3,C,,,,,,,,,,,,,,,,,,,,,,,,,,,,,,101.7,1500,100,,,,,,,,,,,,,,0.141698383
X,10,17,2023,460,92330,40.93234833,-71.33334667,180,458,2,2,1,5,3,1,3,3,C,,,,,,,,,,,,,,,,,,,,,,,,,,,,,,102.2,1500,100,,,,,,,,,,,,,,0.141795869
X,10,17,2023,461,92330,40.93234833,-71.33334667,180,458,2,2,1,5,3,1,3,3,C,,,,,,,,,,,,,,,,,,,,,,,,,,,,,,102.2,1500,100,,,,,,,,,,,,,,0
X,10,17,2023,462,92335,40.92998167,-71.33334667,180,460,2,2,1,5,3,1,3,3,C,,,,,,,,,,,,,,,,,,,,,,,,,,,,,,101.9,1500,100,,,,,,,,,,,,,,0.142095749
X,10,17,2023,463,92340,40.92762333,-71.33333667,180,462,2,2,1,5,3,1,3,3,C,,,,,,,,,,,,,,,,,,,,,,,,,,,,,,101.6,1500,100,,,,,,,,,,,,,,0.141596138
X,10,17,2023,464,92345,40.92526667,-71.33336667,181,465,2,2,1,5,3,1,3,3,C,,,,,,,,,,,,,,,,,,,,,,,,,,,,,,101.7,1500,100,,,,,,,,,,,,,,0.141501889
X,10,17,2023,465,92350,40.92291167,-71.333425,181,467,2,2,1,5,3,1,3,3,C,,,,,,,,,,,,,,,,,,,,,,,,,,,,,,101.8,1500,100,,,,,,,,,,,,,,0.141420038
X,10,17,2023,466,92355,40.920555,-71.333525,182,469,2,2,1,5,3,1,3,3,C,,,,,,,,,,,,,,,,,,,,,,,,,,,,,,101.7,1500,100,,,,,,,,,,,,,,0.141568054
X,10,17,2023,467,92400,40.91818167,-71.33366833,183,469,2,2,1,5,3,1,3,3,C,,,,,,,,,,,,,,,,,,,,,,,,,,,,,,103.2,1500,100,,,,,,,,,,,,,,0.14264432
S,10,17,2023,468,92400,40.91792748,-71.33368464,183,469,2,5,1,5,3,1,3,3,C,9,,,,,,,,,,,,,,,,,,,,,,,,,,,,,103.4,1500,100,,,,,,,,,,OFF TRACK,,,,0.0152793
X,10,17,2023,469,92401,40.91739557,-71.33371875,183,468,3,-,,5,,,3,3,C,,,,,,,,,,,,,,,,,,,,,,,,,,,,,,103.8,1500,100,,,,,,,,,,,,,,0.047253011
X,10,17,2023,470,92405,40.915765,-71.33382333,183,465,3,-,,5,,,3,3,C,,,,,,,,,,,,,,,,,,,,,,,,,,,,,,105,1500,100,,,,,,,,,,,,,,0.145268089
X,10,17,2023,471,92410,40.91333833,-71.33370667,175,460,3,-,,5,,,3,3,C,,,,,,,,,,,,,,,,,,,,,,,,,,,,,,104.8,1500,100,,,,,,,,,,,,,,0.145794302
X,10,17,2023,472,92415,40.91098,-71.332855,160,450,3,-,,5,,,3,3,C,,,,,,,,,,,,,,,,,,,,,,,,,,,,,,105.9,1500,100,,,,,,,,,,,,,,0.146773792
X,10,17,2023,473,92420,40.90881333,-71.33125667,148,442,3,-,,5,,,3,3,C,,,,,,,,,,,,,,,,,,,,,,,,,,,,,,107.3,1500,100,,,,,,,,,,,,,,0.148938185
X,10,17,2023,474,92425,40.90693,-71.32914667,136,435,3,-,,5,,,3,3,C,,,,,,,,,,,,,,,,,,,,,,,,,,,,,,106.2,1500,100,,,,,,,,,,,,,,0.148166032
X,10,17,2023,475,92430,40.90550667,-71.326575,123,430,3,-,,5,,,3,3,C,,,,,,,,,,,,,,,,,,,,,,,,,,,,,,102.5,1500,100,,,,,,,,,,,,,,0.144640665
X,10,17,2023,476,92435,40.90441833,-71.323805,116,430,3,-,,5,,,3,3,C,,,,,,,,,,,,,,,,,,,,,,,,,,,,,,100.8,1500,100,,,,,,,,,,,,,,0.141668133
X,10,17,2023,477,92440,40.90343333,-71.32096,115,435,3,-,,5,,,3,3,C,,,,,,,,,,,,,,,,,,,,,,,,,,,,,,101.9,1500,100,,,,,,,,,,,,,,0.142004372
X,10,17,2023,478,92445,40.90252167,-71.31811667,113,438,3,-,,5,,,3,3,C,,,,,,,,,,,,,,,,,,,,,,,,,,,,,,100.2,1500,100,,,,,,,,,,,,,,0.140159911
S,10,17,2023,479,92445,40.9024301,-71.31776511,112,439,3,-,,5,,,4,3,C,10,,,,,,,,,,,,,,,,,,,,,,,,,,,,,100,1500,100,,,,,,,,,,,,,,0.01687436
X,10,17,2023,480,92450,40.90177667,-71.31525667,107,442,3,-,,5,,,4,3,C,,,,,,,,,,,,,,,,,,,,,,,,,,,,,,98.2,1500,100,,,,,,,,,,,,,,0.137279392
X,10,17,2023,481,92455,40.90135667,-71.31237667,99,446,3,-,,5,,,4,3,C,,,,,,,,,,,,,,,,,,,,,,,,,,,,,,95,1500,100,,,,,,,,,,,,,,0.133106948
X,10,17,2023,482,92500,40.90106667,-71.30951167,98,446,3,-,,5,,,4,3,C,,,,,,,,,,,,,,,,,,,,,,,,,,,,,,94.2,1500,100,,,,,,,,,,,,,,0.131177144
X,10,17,2023,483,92500,40.90106667,-71.30951167,98,446,3,-,,5,,,4,3,C,,,,,,,,,,,,,,,,,,,,,,,,,,,,,,94.2,1500,100,,,,,,,,,,,,,,0
X,10,17,2023,484,92505,40.900805,-71.30665667,97,445,3,-,,5,,,4,3,C,,,,,,,,,,,,,,,,,,,,,,,,,,,,,,93.9,1500,100,,,,,,,,,,,,,,0.130512213
X,10,17,2023,485,92510,40.900585,-71.30378667,96,442,3,-,,5,,,4,3,C,,,,,,,,,,,,,,,,,,,,,,,,,,,,,,94.2,1500,100,,,,,,,,,,,,,,0.130912448
X,10,17,2023,486,92515,40.900425,-71.30090667,94,440,3,-,,5,,,4,3,C,,,,,,,,,,,,,,,,,,,,,,,,,,,,,,94.2,1500,100,,,,,,,,,,,,,,0.131051118
X,10,17,2023,487,92520,40.90033333,-71.29805833,92,438,3,-,,5,,,4,3,C,,,,,,,,,,,,,,,,,,,,,,,,,,,,,,93,1500,100,,,,,,,,,,,,,,0.129378834
X,10,17,2023,488,92525,40.90031333,-71.29520833,90,438,3,-,,5,,,4,3,C,,,,,,,,,,,,,,,,,,,,,,,,,,,,,,93.2,1500,100,,,,,,,,,,,,,,0.129343037
X,10,17,2023,489,92530,40.90037,-71.29236833,88,437,3,-,,5,,,4,3,C,,,,,,,,,,,,,,,,,,,,,,,,,,,,,,93.5,1500,100,,,,,,,,,,,,,,0.128928511
X,10,17,2023,490,92535,40.90042,-71.28947,89,433,3,-,,5,,,4,3,C,,,,,,,,,,,,,,,,,,,,,,,,,,,,,,95.1,1500,100,,,,,,,,,,,,,,0.131565017
X,10,17,2023,491,92540,40.90047,-71.28653333,89,429,3,-,,5,,,4,3,C,,,,,,,,,,,,,,,,,,,,,,,,,,,,,,96.2,1500,100,,,,,,,,,,,,,,0.133304094
X,10,17,2023,492,92545,40.90055167,-71.28357833,88,428,3,-,,5,,,4,3,C,,,,,,,,,,,,,,,,,,,,,,,,,,,,,,96.7,1500,100,,,,,,,,,,,,,,0.13419176
X,10,17,2023,493,92550,40.90064667,-71.28063333,87,428,3,-,,5,,,4,3,C,,,,,,,,,,,,,,,,,,,,,,,,,,,,,,96.1,1500,100,,,,,,,,,,,,,,0.133769814
X,10,17,2023,494,92555,40.90074,-71.27768833,88,426,3,-,,5,,,4,3,C,,,,,,,,,,,,,,,,,,,,,,,,,,,,,,96.8,1500,100,,,,,,,,,,,,,,0.133765394
X,10,17,2023,495,92600,40.90076167,-71.27472,90,423,3,-,,5,,,4,3,C,,,,,,,,,,,,,,,,,,,,,,,,,,,,,,97.7,1500,100,,,,,,,,,,,,,,0.134713026
X,10,17,2023,496,92600,40.90076167,-71.27472,90,423,3,-,,5,,,4,3,C,,,,,,,,,,,,,,,,,,,,,,,,,,,,,,97.7,1500,100,,,,,,,,,,,,,,0
X,10,17,2023,497,92605,40.900705,-71.27172,91,422,3,-,,5,,,4,3,C,,,,,,,,,,,,,,,,,,,,,,,,,,,,,,98.7,1500,100,,,,,,,,,,,,,,0.13618636
X,10,17,2023,498,92610,40.900665,-71.26870333,91,421,3,-,,5,,,4,3,C,,,,,,,,,,,,,,,,,,,,,,,,,,,,,,98.7,1500,100,,,,,,,,,,,,,,0.136921373
X,10,17,2023,499,92615,40.90063,-71.26568333,91,421,3,-,,5,,,4,3,C,,,,,,,,,,,,,,,,,,,,,,,,,,,,,,98.7,1500,100,,,,,,,,,,,,,,0.137067767
X,10,17,2023,500,92620,40.90058,-71.26264833,91,422,3,-,,5,,,4,3,C,,,,,,,,,,,,,,,,,,,,,,,,,,,,,,99.5,1500,100,,,,,,,,,,,,,,0.137765179
X,10,17,2023,501,92625,40.900525,-71.25960833,91,421,3,-,,5,,,4,3,C,,,,,,,,,,,,,,,,,,,,,,,,,,,,,,99.9,1500,100,,,,,,,,,,,,,,0.137998998
X,10,17,2023,502,92630,40.900465,-71.25658667,92,420,3,-,,5,,,4,3,C,,,,,,,,,,,,,,,,,,,,,,,,,,,,,,98.5,1500,100,,,,,,,,,,,,,,0.13717492
X,10,17,2023,503,92630,40.900465,-71.25658667,92,420,3,-,,5,,,4,3,C,,,,,,,,,,,,,,,,,,,,,,,,,,,,,,98.5,1500,100,,,,,,,,,,,,,,0
X,10,17,2023,504,92635,40.90037,-71.25356167,92,420,3,-,,5,,,4,3,C,,,,,,,,,,,,,,,,,,,,,,,,,,,,,,99.1,1500,100,,,,,,,,,,,,,,0.137397486
X,10,17,2023,505,92640,40.90031667,-71.25054333,91,422,3,-,,5,,,4,3,C,,,,,,,,,,,,,,,,,,,,,,,,,,,,,,98.9,1500,100,,,,,,,,,,,,,,0.137014076
X,10,17,2023,506,92645,40.90029667,-71.24753833,91,428,3,-,,5,,,4,3,C,,,,,,,,,,,,,,,,,,,,,,,,,,,,,,98.2,1500,100,,,,,,,,,,,,,,0.136376927
X,10,17,2023,507,92650,40.90029667,-71.244535,90,429,3,-,,5,,,4,3,C,,,,,,,,,,,,,,,,,,,,,,,,,,,,,,98.4,1500,100,,,,,,,,,,,,,,0.136296025
X,10,17,2023,508,92655,40.90034833,-71.241505,89,426,3,-,,5,,,4,3,C,,,,,,,,,,,,,,,,,,,,,,,,,,,,,,99.7,1500,100,,,,,,,,,,,,,,0.137541133
X,10,17,2023,509,92700,40.90043333,-71.23845167,87,419,3,-,,5,,,4,3,C,,,,,,,,,,,,,,,,,,,,,,,,,,,,,,100.3,1500,100,,,,,,,,,,,,,,0.138658856
X,10,17,2023,510,92700,40.90043333,-71.23845167,87,419,3,-,,5,,,4,3,C,,,,,,,,,,,,,,,,,,,,,,,,,,,,,,100.3,1500,100,,,,,,,,,,,,,,0
X,10,17,2023,511,92705,40.90046667,-71.23535,89,412,3,-,,5,,,4,3,C,,,,,,,,,,,,,,,,,,,,,,,,,,,,,,102.1,1500,100,,,,,,,,,,,,,,0.140772448
X,10,17,2023,512,92710,40.90049,-71.23222833,89,409,3,-,,5,,,4,3,C,,,,,,,,,,,,,,,,,,,,,,,,,,,,,,102,1500,100,,,,,,,,,,,,,,0.141672717
X,10,17,2023,513,92715,40.90049,-71.22907333,90,409,3,-,,5,,,4,3,C,,,,,,,,,,,,,,,,,,,,,,,,,,,,,,102.8,1500,100,,,,,,,,,,,,,,0.14317848
X,10,17,2023,514,92720,40.90046333,-71.22593167,91,410,3,-,,5,,,4,3,C,,,,,,,,,,,,,,,,,,,,,,,,,,,,,,102.6,1500,100,,,,,,,,,,,,,,0.142582412
X,10,17,2023,515,92725,40.90039667,-71.22279167,92,413,3,-,,5,,,4,3,C,,,,,,,,,,,,,,,,,,,,,,,,,,,,,,103.2,1500,100,,,,,,,,,,,,,,0.142554093
X,10,17,2023,516,92730,40.90037167,-71.219675,90,413,3,-,,5,,,4,3,C,,,,,,,,,,,,,,,,,,,,,,,,,,,,,,102.1,1500,100,,,,,,,,,,,,,,0.141447048
X,10,17,2023,517,92735,40.90044667,-71.21655833,88,413,3,-,,5,,,4,3,C,,,,,,,,,,,,,,,,,,,,,,,,,,,,,,101.8,1500,100,,,,,,,,,,,,,,0.141510695
X,10,17,2023,518,92740,40.90056,-71.21346,86,413,3,-,,5,,,4,3,C,,,,,,,,,,,,,,,,,,,,,,,,,,,,,,101.6,1500,100,,,,,,,,,,,,,,0.140771392
X,10,17,2023,519,92745,40.901005,-71.21046833,75,415,3,-,,5,,,4,3,C,,,,,,,,,,,,,,,,,,,,,,,,,,,,,,100.1,1500,100,,,,,,,,,,,,,,0.138369589
X,10,17,2023,520,92750,40.90185167,-71.207685,65,417,3,-,,5,,,4,3,C,,,,,,,,,,,,,,,,,,,,,,,,,,,,,,97.6,1500,100,,,,,,,,,,,,,,0.136155485
X,10,17,2023,521,92755,40.90306667,-71.20522167,55,411,3,-,,5,,,4,3,C,,,,,,,,,,,,,,,,,,,,,,,,,,,,,,96.2,1500,100,,,,,,,,,,,,,,0.13348318
X,10,17,2023,522,92800,40.904595,-71.2031,43,406,3,-,,5,,,4,3,C,,,,,,,,,,,,,,,,,,,,,,,,,,,,,,95.6,1500,100,,,,,,,,,,,,,,0.133003633
X,10,17,2023,523,92800,40.904595,-71.2031,43,406,3,-,,5,,,4,3,C,,,,,,,,,,,,,,,,,,,,,,,,,,,,,,95.6,1500,100,,,,,,,,,,,,,,0
X,10,17,2023,524,92805,40.90641667,-71.201455,32,404,3,-,,5,,,4,3,C,,,,,,,,,,,,,,,,,,,,,,,,,,,,,,94.8,1500,100,,,,,,,,,,,,,,0.132418861
X,10,17,2023,525,92810,40.90844,-71.200305,20,401,3,-,,5,,,4,3,C,,,,,,,,,,,,,,,,,,,,,,,,,,,,,,94.6,1500,100,,,,,,,,,,,,,,0.132215459
X,10,17,2023,526,92815,40.91062167,-71.19987333,6,392,3,-,,5,,,4,3,C,,,,,,,,,,,,,,,,,,,,,,,,,,,,,,95.9,1500,100,,,,,,,,,,,,,,0.132444612
X,10,17,2023,527,92820,40.91290333,-71.19991833,358,386,3,-,,5,,,4,3,C,,,,,,,,,,,,,,,,,,,,,,,,,,,,,,98.4,1500,100,,,,,,,,,,,,,,0.137007525
X,10,17,2023,528,92825,40.91522167,-71.19997,360,384,3,-,,5,,,4,3,C,,,,,,,,,,,,,,,,,,,,,,,,,,,,,,100.5,1500,100,,,,,,,,,,,,,,0.139213532
S,10,17,2023,529,92828,40.91683617,-71.1999665,360,391,2,1,9,5,1,2,4,3,C,11,,,,,,,,,,,,,,,,,,,,,,,,,,,,,99.8,1500,100,,,,,,,,,,ON TRACK,,,,0.096935582
X,10,17,2023,530,92830,40.91753,-71.199965,360,394,2,2,9,5,1,2,4,3,C,,,,,,,,,,,,,,,,,,,,,,,,,,,,,,99.5,1500,100,,,,,,,,,,,,,,0.138593574
X,10,17,2023,531,92830,40.91753,-71.199965,360,394,2,2,9,5,1,2,4,3,C,,,,,,,,,,,,,,,,,,,,,,,,,,,,,,99.5,1500,100,,,,,,,,,,,,,,0
X,10,17,2023,532,92835,40.91982167,-71.19998,360,398,2,2,9,5,1,2,4,3,C,,,,,,,,,,,,,,,,,,,,,,,,,,,,,,98.7,1500,100,,,,,,,,,,,,,,0.137594397
X,10,17,2023,533,92835,40.92001552,-71.19998057,360,398,2,2,9,5,1,2,4,3,C,,,,,,,,,,,,,,,,,,,,,,,,,,,,,,98.6,1500,100,,,,,,,,,,,,,,0.011639351
X,10,17,2023,534,92840,40.922095,-71.19998667,0,402,2,2,9,5,1,2,4,3,C,,,,,,,,,,,,,,,,,,,,,,,,,,,,,,97.7,1500,100,,,,,,,,,,,,,,0.136492308
X,10,17,2023,535,92845,40.92433,-71.20000833,360,408,2,2,9,5,1,2,4,3,C,,,,,,,,,,,,,,,,,,,,,,,,,,,,,,96.3,1500,100,,,,,,,,,,,,,,0.134194022
X,10,17,2023,536,92850,40.92656,-71.20007167,359,406,2,2,9,5,1,2,4,3,C,,,,,,,,,,,,,,,,,,,,,,,,,,,,,,96.7,1500,100,,,,,,,,,,,,,,0.133921042
X,10,17,2023,537,92855,40.92882833,-71.20010667,360,404,2,2,9,5,1,2,4,3,C,,,,,,,,,,,,,,,,,,,,,,,,,,,,,,99.7,1500,100,,,,,,,,,,,,,,0.136201025
X,10,17,2023,538,92900,40.93111667,-71.20013833,359,410,2,2,9,5,1,2,4,3,C,,,,,,,,,,,,,,,,,,,,,,,,,,,,,,98.9,1500,100,,,,,,,,,,,,,,0.137400088
X,10,17,2023,539,92905,40.93340833,-71.20015667,360,414,2,2,9,5,1,2,4,3,C,,,,,,,,,,,,,,,,,,,,,,,,,,,,,,99.4,1500,100,,,,,,,,,,,,,,0.137595227
X,10,17,2023,540,92910,40.93574833,-71.20015833,0,408,2,2,9,5,1,2,4,3,C,,,,,,,,,,,,,,,,,,,,,,,,,,,,,,101.7,1500,100,,,,,,,,,,,,,,0.14049469
X,10,17,2023,541,92915,40.93814,-71.20011333,1,402,2,2,9,5,1,2,4,3,C,,,,,,,,,,,,,,,,,,,,,,,,,,,,,,103.7,1500,100,,,,,,,,,,,,,,0.143611265
X,10,17,2023,542,92920,40.94056833,-71.20006333,1,399,2,2,9,5,1,2,4,3,C,,,,,,,,,,,,,,,,,,,,,,,,,,,,,,105.2,1500,100,,,,,,,,,,,,,,0.145815879
X,10,17,2023,543,92925,40.94300333,-71.20004,1,399,2,2,9,5,1,2,4,3,C,,,,,,,,,,,,,,,,,,,,,,,,,,,,,,105,1500,100,,,,,,,,,,,,,,0.146202343
X,10,17,2023,544,92930,40.94543167,-71.20000167,0,400,2,2,9,5,1,2,4,3,C,,,,,,,,,,,,,,,,,,,,,,,,,,,,,,104.6,1500,100,,,,,,,,,,,,,,0.145808608
X,10,17,2023,545,92930,40.94543167,-71.20000167,0,400,2,2,9,5,1,2,4,3,C,,,,,,,,,,,,,,,,,,,,,,,,,,,,,,104.6,1500,100,,,,,,,,,,,,,,0
X,10,17,2023,546,92935,40.94783667,-71.20000667,360,400,2,2,9,5,1,2,4,3,C,,,,,,,,,,,,,,,,,,,,,,,,,,,,,,103.8,1500,100,,,,,,,,,,,,,,0.144397478
X,10,17,2023,547,92940,40.95021167,-71.20000667,1,399,2,2,9,5,1,2,4,3,C,,,,,,,,,,,,,,,,,,,,,,,,,,,,,,102.6,1500,100,,,,,,,,,,,,,,0.142596086
X,10,17,2023,548,92945,40.95257833,-71.19997167,1,396,2,2,9,5,1,2,4,3,C,,,,,,,,,,,,,,,,,,,,,,,,,,,,,,102.8,1500,100,,,,,,,,,,,,,,0.142104612
X,10,17,2023,549,92950,40.95493333,-71.19993333,1,399,2,2,9,5,1,2,4,3,C,,,,,,,,,,,,,,,,,,,,,,,,,,,,,,100.9,1500,100,,,,,,,,,,,,,,0.141405961
X,10,17,2023,550,92955,40.957245,-71.19990333,0,404,2,2,9,5,1,2,4,3,C,,,,,,,,,,,,,,,,,,,,,,,,,,,,,,98.9,1500,100,,,,,,,,,,,,,,0.138800189
X,10,17,2023,551,93000,40.95951833,-71.19988667,0,406,2,2,9,5,1,2,4,3,C,,,,,,,,,,,,,,,,,,,,,,,,,,,,,,97.6,1500,100,,,,,,,,,,,,,,0.136494065
X,10,17,2023,552,93005,40.96177667,-71.19989167,360,406,2,2,9,5,1,2,4,3,C,,,,,,,,,,,,,,,,,,,,,,,,,,,,,,97.1,1500,100,,,,,,,,,,,,,,0.135591555
X,10,17,2023,553,93010,40.96402833,-71.19989333,360,405,2,2,9,5,1,2,4,3,C,,,,,,,,,,,,,,,,,,,,,,,,,,,,,,97.2,1500,100,,,,,,,,,,,,,,0.135191117
X,10,17,2023,554,93015,40.96629833,-71.19990167,360,400,2,2,9,5,1,2,4,3,C,,,,,,,,,,,,,,,,,,,,,,,,,,,,,,98.7,1500,100,,,,,,,,,,,,,,0.136292361
X,10,17,2023,555,93020,40.96859167,-71.19989167,0,397,2,2,9,5,1,2,4,3,C,,,,,,,,,,,,,,,,,,,,,,,,,,,,,,99.7,1500,100,,,,,,,,,,,,,,0.137693528
X,10,17,2023,556,93025,40.97091333,-71.19986667,0,394,2,2,9,5,1,2,4,3,C,,,,,,,,,,,,,,,,,,,,,,,,,,,,,,100.3,1500,100,,,,,,,,,,,,,,0.139398535
X,10,17,2023,557,93030,40.97324833,-71.199845,0,390,2,2,9,5,1,2,4,3,C,,,,,,,,,,,,,,,,,,,,,,,,,,,,,,101.4,1500,100,,,,,,,,,,,,,,0.140197908
X,10,17,2023,558,93035,40.97557,-71.1998,0,393,2,2,9,5,1,2,4,3,C,,,,,,,,,,,,,,,,,,,,,,,,,,,,,,100.3,1500,100,,,,,,,,,,,,,,0.139408853
X,10,17,2023,559,93040,40.97783833,-71.19976333,1,398,2,2,9,5,1,2,4,3,C,,,,,,,,,,,,,,,,,,,,,,,,,,,,,,97.9,1500,100,,,,,,,,,,,,,,0.136201912
X,10,17,2023,560,93045,40.98009167,-71.19977167,360,401,2,2,9,5,1,2,4,3,C,,,,,,,,,,,,,,,,,,,,,,,,,,,,,,97.2,1500,100,,,,,,,,,,,,,,0.135291691
X,10,17,2023,561,93050,40.98236167,-71.19982333,359,397,2,2,9,5,1,2,4,3,C,,,,,,,,,,,,,,,,,,,,,,,,,,,,,,98.3,1500,100,,,,,,,,,,,,,,0.136311956
X,10,17,2023,562,93055,40.98463833,-71.19989,359,395,2,2,9,5,1,2,4,3,C,,,,,,,,,,,,,,,,,,,,,,,,,,,,,,98.5,1500,100,,,,,,,,,,,,,,0.136725501
X,10,17,2023,563,93100,40.986895,-71.199885,0,396,2,2,9,5,1,2,4,3,C,,,,,,,,,,,,,,,,,,,,,,,,,,,,,,97.4,1500,100,,,,,,,,,,,,,,0.135491488
X,10,17,2023,564,93100,40.986895,-71.199885,0,396,2,2,9,5,1,2,4,3,C,,,,,,,,,,,,,,,,,,,,,,,,,,,,,,97.4,1500,100,,,,,,,,,,,,,,0
X,10,17,2023,565,93105,40.98916,-71.19985333,0,395,2,2,9,5,1,2,4,3,C,,,,,,,,,,,,,,,,,,,,,,,,,,,,,,97.9,1500,100,,,,,,,,,,,,,,0.135999208
X,10,17,2023,566,93110,40.991435,-71.19983833,0,394,2,2,9,5,1,2,4,3,C,,,,,,,,,,,,,,,,,,,,,,,,,,,,,,98.8,1500,100,,,,,,,,,,,,,,0.136593732
X,10,17,2023,567,93115,40.99370667,-71.19978,1,397,2,2,9,5,1,2,4,3,C,,,,,,,,,,,,,,,,,,,,,,,,,,,,,,97.6,1500,100,,,,,,,,,,,,,,0.136417522
S,10,17,2023,568,93118,40.99527044,-71.19974065,1,401,2,2,9,5,1,2,4,3,C,12,,,FV-C,1,,,1,9,0,,,,,,,,,,,,,,,,,,,,97.6,1500,100,,,,,,,,,,,,,,0.093906357
X,10,17,2023,569,93120,40.99595833,-71.19972333,1,402,2,2,9,5,1,2,4,3,C,,,,,,,,,,,,,,,,,,,,,,,,,,,,,,97.6,1500,100,,,,,,,,,,,,,,0.135215483
X,10,17,2023,570,93125,40.99822167,-71.199735,359,404,2,2,9,5,1,2,4,3,C,,,,,,,,,,,,,,,,,,,,,,,,,,,,,,97.8,1500,100,,,,,,,,,,,,,,0.135892596
X,10,17,2023,571,93130,41.00050667,-71.19977667,359,406,2,2,9,5,1,2,4,3,C,,,,,,,,,,,,,,,,,,,,,,,,,,,,,,99,1500,100,,,,,,,,,,,,,,0.137205436
X,10,17,2023,572,93135,41.00279333,-71.19983167,359,406,2,2,9,5,1,2,4,3,C,,,,,,,,,,,,,,,,,,,,,,,,,,,,,,99.4,1500,100,,,,,,,,,,,,,,0.137315129
X,10,17,2023,573,93140,41.00511167,-71.19986667,360,402,2,2,9,5,1,2,4,3,C,,,,,,,,,,,,,,,,,,,,,,,,,,,,,,100.7,1500,100,,,,,,,,,,,,,,0.139202827
X,10,17,2023,574,93145,41.00745333,-71.19983,1,401,2,2,9,5,1,2,4,3,C,,,,,,,,,,,,,,,,,,,,,,,,,,,,,,101.1,1500,100,,,,,,,,,,,,,,0.140604552
X,10,17,2023,575,93150,41.00980667,-71.19981333,360,401,2,2,9,5,1,2,4,3,C,,,,,,,,,,,,,,,,,,,,,,,,,,,,,,101.3,1500,100,,,,,,,,,,,,,,0.141297227
X,10,17,2023,576,93155,41.012165,-71.19983167,360,395,2,2,9,5,1,2,4,3,C,,,,,,,,,,,,,,,,,,,,,,,,,,,,,,102.2,1500,100,,,,,,,,,,,,,,0.141597848
P,10,17,2023,577,93155,41.01257964,-71.19983976,360,394,2,2,9,5,1,2,4,3,C,13,55,,SADO,25,,,1,3,3,,,,,,,,,,,,,,,,,,,,102.4,1500,100,,,,,,,,,,,,,,0.024898096
X,10,17,2023,578,93200,41.01455667,-71.19987833,359,388,2,2,9,5,1,2,4,3,C,,,,,,,,,,,,,,,,,,,,,,,,,,,,,,103.7,1500,100,,,,,,,,,,,,,,0.143612323
X,10,17,2023,579,93200,41.01455667,-71.19987833,359,388,2,2,9,5,1,2,4,3,C,,,,,,,,,,,,,,,,,,,,,,,,,,,,,,103.7,1500,100,,,,,,,,,,,,,,0
X,10,17,2023,580,93205,41.016965,-71.19988833,360,387,2,2,9,5,1,2,4,3,C,,,,,,,,,,,,,,,,,,,,,,,,,,,,,,104.1,1500,100,,,,,,,,,,,,,,0.144598144
X,10,17,2023,581,93210,41.01937,-71.19988833,360,392,2,2,9,5,1,2,4,3,C,,,,,,,,,,,,,,,,,,,,,,,,,,,,,,103.4,1500,100,,,,,,,,,,,,,,0.144397299
X,10,17,2023,582,93215,41.02172333,-71.19986667,1,399,2,2,9,5,1,2,4,3,C,,,,,,,,,,,,,,,,,,,,,,,,,,,,,,101.2,1500,100,,,,,,,,,,,,,,0.141298618
X,10,17,2023,583,93220,41.02404167,-71.19986,360,403,2,2,9,5,1,2,4,3,C,,,,,,,,,,,,,,,,,,,,,,,,,,,,,,99.5,1500,100,,,,,,,,,,,,,,0.139194121
X,10,17,2023,584,93225,41.026355,-71.19989667,359,404,2,2,9,5,1,2,4,3,C,,,,,,,,,,,,,,,,,,,,,,,,,,,,,,100.2,1500,100,,,,,,,,,,,,,,0.138903521
X,10,17,2023,585,93230,41.028675,-71.19997333,359,403,2,2,9,5,1,2,4,3,C,,,,,,,,,,,,,,,,,,,,,,,,,,,,,,100.1,1500,100,,,,,,,,,,,,,,0.139337139
X,10,17,2023,586,93230,41.028675,-71.19997333,359,403,2,2,9,5,1,2,4,3,C,,,,,,,,,,,,,,,,,,,,,,,,,,,,,,100.1,1500,100,,,,,,,,,,,,,,0
X,10,17,2023,587,93235,41.03101167,-71.200025,360,400,2,2,9,5,1,2,4,3,C,,,,,,,,,,,,,,,,,,,,,,,,,,,,,,101.6,1500,100,,,,,,,,,,,,,,0.14031405
X,10,17,2023,588,93240,41.03336833,-71.20003,360,399,2,2,9,5,1,2,4,3,C,,,,,,,,,,,,,,,,,,,,,,,,,,,,,,102,1500,100,,,,,,,,,,,,,,0.141495525
X,10,17,2023,589,93245,41.03573833,-71.200015,0,400,2,2,9,5,1,2,4,3,C,,,,,,,,,,,,,,,,,,,,,,,,,,,,,,102.2,1500,100,,,,,,,,,,,,,,0.142297505
X,10,17,2023,590,93250,41.03811667,-71.20001333,0,399,2,2,9,5,1,2,4,3,C,,,,,,,,,,,,,,,,,,,,,,,,,,,,,,102.6,1500,100,,,,,,,,,,,,,,0.142796241
X,10,17,2023,591,93255,41.040505,-71.20001167,0,398,2,2,9,5,1,2,4,3,C,,,,,,,,,,,,,,,,,,,,,,,,,,,,,,103.6,1500,100,,,,,,,,,,,,,,0.143396645
X,10,17,2023,592,93300,41.04288833,-71.19999667,0,397,2,2,9,5,1,2,4,3,C,,,,,,,,,,,,,,,,,,,,,,,,,,,,,,102.5,1500,100,,,,,,,,,,,,,,0.143098035
X,10,17,2023,593,93305,41.04525167,-71.19996167,0,403,2,2,9,5,1,2,4,3,C,,,,,,,,,,,,,,,,,,,,,,,,,,,,,,101.1,1500,100,,,,,,,,,,,,,,0.141904465
X,10,17,2023,594,93310,41.04751833,-71.19991833,1,419,2,2,9,5,1,2,4,3,C,,,,,,,,,,,,,,,,,,,,,,,,,,,,,,97.4,1500,100,,,,,,,,,,,,,,0.136105848
X,10,17,2023,595,93315,41.04969833,-71.19987333,1,426,2,2,9,5,1,2,4,3,C,,,,,,,,,,,,,,,,,,,,,,,,,,,,,,94.4,1500,100,,,,,,,,,,,,,,0.130904056
X,10,17,2023,596,93320,41.051885,-71.19987833,359,433,2,2,9,5,1,2,4,3,C,,,,,,,,,,,,,,,,,,,,,,,,,,,,,,94.4,1500,100,,,,,,,,,,,,,,0.131288662
X,10,17,2023,597,93325,41.054085,-71.19991833,359,441,2,2,9,5,1,2,4,3,C,,,,,,,,,,,,,,,,,,,,,,,,,,,,,,95.2,1500,100,,,,,,,,,,,,,,0.132101421
X,10,17,2023,598,93330,41.05630333,-71.19995833,359,448,2,2,9,5,1,2,4,3,C,,,,,,,,,,,,,,,,,,,,,,,,,,,,,,95.6,1500,100,,,,,,,,,,,,,,0.133202059
X,10,17,2023,599,93335,41.05854,-71.200015,359,454,2,2,9,5,1,2,4,3,C,,,,,,,,,,,,,,,,,,,,,,,,,,,,,,97.1,1500,100,,,,,,,,,,,,,,0.134314993
S,10,17,2023,600,93338,41.06004214,-71.20007393,359,458,2,2,9,5,1,2,4,3,C,14,,,CV-C,3,,,1,9,0,,,,,,,,,,,,,,,,,,,,97.8,1500,100,,,,,,,,,,,,,,0.090228878
X,10,17,2023,601,93340,41.06079167,-71.20010333,359,460,2,2,9,5,1,2,4,3,C,,,,,,,,,,,,,,,,,,,,,,,,,,,,,,98.2,1500,100,,,,,,,,,,,,,,0.13525023
X,10,17,2023,602,93345,41.06306167,-71.20008667,1,464,2,2,9,5,1,2,4,3,C,,,,,,,,,,,,,,,,,,,,,,,,,,,,,,98.6,1500,100,,,,,,,,,,,,,,0.136293926
X,10,17,2023,603,93350,41.065345,-71.19999667,2,464,2,2,9,5,1,2,4,3,C,,,,,,,,,,,,,,,,,,,,,,,,,,,,,,100,1500,100,,,,,,,,,,,,,,0.137152904
S,10,17,2023,604,93353,41.06711182,-71.19988362,2,465,2,2,9,5,1,2,4,3,C,15,,,CV-C,1,,22,1,9,0,,,,,,,,,,,,,,,,,,,,101,1500,100,,,,,,,,,,,,,,0.106203906
X,10,17,2023,605,93355,41.06766333,-71.19984833,2,466,2,2,9,5,1,2,4,3,C,,,,,,,,,,,,,,,,,,,,,,,,,,,,,,101.3,1500,100,,,,,,,,,,,,,,0.139355655
X,10,17,2023,606,93400,41.07001,-71.19977167,1,473,2,2,9,5,1,2,4,3,C,,,,,,,,,,,,,,,,,,,,,,,,,,,,,,102.3,1500,100,,,,,,,,,,,,,,0.140937672
X,10,17,2023,607,93400,41.07001,-71.19977167,1,473,2,2,9,5,1,2,4,3,C,,,,,,,,,,,,,,,,,,,,,,,,,,,,,,102.3,1500,100,,,,,,,,,,,,,,0
X,10,17,2023,608,93405,41.07236333,-71.199785,359,478,2,2,9,5,1,2,4,3,C,,,,,,,,,,,,,,,,,,,,,,,,,,,,,,101.7,1500,100,,,,,,,,,,,,,,0.141296498
X,10,17,2023,609,93410,41.07474833,-71.19982833,359,481,2,2,9,5,1,2,4,3,C,,,,,,,,,,,,,,,,,,,,,,,,,,,,,,103.4,1500,100,,,,,,,,,,,,,,0.143209922
X,10,17,2023,610,93415,41.07714167,-71.19989167,359,480,2,2,9,5,1,2,4,3,C,,,,,,,,,,,,,,,,,,,,,,,,,,,,,,104.3,1500,100,,,,,,,,,,,,,,0.143725416
X,10,17,2023,611,93420,41.07955833,-71.199965,359,479,2,2,9,5,1,2,4,3,C,,,,,,,,,,,,,,,,,,,,,,,,,,,,,,105,1500,100,,,,,,,,,,,,,,0.145135727
X,10,17,2023,612,93425,41.08199833,-71.200045,358,476,2,2,9,5,1,2,4,3,C,,,,,,,,,,,,,,,,,,,,,,,,,,,,,,106.8,1500,100,,,,,,,,,,,,,,0.146543449
X,10,17,2023,613,93430,41.08447167,-71.20007167,360,476,2,2,9,5,1,2,4,3,C,,,,,,,,,,,,,,,,,,,,,,,,,,,,,,106.4,1500,100,,,,,,,,,,,,,,0.148504968
X,10,17,2023,614,93435,41.08693833,-71.20006667,0,475,2,2,9,5,1,2,4,3,C,,,,,,,,,,,,,,,,,,,,,,,,,,,,,,106.3,1500,100,,,,,,,,,,,,,,0.148099967
X,10,17,2023,615,93440,41.08942333,-71.20007,360,468,2,2,9,5,1,2,4,3,C,,,,,,,,,,,,,,,,,,,,,,,,,,,,,,108.2,1500,100,,,,,,,,,,,,,,0.149200612
X,10,17,2023,616,93445,41.09194167,-71.2001,360,462,2,2,9,5,1,2,4,3,C,,,,,,,,,,,,,,,,,,,,,,,,,,,,,,109.6,1500,100,,,,,,,,,,,,,,0.151207979
X,10,17,2023,617,93450,41.094455,-71.200125,359,459,2,2,9,5,1,2,4,3,C,,,,,,,,,,,,,,,,,,,,,,,,,,,,,,108.1,1500,100,,,,,,,,,,,,,,0.150905922
X,10,17,2023,618,93455,41.09695667,-71.20013833,360,454,2,2,9,5,1,2,4,3,C,,,,,,,,,,,,,,,,,,,,,,,,,,,,,,108.2,1500,100,,,,,,,,,,,,,,0.150202422
X,10,17,2023,619,93500,41.09944,-71.20013833,360,447,2,2,9,5,1,2,4,3,C,,,,,,,,,,,,,,,,,,,,,,,,,,,,,,107,1500,100,,,,,,,,,,,,,,0.149100469
X,10,17,2023,620,93500,41.09944,-71.20013833,360,447,2,2,9,5,1,2,4,3,C,,,,,,,,,,,,,,,,,,,,,,,,,,,,,,107,1500,100,,,,,,,,,,,,,,0
P,10,17,2023,621,93504,41.10172736,-71.20013679,360,448,2,2,9,5,1,2,4,3,C,16,,,FV-T,1,,,1,9,0,,,,,,,,,,,,,,,,,,,,106.7,1500,100,,,,,,,,,,,,,,0.137334265
X,10,17,2023,622,93505,41.10191333,-71.20013667,360,448,2,2,9,5,1,2,4,3,C,,,,,,,,,,,,,,,,,,,,,,,,,,,,,,106.7,1500,100,,,,,,,,,,,,,,0.148500083
X,10,17,2023,623,93510,41.10434167,-71.20012167,0,453,2,2,9,5,1,2,4,3,C,,,,,,,,,,,,,,,,,,,,,,,,,,,,,,104.4,1500,100,,,,,,,,,,,,,,0.145799823
X,10,17,2023,624,93515,41.10671167,-71.20012167,360,458,2,2,9,5,1,2,4,3,C,,,,,,,,,,,,,,,,,,,,,,,,,,,,,,101.3,1500,100,,,,,,,,,,,,,,0.142295883
X,10,17,2023,625,93520,41.10905167,-71.200135,360,459,2,2,9,5,1,2,4,3,C,,,,,,,,,,,,,,,,,,,,,,,,,,,,,,101.1,1500,100,,,,,,,,,,,,,,0.140495965
X,10,17,2023,626,93525,41.111385,-71.200125,0,456,2,2,9,5,1,2,4,3,C,,,,,,,,,,,,,,,,,,,,,,,,,,,,,,101,1500,100,,,,,,,,,,,,,,0.14009513
X,10,17,2023,627,93530,41.11373167,-71.20010667,0,452,2,2,9,5,1,2,4,3,C,,,,,,,,,,,,,,,,,,,,,,,,,,,,,,101.7,1500,100,,,,,,,,,,,,,,0.14089738
X,10,17,2023,628,93530,41.11373167,-71.20010667,0,452,2,2,9,5,1,2,4,3,C,,,,,,,,,,,,,,,,,,,,,,,,,,,,,,101.7,1500,100,,,,,,,,,,,,,,0
X,10,17,2023,629,93535,41.11608333,-71.20009,0,448,2,2,9,5,1,2,4,3,C,,,,,,,,,,,,,,,,,,,,,,,,,,,,,,101.7,1500,100,,,,,,,,,,,,,,0.141197154
X,10,17,2023,630,93540,41.11844167,-71.200065,0,450,2,2,9,5,1,2,4,3,C,,,,,,,,,,,,,,,,,,,,,,,,,,,,,,101.9,1500,100,,,,,,,,,,,,,,0.141599927
X,10,17,2023,631,93545,41.12079,-71.200045,0,452,2,2,9,5,1,2,4,3,C,,,,,,,,,,,,,,,,,,,,,,,,,,,,,,101.1,1500,100,,,,,,,,,,,,,,0.140997909
X,10,17,2023,632,93550,41.12312,-71.20001333,1,454,2,2,9,5,1,2,4,3,C,,,,,,,,,,,,,,,,,,,,,,,,,,,,,,100.2,1500,100,,,,,,,,,,,,,,0.139901597
X,10,17,2023,633,93555,41.12544,-71.19999,0,452,2,2,9,5,1,2,4,3,C,,,,,,,,,,,,,,,,,,,,,,,,,,,,,,100.6,1500,100,,,,,,,,,,,,,,0.139297858
X,10,17,2023,634,93600,41.12777167,-71.19997833,0,452,2,2,9,5,1,2,4,3,C,,,,,,,,,,,,,,,,,,,,,,,,,,,,,,100.5,1500,100,,,,,,,,,,,,,,0.139995327
X,10,17,2023,635,93600,41.12777167,-71.19997833,0,452,2,2,9,5,1,2,4,3,C,,,,,,,,,,,,,,,,,,,,,,,,,,,,,,100.5,1500,100,,,,,,,,,,,,,,0
X,10,17,2023,636,93605,41.13008833,-71.19995167,1,452,2,2,9,5,1,2,4,3,C,,,,,,,,,,,,,,,,,,,,,,,,,,,,,,99.8,1500,100,,,,,,,,,,,,,,0.139098954
X,10,17,2023,637,93610,41.13239,-71.19992167,0,451,2,2,9,5,1,2,4,3,C,,,,,,,,,,,,,,,,,,,,,,,,,,,,,,99.1,1500,100,,,,,,,,,,,,,,0.138199778
X,10,17,2023,638,93615,41.13469333,-71.19988,1,453,2,2,9,5,1,2,4,3,C,,,,,,,,,,,,,,,,,,,,,,,,,,,,,,99.9,1500,100,,,,,,,,,,,,,,0.138306022
X,10,17,2023,639,93620,41.136995,-71.19983333,1,453,2,2,9,5,1,2,4,3,C,,,,,,,,,,,,,,,,,,,,,,,,,,,,,,99.7,1500,100,,,,,,,,,,,,,,0.13820923
X,10,17,2023,640,93625,41.139315,-71.199815,0,449,2,2,9,5,1,2,4,3,C,,,,,,,,,,,,,,,,,,,,,,,,,,,,,,100.3,1500,100,,,,,,,,,,,,,,0.139296327
X,10,17,2023,641,93630,41.14165,-71.19982,360,447,2,2,9,5,1,2,4,3,C,,,,,,,,,,,,,,,,,,,,,,,,,,,,,,100.5,1500,100,,,,,,,,,,,,,,0.14019465
X,10,17,2023,642,93635,41.14398333,-71.19986,359,450,2,2,9,5,1,2,4,3,C,,,,,,,,,,,,,,,,,,,,,,,,,,,,,,100.3,1500,100,,,,,,,,,,,,,,0.140106074
X,10,17,2023,643,93640,41.14630167,-71.19990667,359,450,2,2,9,5,1,2,4,3,C,,,,,,,,,,,,,,,,,,,,,,,,,,,,,,100.1,1500,100,,,,,,,,,,,,,,0.139209784
X,10,17,2023,644,93645,41.14860833,-71.199955,359,448,2,2,9,5,1,2,4,3,C,,,,,,,,,,,,,,,,,,,,,,,,,,,,,,100.1,1500,100,,,,,,,,,,,,,,0.13851056
X,10,17,2023,645,93650,41.150925,-71.20002167,359,446,2,2,9,5,1,2,4,3,C,,,,,,,,,,,,,,,,,,,,,,,,,,,,,,100.1,1500,100,,,,,,,,,,,,,,0.139126377
X,10,17,2023,646,93655,41.15322667,-71.20005667,360,451,2,2,9,5,1,2,4,3,C,,,,,,,,,,,,,,,,,,,,,,,,,,,,,,99.1,1500,100,,,,,,,,,,,,,,0.138202177
X,10,17,2023,647,93700,41.15550167,-71.20007333,360,453,2,2,9,5,1,2,4,3,C,,,,,,,,,,,,,,,,,,,,,,,,,,,,,,98.1,1500,100,,,,,,,,,,,,,,0.136594118
X,10,17,2023,648,93700,41.15550167,-71.20007333,360,453,2,2,9,5,1,2,4,3,C,,,,,,,,,,,,,,,,,,,,,,,,,,,,,,98.1,1500,100,,,,,,,,,,,,,,0
X,10,17,2023,649,93705,41.15778,-71.200085,360,454,2,2,9,5,1,2,4,3,C,,,,,,,,,,,,,,,,,,,,,,,,,,,,,,98.5,1500,100,,,,,,,,,,,,,,0.136793192
X,10,17,2023,650,93710,41.16005,-71.20010333,359,456,2,2,9,5,1,2,4,3,C,,,,,,,,,,,,,,,,,,,,,,,,,,,,,,98.6,1500,100,,,,,,,,,,,,,,0.136294357
X,10,17,2023,651,93715,41.16232333,-71.20009333,0,458,2,2,9,5,1,2,4,3,C,,,,,,,,,,,,,,,,,,,,,,,,,,,,,,98.1,1500,100,,,,,,,,,,,,,,0.136492721
X,10,17,2023,652,93720,41.16459667,-71.20007833,0,460,2,2,9,5,1,2,4,3,C,,,,,,,,,,,,,,,,,,,,,,,,,,,,,,97.9,1500,100,,,,,,,,,,,,,,0.136493657
X,10,17,2023,653,93725,41.16686333,-71.20006167,0,459,2,2,9,5,1,2,4,3,C,,,,,,,,,,,,,,,,,,,,,,,,,,,,,,98.2,1500,100,,,,,,,,,,,,,,0.136093788
X,10,17,2023,654,93730,41.16917167,-71.20006,360,454,2,2,9,5,1,2,4,3,C,,,,,,,,,,,,,,,,,,,,,,,,,,,,,,100.1,1500,100,,,,,,,,,,,,,,0.138593409
X,10,17,2023,655,93735,41.17152667,-71.200085,359,448,2,2,9,5,1,2,4,3,C,,,,,,,,,,,,,,,,,,,,,,,,,,,,,,102.1,1500,100,,,,,,,,,,,,,,0.141399791
X,10,17,2023,656,93740,41.17391833,-71.20013667,359,439,2,2,9,5,1,2,4,3,C,,,,,,,,,,,,,,,,,,,,,,,,,,,,,,103.9,1500,100,,,,,,,,,,,,,,0.143615744
X,10,17,2023,657,93745,41.17636333,-71.20015833,360,438,2,2,9,5,1,2,4,3,C,,,,,,,,,,,,,,,,,,,,,,,,,,,,,,105.2,1500,100,,,,,,,,,,,,,,0.146802183
X,10,17,2023,658,93750,41.17878333,-71.20017,360,446,2,2,9,5,1,2,4,3,C,,,,,,,,,,,,,,,,,,,,,,,,,,,,,,103.8,1500,100,,,,,,,,,,,,,,0.145298863
X,10,17,2023,659,93755,41.18118167,-71.200185,360,447,2,2,9,5,1,2,4,3,C,,,,,,,,,,,,,,,,,,,,,,,,,,,,,,103.7,1500,100,,,,,,,,,,,,,,0.143998625
X,10,17,2023,660,93800,41.183595,-71.2002,360,449,2,2,9,5,1,2,4,3,C,,,,,,,,,,,,,,,,,,,,,,,,,,,,,,104,1500,100,,,,,,,,,,,,,,0.144899222
X,10,17,2023,661,93800,41.183595,-71.2002,360,449,2,2,9,5,1,2,4,3,C,,,,,,,,,,,,,,,,,,,,,,,,,,,,,,104,1500,100,,,,,,,,,,,,,,0
X,10,17,2023,662,93805,41.18598833,-71.20021333,360,452,2,2,9,5,1,2,4,3,C,,,,,,,,,,,,,,,,,,,,,,,,,,,,,,103.6,1500,100,,,,,,,,,,,,,,0.14369809
S,10,17,2023,663,93807,41.18700585,-71.20020903,360,454,2,2,9,5,1,2,3,3,C,17,,,,,,,,,,,,,,,,,,,,,,,,,,,,,103.3,1500,100,,,,,,,,,,,,,,0.061092684
X,10,17,2023,664,93810,41.188355,-71.20020333,0,455,2,2,9,5,1,2,3,3,C,,,,,,,,,,,,,,,,,,,,,,,,,,,,,,102.8,1500,100,,,,,,,,,,,,,,0.142096467
X,10,17,2023,665,93815,41.190705,-71.20019,0,454,2,2,9,5,1,2,3,3,C,,,,,,,,,,,,,,,,,,,,,,,,,,,,,,101.9,1500,100,,,,,,,,,,,,,,0.14109636
X,10,17,2023,666,93820,41.19308667,-71.20017333,0,452,2,2,9,5,1,2,3,3,C,,,,,,,,,,,,,,,,,,,,,,,,,,,,,,102.3,1500,100,,,,,,,,,,,,,,0.142998338
X,10,17,2023,667,93825,41.195485,-71.20016833,0,450,2,2,9,5,1,2,3,3,C,,,,,,,,,,,,,,,,,,,,,,,,,,,,,,103.9,1500,100,,,,,,,,,,,,,,0.143997207
X,10,17,2023,668,93830,41.19791167,-71.20014,1,449,2,2,9,5,1,2,3,3,C,,,,,,,,,,,,,,,,,,,,,,,,,,,,,,105,1500,100,,,,,,,,,,,,,,0.145703799
