rectype,month,day,year,eventno,time,lat,long,heading,alt,legtype,legstage,legno,visiblty,glarel,glarer,beaufort,cloud,wx,sightno,anglel,angler,speccode,number,numcalf,anhead,photos,idrel,confidnc,b1,b2,b3,b4,b5,b6,b7,b8,b9,b10,b11,b12,b13,b14,b15,refno,stratum,utc,radalt,gpsspeed,setalt,setvel,lensfl,ggf,int,gpsq,gpssats,roll,pitch,yaw,maghead,notes,edits,glarev,ph_qual,TrackDist
S,8,10,2023,565,82003,41.40410146,-71.24997374,223,494,1,-,,4,,,2,4,H,1,,,,,,,,,,,,,,,,,,,,,,,,,,,,,103.9,1500,100,,,,,,,,,,"ON WATCH, BEGIN SURVEY",,,,0.100971406
X,8,10,2023,566,82005,41.40357333,-71.25063,223,495,1,-,,4,,,2,4,H,,,,,,,,,,,,,,,,,,,,,,,,,,,,,,103.4,1500,100,,,,,,,,,,,,,,0.14431789
X,8,10,2023,567,82010,41.40181,-71.25275833,222,496,1,-,,4,,,2,4,H,,,,,,,,,,,,,,,,,,,,,,,,,,,,,,102.7,1500,100,,,,,,,,,,,,,,0.142814303
X,8,10,2023,568,82010,41.40181,-71.25275833,222,496,1,-,,4,,,2,4,H,,,,,,,,,,,,,,,,,,,,,,,,,,,,,,102.7,1500,100,,,,,,,,,,,,,,0
X,8,10,2023,569,82015,41.40002167,-71.254845,221,493,1,-,,4,,,2,4,H,,,,,,,,,,,,,,,,,,,,,,,,,,,,,,103,1500,100,,,,,,,,,,,,,,0.142689498
X,8,10,2023,570,82020,41.39822833,-71.25693833,222,491,1,-,,4,,,2,4,H,,,,,,,,,,,,,,,,,,,,,,,,,,,,,,102.6,1500,100,,,,,,,,,,,,,,0.143114852
X,8,10,2023,571,82025,41.39651667,-71.259135,225,488,1,-,,4,,,2,4,H,,,,,,,,,,,,,,,,,,,,,,,,,,,,,,102.8,1500,100,,,,,,,,,,,,,,0.142652418
X,8,10,2023,572,82030,41.39485833,-71.26141167,226,486,1,-,,4,,,2,4,H,,,,,,,,,,,,,,,,,,,,,,,,,,,,,,102.9,1500,100,,,,,,,,,,,,,,0.14292752
X,8,10,2023,573,82035,41.39321,-71.26367,226,492,1,-,,4,,,2,4,H,,,,,,,,,,,,,,,,,,,,,,,,,,,,,,101.2,1500,100,,,,,,,,,,,,,,0.141918781
X,8,10,2023,574,82040,41.39159833,-71.26590333,227,493,1,-,,4,,,2,4,H,,,,,,,,,,,,,,,,,,,,,,,,,,,,,,100.2,1500,100,,,,,,,,,,,,,,0.139580589
X,8,10,2023,575,82045,41.39002333,-71.26819333,228,489,1,-,,4,,,2,4,H,,,,,,,,,,,,,,,,,,,,,,,,,,,,,,101.6,1500,100,,,,,,,,,,,,,,0.139935996
X,8,10,2023,576,82050,41.38845,-71.27054167,228,484,1,-,,4,,,2,4,H,,,,,,,,,,,,,,,,,,,,,,,,,,,,,,102.8,1500,100,,,,,,,,,,,,,,0.141819143
X,8,10,2023,577,82055,41.38683,-71.272855,226,485,1,-,,4,,,2,4,H,,,,,,,,,,,,,,,,,,,,,,,,,,,,,,102.4,1500,100,,,,,,,,,,,,,,0.142545984
X,8,10,2023,578,82100,41.38513,-71.27506667,223,484,1,-,,4,,,2,4,H,,,,,,,,,,,,,,,,,,,,,,,,,,,,,,102.9,1500,100,,,,,,,,,,,,,,0.14263184
X,8,10,2023,579,82105,41.38339,-71.27723167,224,480,1,-,,4,,,2,4,H,,,,,,,,,,,,,,,,,,,,,,,,,,,,,,103.2,1500,100,,,,,,,,,,,,,,0.142919274
X,8,10,2023,580,82110,41.38169833,-71.27946,226,480,1,-,,4,,,2,4,H,,,,,,,,,,,,,,,,,,,,,,,,,,,,,,101.8,1500,100,,,,,,,,,,,,,,0.142804695
X,8,10,2023,581,82115,41.38011667,-71.281735,228,484,1,-,,4,,,2,4,H,,,,,,,,,,,,,,,,,,,,,,,,,,,,,,99.8,1500,100,,,,,,,,,,,,,,0.139721921
X,8,10,2023,582,82120,41.378595,-71.28401167,229,487,1,-,,4,,,2,4,H,,,,,,,,,,,,,,,,,,,,,,,,,,,,,,98.4,1500,100,,,,,,,,,,,,,,0.137356795
X,8,10,2023,583,82125,41.37710167,-71.28630833,230,484,1,-,,4,,,2,4,H,,,,,,,,,,,,,,,,,,,,,,,,,,,,,,99,1500,100,,,,,,,,,,,,,,0.136912684
X,8,10,2023,584,82130,41.37560167,-71.288655,229,478,1,-,,4,,,2,4,H,,,,,,,,,,,,,,,,,,,,,,,,,,,,,,100.8,1500,100,,,,,,,,,,,,,,0.138884004
P,8,10,2023,585,82133,41.37450181,-71.29037643,230,482,1,-,,4,,,2,4,H,2,,,UNVE,1,,,1,9,0,,,,,,,,,,,,,,,,,,,,99.8,1500,100,,,,,,,,,,,,,,0.101862757
X,8,10,2023,586,82135,41.37409167,-71.29101833,230,483,1,-,,4,,,2,4,H,,,,,,,,,,,,,,,,,,,,,,,,,,,,,,99.4,1500,100,,,,,,,,,,,,,,0.139846836
X,8,10,2023,587,82140,41.37265667,-71.29332167,231,494,1,-,,4,,,2,4,H,,,,,,,,,,,,,,,,,,,,,,,,,,,,,,95.5,1500,100,,,,,,,,,,,,,,0.134881539
X,8,10,2023,588,82140,41.37265667,-71.29332167,231,494,1,-,,4,,,2,4,H,,,,,,,,,,,,,,,,,,,,,,,,,,,,,,95.5,1500,100,,,,,,,,,,,,,,0
X,8,10,2023,589,82145,41.37128667,-71.29561833,232,498,1,-,,4,,,2,4,H,,,,,,,,,,,,,,,,,,,,,,,,,,,,,,96.1,1500,100,,,,,,,,,,,,,,0.132189193
X,8,10,2023,590,82150,41.36990167,-71.29794833,232,492,1,-,,4,,,2,4,H,,,,,,,,,,,,,,,,,,,,,,,,,,,,,,97.6,1500,100,,,,,,,,,,,,,,0.133927234
X,8,10,2023,591,82155,41.36844667,-71.30030833,230,485,1,-,,4,,,2,4,H,,,,,,,,,,,,,,,,,,,,,,,,,,,,,,100.2,1500,100,,,,,,,,,,,,,,0.137620084
P,8,10,2023,592,82155,41.36822805,-71.30064022,229,486,1,-,,4,,,2,4,H,3,,,CV-O,1,,,1,9,0,,,,,,,,,,,,,,,,,,,,100,1500,100,,,,,,,,,,CARRYING TURBINE PARTS,,,,0.019897894
X,8,10,2023,593,82200,41.366925,-71.30261833,228,490,1,-,,4,,,2,4,H,,,,,,,,,,,,,,,,,,,,,,,,,,,,,,99,1500,100,,,,,,,,,,,,,,0.138495784
X,8,10,2023,594,82205,41.36539667,-71.30481667,227,496,1,-,,4,,,2,4,H,,,,,,,,,,,,,,,,,,,,,,,,,,,,,,96.7,1500,100,,,,,,,,,,,,,,0.135028519
X,8,10,2023,595,82210,41.36384333,-71.306985,226,494,1,-,,4,,,2,4,H,,,,,,,,,,,,,,,,,,,,,,,,,,,,,,98.1,1500,100,,,,,,,,,,,,,,0.135073643
X,8,10,2023,596,82215,41.36223667,-71.30916833,226,484,1,-,,4,,,2,4,H,,,,,,,,,,,,,,,,,,,,,,,,,,,,,,100.4,1500,100,,,,,,,,,,,,,,0.137787667
X,8,10,2023,597,82220,41.360585,-71.31135833,224,483,1,-,,4,,,2,4,H,,,,,,,,,,,,,,,,,,,,,,,,,,,,,,100.4,1500,100,,,,,,,,,,,,,,0.139906023
X,8,10,2023,598,82225,41.35892,-71.31349167,224,488,1,-,,4,,,2,4,H,,,,,,,,,,,,,,,,,,,,,,,,,,,,,,99.2,1500,100,,,,,,,,,,,,,,0.138694167
X,8,10,2023,599,82230,41.35725833,-71.31557333,222,488,1,-,,4,,,2,4,H,,,,,,,,,,,,,,,,,,,,,,,,,,,,,,99.2,1500,100,,,,,,,,,,,,,,0.13694627
X,8,10,2023,600,82235,41.35552333,-71.31761167,220,481,1,-,,4,,,2,4,H,,,,,,,,,,,,,,,,,,,,,,,,,,,,,,101.2,1500,100,,,,,,,,,,,,,,0.138888657
X,8,10,2023,601,82240,41.35365333,-71.31956833,216,473,1,-,,4,,,2,4,H,,,,,,,,,,,,,,,,,,,,,,,,,,,,,,103.6,1500,100,,,,,,,,,,,,,,0.142766365
X,8,10,2023,602,82245,41.35163167,-71.32133833,211,475,1,-,,4,,,2,4,H,,,,,,,,,,,,,,,,,,,,,,,,,,,,,,104.3,1500,100,,,,,,,,,,,,,,0.145249309
X,8,10,2023,603,82250,41.34952,-71.32281167,205,484,1,-,,4,,,2,4,H,,,,,,,,,,,,,,,,,,,,,,,,,,,,,,102,1500,100,,,,,,,,,,,,,,0.143122904
X,8,10,2023,604,82255,41.34735,-71.32402,201,491,1,-,,4,,,2,4,H,,,,,,,,,,,,,,,,,,,,,,,,,,,,,,101,1500,100,,,,,,,,,,,,,,0.141213009
S,8,10,2023,605,82259,41.34548982,-71.32505137,205,490,1,-,,4,,,2,4,H,4,,,RECV,1,,,1,9,0,,,,,,,,,,,,,,,,,,,,100.8,1500,100,,,,,,,,,,,,,,0.120975032
X,8,10,2023,606,82300,41.34519167,-71.32521667,205,490,1,-,,4,,,2,4,H,,,,,,,,,,,,,,,,,,,,,,,,,,,,,,100.8,1500,100,,,,,,,,,,,,,,0.140364775
X,8,10,2023,607,82305,41.34315167,-71.32676667,214,480,1,-,,4,,,2,4,H,,,,,,,,,,,,,,,,,,,,,,,,,,,,,,102.7,1500,100,,,,,,,,,,,,,,0.141008548
X,8,10,2023,608,82310,41.34128,-71.32872333,222,476,1,-,,4,,,2,4,H,,,,,,,,,,,,,,,,,,,,,,,,,,,,,,102.6,1500,100,,,,,,,,,,,,,,0.142855421
X,8,10,2023,609,82310,41.34128,-71.32872333,222,476,1,-,,4,,,2,4,H,,,,,,,,,,,,,,,,,,,,,,,,,,,,,,102.6,1500,100,,,,,,,,,,,,,,0
X,8,10,2023,610,82315,41.33951333,-71.33084333,219,476,1,-,,4,,,2,4,H,,,,,,,,,,,,,,,,,,,,,,,,,,,,,,102.6,1500,100,,,,,,,,,,,,,,0.142772595
X,8,10,2023,611,82320,41.33749667,-71.33252667,204,479,1,-,,4,,,2,4,H,,,,,,,,,,,,,,,,,,,,,,,,,,,,,,103.3,1500,100,,,,,,,,,,,,,,0.142895528
X,8,10,2023,612,82325,41.33517167,-71.33333833,186,480,1,-,,4,,,2,4,H,,,,,,,,,,,,,,,,,,,,,,,,,,,,,,105.4,1500,100,,,,,,,,,,,,,,0.144310052
X,8,10,2023,613,82330,41.3327,-71.33331833,178,481,1,-,,4,,,2,4,H,,,,,,,,,,,,,,,,,,,,,,,,,,,,,,106.4,1500,100,,,,,,,,,,,,,,0.148402736
X,8,10,2023,614,82331,41.33223404,-71.33330417,178,481,2,1,1,4,2,1,2,4,H,,,,,,,,,,,,,,,,,,,,,,,,,,,,,,106.4,1500,100,,,,,,,,,,ON TRACK,,,,0.027983512
X,8,10,2023,615,82335,41.33023333,-71.33324333,180,481,2,2,1,4,2,1,2,4,H,,,,,,,,,,,,,,,,,,,,,,,,,,,,,,106.6,1500,100,,,,,,,,,,,,,,0.14813839
X,8,10,2023,616,82339,41.32794481,-71.3332774,181,481,2,2,1,4,2,1,2,4,H,,,,,,,,,,,,,,,,,,,,,,,,,,,,,,105.9,1500,100,,,,,,,,,,,,,,0.137412386
X,8,10,2023,617,82340,41.32777,-71.33328,181,480,2,2,1,4,2,1,2,4,H,,,,,,,,,,,,,,,,,,,,,,,,,,,,,,105.8,1500,100,,,,,,,,,,,,,,0.147908898
X,8,10,2023,618,82340,41.32777,-71.33328,181,480,2,2,1,4,2,1,2,4,H,,,,,,,,,,,,,,,,,,,,,,,,,,,,,,105.8,1500,100,,,,,,,,,,,,,,0
X,8,10,2023,619,82345,41.32532667,-71.33327667,179,484,2,2,1,4,2,1,2,4,H,,,,,,,,,,,,,,,,,,,,,,,,,,,,,,105,1500,100,,,,,,,,,,,,,,0.146698927
X,8,10,2023,620,82350,41.32290667,-71.333195,180,487,2,2,1,4,2,1,2,4,H,,,,,,,,,,,,,,,,,,,,,,,,,,,,,,104.6,1500,100,,,,,,,,,,,,,,0.14534456
X,8,10,2023,621,82355,41.32048667,-71.33322333,180,488,2,2,1,4,2,1,2,4,H,,,,,,,,,,,,,,,,,,,,,,,,,,,,,,104.9,1500,100,,,,,,,,,,,,,,0.145303523
X,8,10,2023,622,82400,41.31805833,-71.33319333,180,491,2,2,1,4,2,1,2,4,H,,,,,,,,,,,,,,,,,,,,,,,,,,,,,,104.6,1500,100,,,,,,,,,,,,,,0.145804519
X,8,10,2023,623,82405,41.31566,-71.33327833,182,494,2,2,1,4,2,1,2,4,H,,,,,,,,,,,,,,,,,,,,,,,,,,,,,,103.1,1500,100,,,,,,,,,,,,,,0.144048036
X,8,10,2023,624,82410,41.313285,-71.33335,180,496,2,2,1,4,2,1,2,4,H,,,,,,,,,,,,,,,,,,,,,,,,,,,,,,102.5,1500,100,,,,,,,,,,,,,,0.142632706
X,8,10,2023,625,82415,41.310905,-71.33336333,180,495,2,2,1,4,2,1,2,4,H,,,,,,,,,,,,,,,,,,,,,,,,,,,,,,103,1500,100,,,,,,,,,,,,,,0.142897553
X,8,10,2023,626,82420,41.30851333,-71.33339,180,492,2,2,1,4,2,1,2,4,H,,,,,,,,,,,,,,,,,,,,,,,,,,,,,,104,1500,100,,,,,,,,,,,,,,0.143601796
X,8,10,2023,627,82425,41.30609667,-71.33339167,180,490,2,2,1,4,2,1,2,4,H,,,,,,,,,,,,,,,,,,,,,,,,,,,,,,104.6,1500,100,,,,,,,,,,,,,,0.145097791
X,8,10,2023,628,82430,41.303685,-71.33345167,181,490,2,2,1,4,2,1,2,4,H,,,,,,,,,,,,,,,,,,,,,,,,,,,,,,103.5,1500,100,,,,,,,,,,,,,,0.144822855
X,8,10,2023,629,82435,41.30127333,-71.33355333,181,491,2,2,1,4,2,1,2,4,H,,,,,,,,,,,,,,,,,,,,,,,,,,,,,,104.1,1500,100,,,,,,,,,,,,,,0.144870163
X,8,10,2023,630,82440,41.29885,-71.33365667,182,488,2,2,1,4,2,1,2,4,H,,,,,,,,,,,,,,,,,,,,,,,,,,,,,,105.3,1500,100,,,,,,,,,,,,,,0.145572678
X,8,10,2023,631,82445,41.29640333,-71.33364667,178,485,2,2,1,4,2,1,2,4,H,,,,,,,,,,,,,,,,,,,,,,,,,,,,,,106.6,1500,100,,,,,,,,,,,,,,0.146899678
X,8,10,2023,632,82450,41.29394,-71.333555,180,486,2,2,1,4,2,1,2,4,H,,,,,,,,,,,,,,,,,,,,,,,,,,,,,,105.7,1500,100,,,,,,,,,,,,,,0.147957453
X,8,10,2023,633,82455,41.29151,-71.33354167,179,490,2,2,1,4,2,1,2,4,H,,,,,,,,,,,,,,,,,,,,,,,,,,,,,,104.3,1500,100,,,,,,,,,,,,,,0.145899551
X,8,10,2023,634,82500,41.2891,-71.333495,179,492,2,2,1,4,2,1,2,4,H,,,,,,,,,,,,,,,,,,,,,,,,,,,,,,103.2,1500,100,,,,,,,,,,,,,,0.144712816
X,8,10,2023,635,82505,41.28670833,-71.33348167,180,489,2,2,1,4,2,1,2,4,H,,,,,,,,,,,,,,,,,,,,,,,,,,,,,,104.3,1500,100,,,,,,,,,,,,,,0.14359802
X,8,10,2023,636,82510,41.284285,-71.33351833,181,485,2,2,1,4,2,1,2,4,H,,,,,,,,,,,,,,,,,,,,,,,,,,,,,,105,1500,100,,,,,,,,,,,,,,0.145507445
X,8,10,2023,637,82510,41.284285,-71.33351833,181,485,2,2,1,4,2,1,2,4,H,,,,,,,,,,,,,,,,,,,,,,,,,,,,,,105,1500,100,,,,,,,,,,,,,,0
X,8,10,2023,638,82515,41.281845,-71.33353333,180,484,2,2,1,4,2,1,2,4,H,,,,,,,,,,,,,,,,,,,,,,,,,,,,,,105.4,1500,100,,,,,,,,,,,,,,0.146500279
X,8,10,2023,639,82520,41.27939833,-71.33351333,179,487,2,2,1,4,2,1,2,4,H,,,,,,,,,,,,,,,,,,,,,,,,,,,,,,104.8,1500,100,,,,,,,,,,,,,,0.146901757
X,8,10,2023,640,82525,41.276975,-71.33343833,179,489,2,2,1,4,2,1,2,4,H,,,,,,,,,,,,,,,,,,,,,,,,,,,,,,104.5,1500,100,,,,,,,,,,,,,,0.145537391
X,8,10,2023,641,82530,41.27456,-71.333405,180,489,2,2,1,4,2,1,2,4,H,,,,,,,,,,,,,,,,,,,,,,,,,,,,,,104.2,1500,100,,,,,,,,,,,,,,0.145005505
X,8,10,2023,642,82535,41.27213333,-71.33338,179,488,2,2,1,4,2,1,2,4,H,,,,,,,,,,,,,,,,,,,,,,,,,,,,,,105,1500,100,,,,,,,,,,,,,,0.145702543
X,8,10,2023,643,82540,41.26970167,-71.33336167,180,486,2,2,1,4,2,1,2,4,H,,,,,,,,,,,,,,,,,,,,,,,,,,,,,,104.6,1500,100,,,,,,,,,,,,,,0.146000722
X,8,10,2023,644,82545,41.26725,-71.33336167,180,486,2,2,1,4,2,1,2,4,H,,,,,,,,,,,,,,,,,,,,,,,,,,,,,,105.6,1500,100,,,,,,,,,,,,,,0.147199188
X,8,10,2023,645,82550,41.26480833,-71.333355,180,488,2,2,1,4,2,1,2,4,H,,,,,,,,,,,,,,,,,,,,,,,,,,,,,,105.2,1500,100,,,,,,,,,,,,,,0.146599092
X,8,10,2023,646,82555,41.262385,-71.33337333,180,490,2,2,1,4,2,1,2,4,H,,,,,,,,,,,,,,,,,,,,,,,,,,,,,,104.9,1500,100,,,,,,,,,,,,,,0.145500394
X,8,10,2023,647,82600,41.25997,-71.33336667,179,490,2,2,1,4,2,1,2,4,H,,,,,,,,,,,,,,,,,,,,,,,,,,,,,,104.1,1500,100,,,,,,,,,,,,,,0.144998016
X,8,10,2023,648,82605,41.25756,-71.33326,177,487,2,2,1,4,2,1,2,4,H,,,,,,,,,,,,,,,,,,,,,,,,,,,,,,104.7,1500,100,,,,,,,,,,,,,,0.144777572
X,8,10,2023,649,82610,41.25513833,-71.33316167,179,484,2,2,1,4,2,1,2,4,H,,,,,,,,,,,,,,,,,,,,,,,,,,,,,,104.5,1500,100,,,,,,,,,,,,,,0.145465701
X,8,10,2023,650,82615,41.25271167,-71.33313667,181,484,2,2,1,4,2,1,2,4,H,,,,,,,,,,,,,,,,,,,,,,,,,,,,,,104.6,1500,100,,,,,,,,,,,,,,0.145702546
X,8,10,2023,651,82620,41.25029667,-71.33324833,183,485,2,2,1,4,2,1,2,4,H,,,,,,,,,,,,,,,,,,,,,,,,,,,,,,104.3,1500,100,,,,,,,,,,,,,,0.145085292
X,8,10,2023,652,82625,41.24788667,-71.33337167,182,484,2,2,1,4,2,1,2,4,H,,,,,,,,,,,,,,,,,,,,,,,,,,,,,,104.2,1500,100,,,,,,,,,,,,,,0.14480457
S,8,10,2023,653,82627,41.24684262,-71.33340859,181,483,2,2,1,4,2,1,2,4,H,5,,,MV-C,1,,,1,9,0,,,,,,,,,,,,,,,,,,,,104,1500,100,,,,,,,,,,,,,,0.062707373
X,8,10,2023,654,82630,41.24548333,-71.33345667,181,482,2,2,1,4,2,1,2,4,H,,,,,,,,,,,,,,,,,,,,,,,,,,,,,,103.7,1500,100,,,,,,,,,,,,,,0.144348242
X,8,10,2023,655,82635,41.24306667,-71.33347167,180,480,2,2,1,4,2,1,2,4,H,,,,,,,,,,,,,,,,,,,,,,,,,,,,,,104.3,1500,100,,,,,,,,,,,,,,0.145099352
X,8,10,2023,656,82640,41.24064,-71.33349167,180,484,2,2,1,4,2,1,2,4,H,,,,,,,,,,,,,,,,,,,,,,,,,,,,,,104.2,1500,100,,,,,,,,,,,,,,0.145700974
X,8,10,2023,657,82645,41.23824,-71.33348667,180,488,2,2,1,4,2,1,2,4,H,,,,,,,,,,,,,,,,,,,,,,,,,,,,,,103.6,1500,100,,,,,,,,,,,,,,0.144097274
X,8,10,2023,658,82650,41.23586,-71.3335,181,488,2,2,1,4,2,1,2,4,H,,,,,,,,,,,,,,,,,,,,,,,,,,,,,,103.6,1500,100,,,,,,,,,,,,,,0.142897556
X,8,10,2023,659,82655,41.23346667,-71.33355833,181,486,2,2,1,4,2,1,2,4,H,,,,,,,,,,,,,,,,,,,,,,,,,,,,,,102.9,1500,100,,,,,,,,,,,,,,0.143720963
X,8,10,2023,660,82700,41.231095,-71.333525,179,482,2,2,1,4,2,1,2,4,H,,,,,,,,,,,,,,,,,,,,,,,,,,,,,,102.7,1500,100,,,,,,,,,,,,,,0.142403905
X,8,10,2023,661,82705,41.22870833,-71.33349167,181,486,2,2,1,4,2,1,2,4,H,,,,,,,,,,,,,,,,,,,,,,,,,,,,,,102.4,1500,100,,,,,,,,,,,,,,0.143304462
X,8,10,2023,662,82710,41.22634333,-71.33356,181,489,2,2,1,4,2,1,2,4,H,,,,,,,,,,,,,,,,,,,,,,,,,,,,,,102.6,1500,100,,,,,,,,,,,,,,0.142029204
X,8,10,2023,663,82710,41.22634333,-71.33356,181,489,2,2,1,4,2,1,2,4,H,,,,,,,,,,,,,,,,,,,,,,,,,,,,,,102.6,1500,100,,,,,,,,,,,,,,0
X,8,10,2023,664,82715,41.22395667,-71.33355333,179,482,2,2,1,4,2,1,2,4,H,,,,,,,,,,,,,,,,,,,,,,,,,,,,,,104,1500,100,,,,,,,,,,,,,,0.143296874
X,8,10,2023,665,82720,41.22152167,-71.33354167,181,478,2,2,1,4,2,1,2,4,H,,,,,,,,,,,,,,,,,,,,,,,,,,,,,,105.1,1500,100,,,,,,,,,,,,,,0.146199463
X,8,10,2023,666,82725,41.219065,-71.33358833,181,481,2,2,1,4,2,1,2,4,H,,,,,,,,,,,,,,,,,,,,,,,,,,,,,,105.7,1500,100,,,,,,,,,,,,,,0.147514446
X,8,10,2023,667,82730,41.21664833,-71.33367,182,484,2,2,1,4,2,1,2,4,H,,,,,,,,,,,,,,,,,,,,,,,,,,,,,,104,1500,100,,,,,,,,,,,,,,0.145144641
X,8,10,2023,668,82735,41.214245,-71.33373667,181,485,2,2,1,4,2,1,2,4,H,,,,,,,,,,,,,,,,,,,,,,,,,,,,,,103.6,1500,100,,,,,,,,,,,,,,0.144328643
X,8,10,2023,669,82740,41.21183167,-71.33374167,180,483,2,2,1,4,2,1,2,4,H,,,,,,,,,,,,,,,,,,,,,,,,,,,,,,104.1,1500,100,,,,,,,,,,,,,,0.144897813
X,8,10,2023,670,82745,41.20940667,-71.33375833,180,480,2,2,1,4,2,1,2,4,H,,,,,,,,,,,,,,,,,,,,,,,,,,,,,,105,1500,100,,,,,,,,,,,,,,0.145600055
X,8,10,2023,671,82750,41.20696833,-71.33375667,180,482,2,2,1,4,2,1,2,4,H,,,,,,,,,,,,,,,,,,,,,,,,,,,,,,104.9,1500,100,,,,,,,,,,,,,,0.146398667
X,8,10,2023,672,82755,41.20456,-71.33374833,179,486,2,2,1,4,2,1,2,4,H,,,,,,,,,,,,,,,,,,,,,,,,,,,,,,103.4,1500,100,,,,,,,,,,,,,,0.144597924
X,8,10,2023,673,82800,41.20216833,-71.33367667,179,487,2,2,1,4,2,1,2,4,H,,,,,,,,,,,,,,,,,,,,,,,,,,,,,,103.5,1500,100,,,,,,,,,,,,,,0.143633249
X,8,10,2023,674,82805,41.19975833,-71.33359,178,484,2,2,1,4,2,1,2,4,H,,,,,,,,,,,,,,,,,,,,,,,,,,,,,,103.9,1500,100,,,,,,,,,,,,,,0.144750459
X,8,10,2023,675,82810,41.19732833,-71.33351833,180,479,2,2,1,4,2,1,2,4,H,,,,,,,,,,,,,,,,,,,,,,,,,,,,,,105.6,1500,100,,,,,,,,,,,,,,0.14593423
X,8,10,2023,676,82810,41.19732833,-71.33351833,180,479,2,2,1,4,2,1,2,4,H,,,,,,,,,,,,,,,,,,,,,,,,,,,,,,105.6,1500,100,,,,,,,,,,,,,,0
X,8,10,2023,677,82815,41.19488,-71.333515,180,478,2,2,1,4,2,1,2,4,H,,,,,,,,,,,,,,,,,,,,,,,,,,,,,,105.5,1500,100,,,,,,,,,,,,,,0.14699913
X,8,10,2023,678,82820,41.19244333,-71.33349167,179,482,2,2,1,4,2,1,2,4,H,,,,,,,,,,,,,,,,,,,,,,,,,,,,,,104.8,1500,100,,,,,,,,,,,,,,0.146302379
X,8,10,2023,679,82825,41.19002667,-71.33339,179,483,2,2,1,4,2,1,2,4,H,,,,,,,,,,,,,,,,,,,,,,,,,,,,,,105.2,1500,100,,,,,,,,,,,,,,0.145170462
X,8,10,2023,680,82830,41.187595,-71.33339833,181,479,2,2,1,4,2,1,2,4,H,,,,,,,,,,,,,,,,,,,,,,,,,,,,,,105.5,1500,100,,,,,,,,,,,,,,0.145998864
X,8,10,2023,681,82835,41.18513833,-71.33339667,179,476,2,2,1,4,2,1,2,4,H,,,,,,,,,,,,,,,,,,,,,,,,,,,,,,106.7,1500,100,,,,,,,,,,,,,,0.147499409
X,8,10,2023,682,82840,41.18266833,-71.333365,180,475,2,2,1,4,2,1,2,4,H,,,,,,,,,,,,,,,,,,,,,,,,,,,,,,106.6,1500,100,,,,,,,,,,,,,,0.148306832
X,8,10,2023,683,82840,41.18266833,-71.333365,180,475,2,2,1,4,2,1,2,4,H,,,,,,,,,,,,,,,,,,,,,,,,,,,,,,106.6,1500,100,,,,,,,,,,,,,,0
X,8,10,2023,684,82845,41.18020833,-71.33338167,181,477,2,2,1,4,2,1,2,4,H,,,,,,,,,,,,,,,,,,,,,,,,,,,,,,105.9,1500,100,,,,,,,,,,,,,,0.147701445
X,8,10,2023,685,82850,41.17776833,-71.33338167,180,479,2,2,1,4,2,1,2,4,H,,,,,,,,,,,,,,,,,,,,,,,,,,,,,,105.3,1500,100,,,,,,,,,,,,,,0.146498716
X,8,10,2023,686,82855,41.17533167,-71.33339333,181,478,2,2,1,4,2,1,2,4,H,,,,,,,,,,,,,,,,,,,,,,,,,,,,,,105.2,1500,100,,,,,,,,,,,,,,0.146299531
X,8,10,2023,687,82900,41.17290167,-71.33344333,181,477,2,2,1,4,2,1,2,4,H,,,,,,,,,,,,,,,,,,,,,,,,,,,,,,105.6,1500,100,,,,,,,,,,,,,,0.145915809
X,8,10,2023,688,82905,41.17046667,-71.33346167,180,476,2,2,1,4,2,1,2,4,H,,,,,,,,,,,,,,,,,,,,,,,,,,,,,,105.1,1500,100,,,,,,,,,,,,,,0.146200861
S,8,10,2023,689,82908,41.16898997,-71.3334647,180,476,2,2,1,4,2,1,2,4,H,6,,40,SADO,10,,,1,3,2,,,,,,,,,,,,,,,,,,,,104.8,1500,100,,,,,,,,,,,,,,0.088661661
X,8,10,2023,690,82910,41.16803167,-71.33346667,180,475,2,2,1,4,2,1,2,4,H,,,,,,,,,,,,,,,,,,,,,,,,,,,,,,104.6,1500,100,,,,,,,,,,,,,,0.146198688
X,8,10,2023,691,82915,41.16562667,-71.33346333,180,483,2,2,1,4,2,1,2,4,H,,,,,,,,,,,,,,,,,,,,,,,,,,,,,,102.3,1500,100,,,,,,,,,,,,,,0.144397378
X,8,10,2023,692,82920,41.1633,-71.33344833,180,490,2,2,1,4,2,1,2,4,H,,,,,,,,,,,,,,,,,,,,,,,,,,,,,,100.3,1500,100,,,,,,,,,,,,,,0.139695776
X,8,10,2023,693,82925,41.16098333,-71.333415,180,488,2,2,1,4,2,1,2,4,H,,,,,,,,,,,,,,,,,,,,,,,,,,,,,,100.8,1500,100,,,,,,,,,,,,,,0.139101886
X,8,10,2023,694,82930,41.158635,-71.33341333,180,483,2,2,1,4,2,1,2,4,H,,,,,,,,,,,,,,,,,,,,,,,,,,,,,,101.4,1500,100,,,,,,,,,,,,,,0.140995027
X,8,10,2023,695,82935,41.15627333,-71.33345833,180,484,2,2,1,4,2,1,2,4,H,,,,,,,,,,,,,,,,,,,,,,,,,,,,,,101.5,1500,100,,,,,,,,,,,,,,0.141810137
P,8,10,2023,696,82939,41.1545164,-71.33343576,179,489,2,2,1,4,2,1,2,4,H,7,46,,UNDO,5,,,1,3,1,,,,,,,,,,,,,,,,,,,,100.3,1500,100,,,,,,,,,,,,,,0.105491891
X,8,10,2023,697,82940,41.15393833,-71.33342833,179,490,2,2,1,4,2,1,2,4,H,,,,,,,,,,,,,,,,,,,,,,,,,,,,,,100,1500,100,,,,,,,,,,,,,,0.140201027
X,8,10,2023,698,82945,41.15164,-71.33335,179,496,2,2,1,4,2,1,2,4,H,,,,,,,,,,,,,,,,,,,,,,,,,,,,,,99.1,1500,100,,,,,,,,,,,,,,0.138038416
X,8,10,2023,699,82950,41.14934667,-71.33333333,180,494,2,2,1,4,2,1,2,4,H,,,,,,,,,,,,,,,,,,,,,,,,,,,,,,99.6,1500,100,,,,,,,,,,,,,,0.137694843
X,8,10,2023,700,82955,41.14701833,-71.33334,180,493,2,2,1,4,2,1,2,4,H,,,,,,,,,,,,,,,,,,,,,,,,,,,,,,100.9,1500,100,,,,,,,,,,,,,,0.139794523
X,8,10,2023,701,83000,41.14469333,-71.333335,180,494,2,2,1,4,2,1,2,4,H,,,,,,,,,,,,,,,,,,,,,,,,,,,,,,99.8,1500,100,,,,,,,,,,,,,,0.139594246
X,8,10,2023,702,83005,41.14238667,-71.33332,180,498,2,2,1,4,2,1,2,4,H,,,,,,,,,,,,,,,,,,,,,,,,,,,,,,99.2,1500,100,,,,,,,,,,,,,,0.138494982
X,8,10,2023,703,83010,41.14009167,-71.33329833,179,500,2,2,1,4,2,1,2,4,H,,,,,,,,,,,,,,,,,,,,,,,,,,,,,,99.1,1500,100,,,,,,,,,,,,,,0.137796332
X,8,10,2023,704,83010,41.14009167,-71.33329833,179,500,2,2,1,4,2,1,2,4,H,,,,,,,,,,,,,,,,,,,,,,,,,,,,,,99.1,1500,100,,,,,,,,,,,,,,0
S,8,10,2023,705,83013,41.13864894,-71.33325965,179,498,2,2,1,4,2,1,2,4,H,8,,,RECV,2,,,1,9,0,,,,,,,,,,,,,,,,,,,,99.4,1500,100,,,,,,,,,,,,,,0.0866396
X,8,10,2023,706,83015,41.13779167,-71.33323667,179,496,2,2,1,4,2,1,2,4,H,,,,,,,,,,,,,,,,,,,,,,,,,,,,,,99.6,1500,100,,,,,,,,,,,,,,0.138121201
X,8,10,2023,707,83020,41.13545833,-71.33318,179,491,2,2,1,4,2,1,2,4,H,,,,,,,,,,,,,,,,,,,,,,,,,,,,,,101.9,1500,100,,,,,,,,,,,,,,0.140117832
X,8,10,2023,708,83025,41.13309333,-71.33312833,179,493,2,2,1,4,2,1,2,4,H,,,,,,,,,,,,,,,,,,,,,,,,,,,,,,101.6,1500,100,,,,,,,,,,,,,,0.142014902
X,8,10,2023,709,83030,41.13077833,-71.33309667,180,502,2,2,1,4,2,1,2,4,H,,,,,,,,,,,,,,,,,,,,,,,,,,,,,,98.8,1500,100,,,,,,,,,,,,,,0.139001035
X,8,10,2023,710,83035,41.1285,-71.333105,180,504,2,2,1,4,2,1,2,4,H,,,,,,,,,,,,,,,,,,,,,,,,,,,,,,98.8,1500,100,,,,,,,,,,,,,,0.136792694
X,8,10,2023,711,83040,41.12619833,-71.33312167,180,498,2,2,1,4,2,1,2,4,H,,,,,,,,,,,,,,,,,,,,,,,,,,,,,,100.2,1500,100,,,,,,,,,,,,,,0.138195175
X,8,10,2023,712,83045,41.12385833,-71.33315,181,496,2,2,1,4,2,1,2,4,H,,,,,,,,,,,,,,,,,,,,,,,,,,,,,,100.9,1500,100,,,,,,,,,,,,,,0.140500514
X,8,10,2023,713,83050,41.12152333,-71.33321833,181,498,2,2,1,4,2,1,2,4,H,,,,,,,,,,,,,,,,,,,,,,,,,,,,,,99.9,1500,100,,,,,,,,,,,,,,0.14022853
X,8,10,2023,714,83055,41.11919833,-71.33323,180,498,2,2,1,4,2,1,2,4,H,,,,,,,,,,,,,,,,,,,,,,,,,,,,,,100.4,1500,100,,,,,,,,,,,,,,0.13959506
X,8,10,2023,715,83100,41.11685,-71.33324,180,492,2,2,1,4,2,1,2,4,H,,,,,,,,,,,,,,,,,,,,,,,,,,,,,,102.1,1500,100,,,,,,,,,,,,,,0.140995732
X,8,10,2023,716,83105,41.11447833,-71.33325,180,490,2,2,1,4,2,1,2,4,H,,,,,,,,,,,,,,,,,,,,,,,,,,,,,,102.4,1500,100,,,,,,,,,,,,,,0.142396669
S,8,10,2023,717,83108,41.1128037,-71.33329125,181,492,2,2,1,4,2,1,2,4,H,9,,45,UNDO,15,,,1,3,3,,,,,,,,,,,,,,,,,,,,102,1500,100,,,,,,,,,,,,,,0.100563113
X,8,10,2023,718,83110,41.11211,-71.33330833,182,492,2,2,1,4,2,1,2,4,H,,,,,,,,,,,,,,,,,,,,,,,,,,,,,,101.9,1500,100,,,,,,,,,,,,,,0.142220297
X,8,10,2023,719,83110,41.11211,-71.33330833,182,492,2,2,1,4,2,1,2,4,H,,,,,,,,,,,,,,,,,,,,,,,,,,,,,,101.9,1500,100,,,,,,,,,,,,,,0
X,8,10,2023,720,83115,41.109745,-71.33338,180,491,2,2,1,4,2,1,2,4,H,,,,,,,,,,,,,,,,,,,,,,,,,,,,,,101.9,1500,100,,,,,,,,,,,,,,0.142032686
X,8,10,2023,721,83120,41.10738,-71.33335833,179,490,2,2,1,4,2,1,2,4,H,,,,,,,,,,,,,,,,,,,,,,,,,,,,,,102.4,1500,100,,,,,,,,,,,,,,0.141999064
X,8,10,2023,722,83125,41.105005,-71.33332833,180,490,2,2,1,4,2,1,2,4,H,,,,,,,,,,,,,,,,,,,,,,,,,,,,,,102,1500,100,,,,,,,,,,,,,,0.142602544
X,8,10,2023,723,83130,41.10264,-71.333305,180,491,2,2,1,4,2,1,2,4,H,,,,,,,,,,,,,,,,,,,,,,,,,,,,,,102.5,1500,100,,,,,,,,,,,,,,0.141999605
X,8,10,2023,724,83135,41.100275,-71.33332167,181,493,2,2,1,4,2,1,2,4,H,,,,,,,,,,,,,,,,,,,,,,,,,,,,,,101.7,1500,100,,,,,,,,,,,,,,0.141997683
X,8,10,2023,725,83140,41.09792,-71.33334,180,494,2,2,1,4,2,1,2,4,H,,,,,,,,,,,,,,,,,,,,,,,,,,,,,,101.1,1500,100,,,,,,,,,,,,,,0.14139771
X,8,10,2023,726,83145,41.09557167,-71.33333667,180,495,2,2,1,4,2,1,2,4,H,,,,,,,,,,,,,,,,,,,,,,,,,,,,,,101.2,1500,100,,,,,,,,,,,,,,0.140995088
X,8,10,2023,727,83150,41.09322167,-71.33335833,181,493,2,2,1,4,2,1,2,4,H,,,,,,,,,,,,,,,,,,,,,,,,,,,,,,101.6,1500,100,,,,,,,,,,,,,,0.14109848
X,8,10,2023,728,83155,41.09085833,-71.33337667,180,492,2,2,1,4,2,1,2,4,H,,,,,,,,,,,,,,,,,,,,,,,,,,,,,,101.5,1500,100,,,,,,,,,,,,,,0.141898039
X,8,10,2023,729,83200,41.08850167,-71.33328,176,491,2,2,1,4,2,1,2,4,H,,,,,,,,,,,,,,,,,,,,,,,,,,,,,,101.2,1500,100,,,,,,,,,,,,,,0.141562943
X,8,10,2023,730,83205,41.086175,-71.33299167,174,492,2,2,1,4,2,1,2,4,H,,,,,,,,,,,,,,,,,,,,,,,,,,,,,,101.4,1500,100,,,,,,,,,,,,,,0.140302171
X,8,10,2023,731,83210,41.083835,-71.33277833,178,494,2,2,1,4,2,1,2,4,H,,,,,,,,,,,,,,,,,,,,,,,,,,,,,,100.5,1500,100,,,,,,,,,,,,,,0.140825985
X,8,10,2023,732,83215,41.08149667,-71.33277833,181,493,2,2,1,4,2,1,2,4,H,,,,,,,,,,,,,,,,,,,,,,,,,,,,,,100.7,1500,100,,,,,,,,,,,,,,0.140394602
X,8,10,2023,733,83220,41.07915667,-71.33287833,182,492,2,2,1,4,2,1,2,4,H,,,,,,,,,,,,,,,,,,,,,,,,,,,,,,101.1,1500,100,,,,,,,,,,,,,,0.140567546
X,8,10,2023,734,83225,41.07681333,-71.333,182,494,2,2,1,4,2,1,2,4,H,,,,,,,,,,,,,,,,,,,,,,,,,,,,,,100.8,1500,100,,,,,,,,,,,,,,0.140802522
X,8,10,2023,735,83230,41.074485,-71.333075,181,496,2,2,1,4,2,1,2,4,H,,,,,,,,,,,,,,,,,,,,,,,,,,,,,,100.7,1500,100,,,,,,,,,,,,,,0.139835406
X,8,10,2023,736,83235,41.07217333,-71.333135,181,498,2,2,1,4,2,1,2,4,H,,,,,,,,,,,,,,,,,,,,,,,,,,,,,,99.6,1500,100,,,,,,,,,,,,,,0.13882009
X,8,10,2023,737,83240,41.06984833,-71.3332,181,496,2,2,1,4,2,1,2,4,H,,,,,,,,,,,,,,,,,,,,,,,,,,,,,,100.6,1500,100,,,,,,,,,,,,,,0.139625065
X,8,10,2023,738,83240,41.06984833,-71.3332,181,496,2,2,1,4,2,1,2,4,H,,,,,,,,,,,,,,,,,,,,,,,,,,,,,,100.6,1500,100,,,,,,,,,,,,,,0
X,8,10,2023,739,83245,41.06750333,-71.33323333,180,493,2,2,1,4,2,1,2,4,H,,,,,,,,,,,,,,,,,,,,,,,,,,,,,,101.9,1500,100,,,,,,,,,,,,,,0.140802957
X,8,10,2023,740,83250,41.06514333,-71.33322167,180,495,2,2,1,4,2,1,2,4,H,,,,,,,,,,,,,,,,,,,,,,,,,,,,,,101.6,1500,100,,,,,,,,,,,,,,0.141696463
X,8,10,2023,741,83255,41.06279,-71.333275,181,496,2,2,1,4,2,1,2,4,H,,,,,,,,,,,,,,,,,,,,,,,,,,,,,,100.7,1500,100,,,,,,,,,,,,,,0.141315835
X,8,10,2023,742,83300,41.06045333,-71.33326667,179,500,2,2,1,4,2,1,2,4,H,,,,,,,,,,,,,,,,,,,,,,,,,,,,,,100.1,1500,100,,,,,,,,,,,,,,0.140295042
X,8,10,2023,743,83305,41.05814667,-71.33323167,180,502,2,2,1,4,2,1,2,4,H,,,,,,,,,,,,,,,,,,,,,,,,,,,,,,99.7,1500,100,,,,,,,,,,,,,,0.138502385
P,8,10,2023,744,83306,41.05760647,-71.33322777,180,502,2,2,1,4,2,1,2,4,H,10,46,,FG-U,1,,,1,9,0,,,,,,,,,,,,,,,,,,,,99.8,1500,100,,,,,,,,,,,,,,0.032433974
X,8,10,2023,745,83310,41.05583333,-71.333215,180,500,2,2,1,4,2,1,2,4,H,,,,,,,,,,,,,,,,,,,,,,,,,,,,,,100.1,1500,100,,,,,,,,,,,,,,0.138895641
X,8,10,2023,746,83315,41.05351667,-71.33318667,179,496,2,2,1,4,2,1,2,4,H,,,,,,,,,,,,,,,,,,,,,,,,,,,,,,100.2,1500,100,,,,,,,,,,,,,,0.139099641
X,8,10,2023,747,83320,41.05118167,-71.33315,179,493,2,2,1,4,2,1,2,4,H,,,,,,,,,,,,,,,,,,,,,,,,,,,,,,101.2,1500,100,,,,,,,,,,,,,,0.140204297
X,8,10,2023,748,83325,41.048835,-71.33316,181,494,2,2,1,4,2,1,2,4,H,,,,,,,,,,,,,,,,,,,,,,,,,,,,,,100.9,1500,100,,,,,,,,,,,,,,0.140895667
X,8,10,2023,749,83330,41.046495,-71.333205,180,496,2,2,1,4,2,1,2,4,H,,,,,,,,,,,,,,,,,,,,,,,,,,,,,,100.7,1500,100,,,,,,,,,,,,,,0.140509445
X,8,10,2023,750,83335,41.04416667,-71.333205,180,497,2,2,1,4,2,1,2,4,H,,,,,,,,,,,,,,,,,,,,,,,,,,,,,,100.3,1500,100,,,,,,,,,,,,,,0.139794198
X,8,10,2023,751,83340,41.04183833,-71.33322833,181,497,2,2,1,4,2,1,2,4,H,,,,,,,,,,,,,,,,,,,,,,,,,,,,,,100.8,1500,100,,,,,,,,,,,,,,0.139798191
X,8,10,2023,752,83340,41.04183833,-71.33322833,181,497,2,2,1,4,2,1,2,4,H,,,,,,,,,,,,,,,,,,,,,,,,,,,,,,100.8,1500,100,,,,,,,,,,,,,,0
X,8,10,2023,753,83345,41.03949667,-71.33326333,180,497,2,2,1,4,2,1,2,4,H,,,,,,,,,,,,,,,,,,,,,,,,,,,,,,101.3,1500,100,,,,,,,,,,,,,,0.140603671
X,8,10,2023,754,83350,41.037145,-71.33324667,179,499,2,2,1,4,2,1,2,4,H,,,,,,,,,,,,,,,,,,,,,,,,,,,,,,101.3,1500,100,,,,,,,,,,,,,,0.141197159
X,8,10,2023,755,83355,41.034785,-71.33321,180,499,2,2,1,4,2,1,2,4,H,,,,,,,,,,,,,,,,,,,,,,,,,,,,,,102.6,1500,100,,,,,,,,,,,,,,0.141705209
X,8,10,2023,756,83400,41.03242167,-71.333225,180,498,2,2,1,4,2,1,2,4,H,,,,,,,,,,,,,,,,,,,,,,,,,,,,,,102.2,1500,100,,,,,,,,,,,,,,0.14189724
X,8,10,2023,757,83405,41.03005333,-71.33323667,180,502,2,2,1,4,2,1,2,4,H,,,,,,,,,,,,,,,,,,,,,,,,,,,,,,102.4,1500,100,,,,,,,,,,,,,,0.142196798
X,8,10,2023,758,83410,41.02770333,-71.333285,181,506,2,2,1,4,2,1,2,4,H,,,,,,,,,,,,,,,,,,,,,,,,,,,,,,100.3,1500,100,,,,,,,,,,,,,,0.141112056
P,8,10,2023,759,83414,41.02596966,-71.33334004,181,507,2,2,1,4,2,1,2,4,H,11,,,FV-T,1,,,1,9,0,,,,,,,,,,,,,,,,,,,,99.4,1500,100,,,,,,,,,,,,,,0.104120669
X,8,10,2023,760,83415,41.02539333,-71.33335833,181,508,2,2,1,4,2,1,2,4,H,,,,,,,,,,,,,,,,,,,,,,,,,,,,,,99.1,1500,100,,,,,,,,,,,,,,0.138733226
X,8,10,2023,761,83420,41.02307833,-71.33336333,180,506,2,2,1,4,2,1,2,4,H,,,,,,,,,,,,,,,,,,,,,,,,,,,,,,100.4,1500,100,,,,,,,,,,,,,,0.138993843
X,8,10,2023,762,83425,41.02074333,-71.33333667,179,502,2,2,1,4,2,1,2,4,H,,,,,,,,,,,,,,,,,,,,,,,,,,,,,,101.3,1500,100,,,,,,,,,,,,,,0.140199671
X,8,10,2023,763,83430,41.01836667,-71.33332667,180,499,2,2,1,4,2,1,2,4,H,,,,,,,,,,,,,,,,,,,,,,,,,,,,,,102.1,1500,100,,,,,,,,,,,,,,0.142696872
X,8,10,2023,764,83435,41.01600667,-71.33332333,179,499,2,2,1,4,2,1,2,4,H,,,,,,,,,,,,,,,,,,,,,,,,,,,,,,101.8,1500,100,,,,,,,,,,,,,,0.141695559
X,8,10,2023,765,83440,41.01366833,-71.33329167,180,502,2,2,1,4,2,1,2,4,H,,,,,,,,,,,,,,,,,,,,,,,,,,,,,,101,1500,100,,,,,,,,,,,,,,0.140401932
X,8,10,2023,766,83445,41.01133333,-71.3333,181,503,2,2,1,4,2,1,2,4,H,,,,,,,,,,,,,,,,,,,,,,,,,,,,,,100.9,1500,100,,,,,,,,,,,,,,0.140194976
X,8,10,2023,767,83450,41.009005,-71.33337167,182,502,2,2,1,4,2,1,2,4,H,,,,,,,,,,,,,,,,,,,,,,,,,,,,,,100.7,1500,100,,,,,,,,,,,,,,0.1398319
X,8,10,2023,768,83455,41.006655,-71.33339333,179,498,2,2,1,4,2,1,2,4,H,,,,,,,,,,,,,,,,,,,,,,,,,,,,,,101.4,1500,100,,,,,,,,,,,,,,0.141098489
S,8,10,2023,769,83457,41.00539737,-71.33338271,180,498,2,2,1,4,2,1,2,4,H,12,,35,FG-U,1,,,1,9,0,,,,,,,,,,,,,,,,,,,,101.7,1500,100,,,,,,,,,,,,,,0.07550995
X,8,10,2023,770,83500,41.00428667,-71.33337333,180,497,2,2,1,4,2,1,2,4,H,,,,,,,,,,,,,,,,,,,,,,,,,,,,,,102,1500,100,,,,,,,,,,,,,,0.142198704
X,8,10,2023,771,83505,41.00194,-71.33339667,180,498,2,2,1,4,2,1,2,4,H,,,,,,,,,,,,,,,,,,,,,,,,,,,,,,101.1,1500,100,,,,,,,,,,,,,,0.140898906
X,8,10,2023,772,83510,40.99959833,-71.333395,180,499,2,2,1,4,2,1,2,4,H,,,,,,,,,,,,,,,,,,,,,,,,,,,,,,100.7,1500,100,,,,,,,,,,,,,,0.140594757
X,8,10,2023,773,83510,40.99959833,-71.333395,180,499,2,2,1,4,2,1,2,4,H,,,,,,,,,,,,,,,,,,,,,,,,,,,,,,100.7,1500,100,,,,,,,,,,,,,,0
X,8,10,2023,774,83515,40.997255,-71.33341,181,498,2,2,1,4,2,1,2,4,H,,,,,,,,,,,,,,,,,,,,,,,,,,,,,,101.2,1500,100,,,,,,,,,,,,,,0.140696447
S,8,10,2023,775,83517,40.99638872,-71.33343022,181,497,2,2,1,4,2,1,2,4,H,13,,24,HUWH,1,,,2,3,0,,,,,,,,,,,,,,,,,,,,101.5,1500,100,,,,,,,,,,,,,,0.052020061
X,8,10,2023,776,83520,40.99489833,-71.333465,181,495,2,2,1,4,2,1,2,4,H,,,,,,,,,,,,,,,,,,,,,,,,,,,,,,102,1500,100,,,,,,,,,,,,,,0.141517293
X,8,10,2023,777,83525,40.99253,-71.33346333,179,494,2,2,1,4,2,1,2,4,H,,,,,,,,,,,,,,,,,,,,,,,,,,,,,,102.5,1500,100,,,,,,,,,,,,,,0.142195836
X,8,10,2023,778,83530,40.99016667,-71.333365,178,493,2,2,1,4,2,1,2,4,H,,,,,,,,,,,,,,,,,,,,,,,,,,,,,,102.3,1500,100,,,,,,,,,,,,,,0.141965575
S,8,10,2023,779,83535,40.98780333,-71.33325833,179,494,2,3,1,4,2,1,2,4,H,14,,,,,,,,,,,,,,,,,,,,,,,,,,,,,101.3,1500,100,,,,,,,,,,999 FOR HUWH IN EVENT 775,,,,0.141977938
X,8,10,2023,780,83540,40.98548,-71.33341833,191,494,4,-,1,4,,,2,4,H,,,,,,,,,,,,,,,,,,,,,,,,,,,,,,99.1,1500,100,,,,,,,,,,,,,,0.139682354
X,8,10,2023,781,83540,40.98548,-71.33341833,191,494,4,-,1,4,,,2,4,H,,,,,,,,,,,,,,,,,,,,,,,,,,,,,,99.1,1500,100,,,,,,,,,,,,,,0
X,8,10,2023,782,83544,40.98377513,-71.3344897,213,486,4,-,1,4,,,2,4,H,,,,,,,,,,,,,,,,,,,,,,,,,,,,,,100.7,1500,100,,,,,,,,,,,,,,0.11329461
X,8,10,2023,783,83545,40.98340333,-71.33472333,218,484,4,-,1,4,,,2,4,H,,,,,,,,,,,,,,,,,,,,,,,,,,,,,,101.1,1500,100,,,,,,,,,,,,,,0.138001949
X,8,10,2023,784,83547,40.98285437,-71.33559427,226,485,4,-,1,4,,,2,4,H,,,,,,,,,,,,,,,,,,,,,,,,,,,,,,101,1500,100,,,,,,,,,,,,,,0.051425779
X,8,10,2023,785,83550,40.9819,-71.33710833,241,487,4,-,1,4,,,2,4,H,,,,,,,,,,,,,,,,,,,,,,,,,,,,,,100.8,1500,100,,,,,,,,,,,,,,0.140828512
X,8,10,2023,786,83555,40.981465,-71.340035,274,499,4,-,1,4,,,2,4,H,,,,,,,,,,,,,,,,,,,,,,,,,,,,,,96.2,1500,100,,,,,,,,,,,,,,0.135199866
X,8,10,2023,787,83600,40.98223667,-71.34279667,302,501,4,-,1,4,,,2,4,H,,,,,,,,,,,,,,,,,,,,,,,,,,,,,,95.9,1500,100,,,,,,,,,,,,,,0.133473407
X,8,10,2023,788,83605,40.98396667,-71.34469,333,498,4,-,1,4,,,2,4,H,,,,,,,,,,,,,,,,,,,,,,,,,,,,,,97.3,1500,100,,,,,,,,,,,,,,0.134733651
X,8,10,2023,789,83610,40.98638833,-71.34509333,2,480,4,-,1,4,,,2,4,H,,,,,,,,,,,,,,,,,,,,,,,,,,,,,,106.7,1500,100,,,,,,,,,,,,,,0.146542634
X,8,10,2023,790,83615,40.98888667,-71.34476167,5,475,4,-,1,4,,,2,4,H,,,,,,,,,,,,,,,,,,,,,,,,,,,,,,108.6,1500,100,,,,,,,,,,,,,,0.150752359
X,8,10,2023,791,83620,40.99135667,-71.3445,4,489,4,-,1,4,,,2,4,H,,,,,,,,,,,,,,,,,,,,,,,,,,,,,,104.8,1500,100,,,,,,,,,,,,,,0.148773311
P,8,10,2023,792,83624,40.99340315,-71.34432803,3,505,4,-,1,4,,,2,4,H,15,,,SADO,40,,,2,3,4,,,,,,,,,,,,,,,,,,,,101.5,1500,100,,,,,,,,,,,,,,0.123118948
X,8,10,2023,793,83625,40.99373667,-71.3443,2,508,4,-,1,4,,,2,4,H,,,,,,,,,,,,,,,,,,,,,,,,,,,,,,101,1500,100,,,,,,,,,,,,,,0.143183445
X,8,10,2023,794,83630,40.99601167,-71.34430833,356,523,4,-,1,4,,,2,4,H,,,,,,,,,,,,,,,,,,,,,,,,,,,,,,96.4,1500,100,,,,,,,,,,,,,,0.136592562
X,8,10,2023,795,83635,40.99819333,-71.34492833,340,524,4,-,1,4,,,2,4,H,,,,,,,,,,,,,,,,,,,,,,,,,,,,,,96.8,1500,100,,,,,,,,,,,,,,0.133967439
X,8,10,2023,796,83640,41.00018167,-71.346485,320,508,4,-,1,4,,,2,4,H,,,,,,,,,,,,,,,,,,,,,,,,,,,,,,102.9,1500,100,,,,,,,,,,,,,,0.138662678
X,8,10,2023,797,83640,41.00018167,-71.346485,320,508,4,-,1,4,,,2,4,H,,,,,,,,,,,,,,,,,,,,,,,,,,,,,,102.9,1500,100,,,,,,,,,,,,,,0
X,8,10,2023,798,83645,41.001485,-71.34903,291,504,4,-,1,4,,,2,4,H,,,,,,,,,,,,,,,,,,,,,,,,,,,,,,100.7,1500,100,,,,,,,,,,,,,,0.139363858
X,8,10,2023,799,83650,41.00178167,-71.35211833,266,503,4,-,1,4,,,2,4,H,,,,,,,,,,,,,,,,,,,,,,,,,,,,,,102.1,1500,100,,,,,,,,,,,,,,0.141067556
X,8,10,2023,800,83655,41.00111167,-71.355145,243,499,4,-,1,4,,,2,4,H,,,,,,,,,,,,,,,,,,,,,,,,,,,,,,103.6,1500,100,,,,,,,,,,,,,,0.142922633
X,8,10,2023,801,83700,40.99948333,-71.35754167,215,494,4,-,1,4,,,2,4,H,,,,,,,,,,,,,,,,,,,,,,,,,,,,,,105.7,1500,100,,,,,,,,,,,,,,0.146123615
X,8,10,2023,802,83705,40.997245,-71.35882667,192,501,4,-,1,4,,,2,4,H,,,,,,,,,,,,,,,,,,,,,,,,,,,,,,104.1,1500,100,,,,,,,,,,,,,,0.146463011
X,8,10,2023,803,83710,40.99484667,-71.35885,169,511,4,-,1,4,,,2,4,H,,,,,,,,,,,,,,,,,,,,,,,,,,,,,,104.1,1500,100,,,,,,,,,,,,,,0.144000912
X,8,10,2023,804,83710,40.99484667,-71.35885,169,511,4,-,1,4,,,2,4,H,,,,,,,,,,,,,,,,,,,,,,,,,,,,,,104.1,1500,100,,,,,,,,,,,,,,0
X,8,10,2023,805,83715,40.99259333,-71.357585,146,511,4,-,1,4,,,2,4,H,,,,,,,,,,,,,,,,,,,,,,,,,,,,,,106.9,1500,100,,,,,,,,,,,,,,0.146935467
X,8,10,2023,806,83720,40.99079667,-71.355305,127,510,4,-,1,4,,,2,4,H,,,,,,,,,,,,,,,,,,,,,,,,,,,,,,108.5,1500,100,,,,,,,,,,,,,,0.149375252
X,8,10,2023,807,83725,40.98968,-71.352335,108,512,4,-,1,4,,,2,4,H,,,,,,,,,,,,,,,,,,,,,,,,,,,,,,108.4,1500,100,,,,,,,,,,,,,,0.150373463
X,8,10,2023,808,83730,40.98938333,-71.34907333,86,518,4,-,1,4,,,2,4,H,,,,,,,,,,,,,,,,,,,,,,,,,,,,,,107.8,1500,100,,,,,,,,,,,,,,0.148889015
X,8,10,2023,809,83735,40.98995167,-71.34589667,68,522,4,-,1,4,,,2,4,H,,,,,,,,,,,,,,,,,,,,,,,,,,,,,,107.1,1500,100,,,,,,,,,,,,,,0.147955853
X,8,10,2023,810,83740,40.99128667,-71.34312333,49,520,4,-,1,4,,,2,4,H,,,,,,,,,,,,,,,,,,,,,,,,,,,,,,108.2,1500,100,,,,,,,,,,,,,,0.149069432
X,8,10,2023,811,83745,40.993315,-71.34121167,19,512,4,-,1,4,,,2,4,H,,,,,,,,,,,,,,,,,,,,,,,,,,,,,,108.9,1500,100,,,,,,,,,,,,,,0.149453217
X,8,10,2023,812,83750,40.99588,-71.341095,349,492,4,-,1,4,,,2,4,H,,,,,,,,,,,,,,,,,,,,,,,,,,,,,,114.2,1500,100,,,,,,,,,,,,,,0.154094497
X,8,10,2023,813,83755,40.99832167,-71.34243833,328,489,4,-,1,4,,,2,4,H,,,,,,,,,,,,,,,,,,,,,,,,,,,,,,113.3,1500,100,,,,,,,,,,,,,,0.158734874
X,8,10,2023,814,83800,41.00035333,-71.344425,321,507,4,-,1,4,,,2,4,H,,,,,,,,,,,,,,,,,,,,,,,,,,,,,,106.7,1500,100,,,,,,,,,,,,,,0.151604046
X,8,10,2023,815,83805,41.002125,-71.346635,312,515,4,-,1,4,,,2,4,H,,,,,,,,,,,,,,,,,,,,,,,,,,,,,,104.7,1500,100,,,,,,,,,,,,,,0.146092336
X,8,10,2023,816,83810,41.003635,-71.34914167,305,516,4,-,1,4,,,2,4,H,,,,,,,,,,,,,,,,,,,,,,,,,,,,,,104.7,1500,100,,,,,,,,,,,,,,0.145326618
X,8,10,2023,817,83810,41.003635,-71.34914167,305,516,4,-,1,4,,,2,4,H,,,,,,,,,,,,,,,,,,,,,,,,,,,,,,104.7,1500,100,,,,,,,,,,,,,,0
X,8,10,2023,818,83815,41.00468,-71.35201,282,507,4,-,1,4,,,2,4,H,,,,,,,,,,,,,,,,,,,,,,,,,,,,,,106.1,1500,100,,,,,,,,,,,,,,0.14431725
X,8,10,2023,819,83820,41.00436167,-71.35523667,248,494,4,-,1,4,,,2,4,H,,,,,,,,,,,,,,,,,,,,,,,,,,,,,,108.1,1500,100,,,,,,,,,,,,,,0.147444295
P,8,10,2023,820,83824,41.00287755,-71.35707912,211,495,4,-,1,4,,,2,4,H,16,,,,,,,,,,,,,,,,,,,,,,,,,,,,,107.3,1500,100,,,,,,,,,,EXACT POSITION OF HUWH IN EVENT 775,,,,0.122104038
X,8,10,2023,821,83825,41.00256,-71.35747333,204,495,4,-,1,4,,,2,4,H,,,,,,,,,,,,,,,,,,,,,,,,,,,,,,107.2,1500,100,,,,,,,,,,,,,,0.148230168
X,8,10,2023,822,83830,41.000105,-71.35768833,165,503,4,-,1,4,,,2,4,H,,,,,,,,,,,,,,,,,,,,,,,,,,,,,,105.7,1500,100,,,,,,,,,,,,,,0.147720916
X,8,10,2023,823,83835,40.99809,-71.35586833,132,511,4,-,1,4,,,2,4,H,,,,,,,,,,,,,,,,,,,,,,,,,,,,,,106.1,1500,100,,,,,,,,,,,,,,0.146417185
X,8,10,2023,824,83840,40.99735667,-71.352765,92,511,4,-,1,4,,,2,4,H,,,,,,,,,,,,,,,,,,,,,,,,,,,,,,106.3,1500,100,,,,,,,,,,,,,,0.147358184
X,8,10,2023,825,83840,40.99735667,-71.352765,92,511,4,-,1,4,,,2,4,H,,,,,,,,,,,,,,,,,,,,,,,,,,,,,,106.3,1500,100,,,,,,,,,,,,,,0
X,8,10,2023,826,83845,40.99796333,-71.34963167,62,514,4,-,1,4,,,2,4,H,,,,,,,,,,,,,,,,,,,,,,,,,,,,,,106.1,1500,100,,,,,,,,,,,,,,0.146583777
X,8,10,2023,827,83850,40.99964833,-71.34734833,35,518,4,-,1,4,,,2,4,H,,,,,,,,,,,,,,,,,,,,,,,,,,,,,,103.2,1500,100,,,,,,,,,,,,,,0.144707907
X,8,10,2023,828,83855,41.001885,-71.34623167,7,512,4,-,1,4,,,2,4,H,,,,,,,,,,,,,,,,,,,,,,,,,,,,,,104.8,1500,100,,,,,,,,,,,,,,0.143506792
X,8,10,2023,829,83900,41.004265,-71.346685,337,506,4,-,1,4,,,2,4,H,,,,,,,,,,,,,,,,,,,,,,,,,,,,,,105.2,1500,100,,,,,,,,,,,,,,0.144365097
X,8,10,2023,830,83905,41.00612333,-71.34864,308,511,4,-,1,4,,,2,4,H,,,,,,,,,,,,,,,,,,,,,,,,,,,,,,102.3,1500,100,,,,,,,,,,,,,,0.142462148
X,8,10,2023,831,83910,41.00683667,-71.35149167,271,519,4,-,1,4,,,2,4,H,,,,,,,,,,,,,,,,,,,,,,,,,,,,,,97.9,1500,100,,,,,,,,,,,,,,0.136118656
X,8,10,2023,832,83915,41.00618667,-71.35434333,241,513,4,-,1,4,,,2,4,H,,,,,,,,,,,,,,,,,,,,,,,,,,,,,,98.9,1500,100,,,,,,,,,,,,,,0.134970416
X,8,10,2023,833,83920,41.00422,-71.35611167,198,500,4,-,1,4,,,2,4,H,,,,,,,,,,,,,,,,,,,,,,,,,,,,,,104.7,1500,100,,,,,,,,,,,,,,0.142696795
X,8,10,2023,834,83925,41.00177333,-71.356125,164,497,4,-,1,4,,,2,4,H,,,,,,,,,,,,,,,,,,,,,,,,,,,,,,106.8,1500,100,,,,,,,,,,,,,,0.146900228
X,8,10,2023,835,83930,40.99965,-71.35439167,135,504,4,-,1,4,,,2,4,H,,,,,,,,,,,,,,,,,,,,,,,,,,,,,,107.4,1500,100,,,,,,,,,,,,,,0.149738043
P,8,10,2023,836,83934,40.99882585,-71.35219975,111,503,4,-,1,4,,,2,4,H,17,,,FIWH,2,,,2,3,0,,,,,,,,,,,,,,,,,,,,106.3,1500,100,,,,,,,,,,"NOT ASSOCIATED, EXACT POSITION",,,,0.110967202
X,8,10,2023,837,83935,40.99855333,-71.351475,102,503,4,-,1,4,,,2,4,H,,,,,,,,,,,,,,,,,,,,,,,,,,,,,,106,1500,100,,,,,,,,,,,,,,0.14765865
X,8,10,2023,838,83940,40.998815,-71.34822167,70,501,4,-,1,4,,,2,4,H,,,,,,,,,,,,,,,,,,,,,,,,,,,,,,107.7,1500,100,,,,,,,,,,,,,,0.148256357
X,8,10,2023,839,83945,41.00036333,-71.34563167,36,501,4,-,1,4,,,2,4,H,,,,,,,,,,,,,,,,,,,,,,,,,,,,,,108.5,1500,100,,,,,,,,,,,,,,0.149719127
X,8,10,2023,840,83950,41.00268667,-71.34453167,4,492,4,-,1,4,,,2,4,H,,,,,,,,,,,,,,,,,,,,,,,,,,,,,,108.2,1500,100,,,,,,,,,,,,,,0.148131448
X,8,10,2023,841,83955,41.00510333,-71.34535,329,485,4,-,1,4,,,2,4,H,,,,,,,,,,,,,,,,,,,,,,,,,,,,,,110.5,1500,100,,,,,,,,,,,,,,0.149760536
X,8,10,2023,842,84000,41.006755,-71.3477,300,494,4,-,1,4,,,2,4,H,,,,,,,,,,,,,,,,,,,,,,,,,,,,,,103.3,1500,100,,,,,,,,,,,,,,0.145503419
X,8,10,2023,843,84005,41.00748833,-71.35064667,279,506,4,-,1,4,,,2,4,H,,,,,,,,,,,,,,,,,,,,,,,,,,,,,,100.2,1500,100,,,,,,,,,,,,,,0.140581117
X,8,10,2023,844,84010,41.00737333,-71.35367,257,507,4,-,1,4,,,2,4,H,,,,,,,,,,,,,,,,,,,,,,,,,,,,,,99.6,1500,100,,,,,,,,,,,,,,0.137155091
X,8,10,2023,845,84010,41.00737333,-71.35367,257,507,4,-,1,4,,,2,4,H,,,,,,,,,,,,,,,,,,,,,,,,,,,,,,99.6,1500,100,,,,,,,,,,,,,,0
X,8,10,2023,846,84015,41.006405,-71.35645667,235,502,4,-,1,4,,,2,4,H,,,,,,,,,,,,,,,,,,,,,,,,,,,,,,101.3,1500,100,,,,,,,,,,,,,,0.139002093
X,8,10,2023,847,84020,41.00463833,-71.358505,208,496,4,-,1,4,,,2,4,H,,,,,,,,,,,,,,,,,,,,,,,,,,,,,,103.9,1500,100,,,,,,,,,,,,,,0.140941793
X,8,10,2023,848,84025,41.00228167,-71.35918667,179,488,4,-,1,4,,,2,4,H,,,,,,,,,,,,,,,,,,,,,,,,,,,,,,103.6,1500,100,,,,,,,,,,,,,,0.144827234
X,8,10,2023,849,84030,41.00001167,-71.35779667,139,494,4,-,1,4,,,2,4,H,,,,,,,,,,,,,,,,,,,,,,,,,,,,,,107.5,1500,100,,,,,,,,,,,,,,0.150141483
X,8,10,2023,850,84035,40.99868667,-71.355045,108,497,4,-,1,4,,,2,4,H,,,,,,,,,,,,,,,,,,,,,,,,,,,,,,106,1500,100,,,,,,,,,,,,,,0.14790478
X,8,10,2023,851,84040,40.99892167,-71.35173833,70,488,4,-,1,4,,,2,4,H,,,,,,,,,,,,,,,,,,,,,,,,,,,,,,109.3,1500,100,,,,,,,,,,,,,,0.150500908
X,8,10,2023,852,84040,40.99892167,-71.35173833,70,488,4,-,1,4,,,2,4,H,,,,,,,,,,,,,,,,,,,,,,,,,,,,,,109.3,1500,100,,,,,,,,,,,,,,0
X,8,10,2023,853,84045,41.00044333,-71.34905333,42,484,4,-,1,4,,,2,4,H,,,,,,,,,,,,,,,,,,,,,,,,,,,,,,111.1,1500,100,,,,,,,,,,,,,,0.152149989
X,8,10,2023,854,84050,41.00259333,-71.34713167,27,479,4,-,1,4,,,2,4,H,,,,,,,,,,,,,,,,,,,,,,,,,,,,,,112.4,1500,100,,,,,,,,,,,,,,0.155709504
X,8,10,2023,855,84055,41.005075,-71.34642333,356,487,4,-,1,4,,,2,4,H,,,,,,,,,,,,,,,,,,,,,,,,,,,,,,107.9,1500,100,,,,,,,,,,,,,,0.152417858
X,8,10,2023,856,84100,41.00725667,-71.34753667,323,507,4,-,1,4,,,2,4,H,,,,,,,,,,,,,,,,,,,,,,,,,,,,,,98.9,1500,100,,,,,,,,,,,,,,0.140365629
X,8,10,2023,857,84105,41.00846667,-71.34994167,288,510,4,-,1,4,,,2,4,H,,,,,,,,,,,,,,,,,,,,,,,,,,,,,,94.4,1500,100,,,,,,,,,,,,,,0.13096277
X,8,10,2023,858,84110,41.00842167,-71.35284167,255,500,4,-,1,4,,,2,4,H,,,,,,,,,,,,,,,,,,,,,,,,,,,,,,97.3,1500,100,,,,,,,,,,,,,,0.131418953
X,8,10,2023,859,84115,41.006965,-71.35518333,212,483,4,-,1,4,,,2,4,H,,,,,,,,,,,,,,,,,,,,,,,,,,,,,,102.7,1500,100,,,,,,,,,,,,,,0.137496857
X,8,10,2023,860,84120,41.004585,-71.35594167,179,471,4,-,1,4,,,2,4,H,,,,,,,,,,,,,,,,,,,,,,,,,,,,,,104.2,1500,100,,,,,,,,,,,,,,0.146969111
X,8,10,2023,861,84125,41.00222667,-71.35488667,147,486,4,-,1,4,,,2,4,H,,,,,,,,,,,,,,,,,,,,,,,,,,,,,,106.1,1500,100,,,,,,,,,,,,,,0.149446893
X,8,10,2023,862,84130,41.00064,-71.35247167,118,497,4,-,1,4,,,2,4,H,,,,,,,,,,,,,,,,,,,,,,,,,,,,,,103.8,1500,100,,,,,,,,,,,,,,0.145085917
X,8,10,2023,863,84135,41.000245,-71.349355,85,495,4,-,1,4,,,2,4,H,,,,,,,,,,,,,,,,,,,,,,,,,,,,,,103.5,1500,100,,,,,,,,,,,,,,0.14320238
X,8,10,2023,864,84140,41.001,-71.34642667,58,501,4,-,1,4,,,2,4,H,,,,,,,,,,,,,,,,,,,,,,,,,,,,,,100.4,1500,100,,,,,,,,,,,,,,0.140220049
X,8,10,2023,865,84145,41.00272833,-71.34445333,26,509,4,-,1,4,,,2,4,H,,,,,,,,,,,,,,,,,,,,,,,,,,,,,,98.1,1500,100,,,,,,,,,,,,,,0.136979194
X,8,10,2023,866,84150,41.00491833,-71.343945,356,516,4,-,1,4,,,2,4,H,,,,,,,,,,,,,,,,,,,,,,,,,,,,,,95.1,1500,100,,,,,,,,,,,,,,0.133490686
X,8,10,2023,867,84155,41.006975,-71.34493,327,519,4,-,1,4,,,2,4,H,,,,,,,,,,,,,,,,,,,,,,,,,,,,,,94.2,1500,100,,,,,,,,,,,,,,0.13130074
X,8,10,2023,868,84200,41.00844667,-71.34703167,300,516,4,-,1,4,,,2,4,H,,,,,,,,,,,,,,,,,,,,,,,,,,,,,,94.1,1500,100,,,,,,,,,,,,,,0.129902347
X,8,10,2023,869,84205,41.00903333,-71.34981667,273,511,4,-,1,4,,,2,4,H,,,,,,,,,,,,,,,,,,,,,,,,,,,,,,96.1,1500,100,,,,,,,,,,,,,,0.131004474
X,8,10,2023,870,84210,41.008615,-71.35271,247,505,4,-,1,4,,,2,4,H,,,,,,,,,,,,,,,,,,,,,,,,,,,,,,97.7,1500,100,,,,,,,,,,,,,,0.133472924
X,8,10,2023,871,84210,41.008615,-71.35271,247,505,4,-,1,4,,,2,4,H,,,,,,,,,,,,,,,,,,,,,,,,,,,,,,97.7,1500,100,,,,,,,,,,,,,,0
X,8,10,2023,872,84215,41.0072,-71.355045,218,501,4,-,1,4,,,2,4,H,,,,,,,,,,,,,,,,,,,,,,,,,,,,,,98.8,1500,100,,,,,,,,,,,,,,0.135683382
X,8,10,2023,873,84220,41.005025,-71.35613667,186,498,4,-,1,4,,,2,4,H,,,,,,,,,,,,,,,,,,,,,,,,,,,,,,102.6,1500,100,,,,,,,,,,,,,,0.139641454
X,8,10,2023,874,84225,41.00269,-71.35558167,154,495,4,-,1,4,,,2,4,H,,,,,,,,,,,,,,,,,,,,,,,,,,,,,,105.5,1500,100,,,,,,,,,,,,,,0.142432003
X,8,10,2023,875,84230,41.00090333,-71.35341833,123,497,4,-,1,4,,,2,4,H,,,,,,,,,,,,,,,,,,,,,,,,,,,,,,105.6,1500,100,,,,,,,,,,,,,,0.14531408
X,8,10,2023,876,84235,41.00022333,-71.35035833,93,504,4,-,1,4,,,2,4,H,,,,,,,,,,,,,,,,,,,,,,,,,,,,,,104.1,1500,100,,,,,,,,,,,,,,0.144542827
X,8,10,2023,877,84240,41.000745,-71.34729833,65,510,4,-,1,4,,,2,4,H,,,,,,,,,,,,,,,,,,,,,,,,,,,,,,102.7,1500,100,,,,,,,,,,,,,,0.142150628
X,8,10,2023,878,84240,41.000745,-71.34729833,65,510,4,-,1,4,,,2,4,H,,,,,,,,,,,,,,,,,,,,,,,,,,,,,,102.7,1500,100,,,,,,,,,,,,,,0
X,8,10,2023,879,84245,41.00226667,-71.34483167,39,504,4,-,1,4,,,2,4,H,,,,,,,,,,,,,,,,,,,,,,,,,,,,,,105.8,1500,100,,,,,,,,,,,,,,0.144358646
X,8,10,2023,880,84250,41.00449333,-71.34343167,12,495,4,-,1,4,,,2,4,H,,,,,,,,,,,,,,,,,,,,,,,,,,,,,,108,1500,100,,,,,,,,,,,,,,0.14797652
X,8,10,2023,881,84255,41.00694667,-71.34348833,345,500,4,-,1,4,,,2,4,H,,,,,,,,,,,,,,,,,,,,,,,,,,,,,,104.3,1500,100,,,,,,,,,,,,,,0.14732163
X,8,10,2023,882,84300,41.009005,-71.34498667,318,508,4,-,1,4,,,2,4,H,,,,,,,,,,,,,,,,,,,,,,,,,,,,,,100.6,1500,100,,,,,,,,,,,,,,0.14100115
P,8,10,2023,883,84304,41.01016187,-71.34733465,292,511,4,-,1,4,,,2,4,H,18,,,MIWH,1,,,1,3,0,,,,,,,,,,,,,,,,,,,,97.8,1500,100,,,,,,,,,,EXACT POSITION,,,,0.12704723
X,8,10,2023,884,84305,41.01024333,-71.3475,290,512,4,-,1,4,,,2,4,H,,,,,,,,,,,,,,,,,,,,,,,,,,,,,,97.6,1500,100,,,,,,,,,,,,,,0.135994065
X,8,10,2023,885,84310,41.01033,-71.35045,258,510,4,-,1,4,,,2,4,H,,,,,,,,,,,,,,,,,,,,,,,,,,,,,,98.3,1500,100,,,,,,,,,,,,,,0.133754061
X,8,10,2023,886,84315,41.00923167,-71.35308833,225,500,4,-,1,4,,,2,4,H,,,,,,,,,,,,,,,,,,,,,,,,,,,,,,100.8,1500,100,,,,,,,,,,,,,,0.136516989
X,8,10,2023,887,84320,41.00716667,-71.35448333,189,500,4,-,1,4,,,2,4,H,,,,,,,,,,,,,,,,,,,,,,,,,,,,,,102.2,1500,100,,,,,,,,,,,,,,0.13916413
X,8,10,2023,888,84325,41.004825,-71.35408,156,502,4,-,1,4,,,2,4,H,,,,,,,,,,,,,,,,,,,,,,,,,,,,,,103.5,1500,100,,,,,,,,,,,,,,0.141777438
X,8,10,2023,889,84330,41.00302167,-71.35204833,125,506,4,-,1,4,,,2,4,H,,,,,,,,,,,,,,,,,,,,,,,,,,,,,,103.8,1500,100,,,,,,,,,,,,,,0.142117122
X,8,10,2023,890,84335,41.00225,-71.34898167,98,499,4,-,1,4,,,2,4,H,,,,,,,,,,,,,,,,,,,,,,,,,,,,,,106.9,1500,100,,,,,,,,,,,,,,0.146475166
X,8,10,2023,891,84340,41.00214333,-71.34573667,86,506,4,-,1,4,,,2,4,H,,,,,,,,,,,,,,,,,,,,,,,,,,,,,,105.4,1500,100,,,,,,,,,,,,,,0.147175543
X,8,10,2023,892,84345,41.00265833,-71.34260333,69,510,4,-,1,4,,,2,4,H,,,,,,,,,,,,,,,,,,,,,,,,,,,,,,105.4,1500,100,,,,,,,,,,,,,,0.145304007
X,8,10,2023,893,84350,41.00401833,-71.340025,40,515,4,-,1,4,,,2,4,H,,,,,,,,,,,,,,,,,,,,,,,,,,,,,,102.2,1500,100,,,,,,,,,,,,,,0.142534016
X,8,10,2023,894,84355,41.00610667,-71.338765,11,522,4,-,1,4,,,2,4,H,,,,,,,,,,,,,,,,,,,,,,,,,,,,,,98.8,1500,100,,,,,,,,,,,,,,0.137769927
X,8,10,2023,895,84400,41.0084,-71.33892667,344,517,4,-,1,4,,,2,4,H,,,,,,,,,,,,,,,,,,,,,,,,,,,,,,99.2,1500,100,,,,,,,,,,,,,,0.137887472
X,8,10,2023,896,84405,41.01045667,-71.34045,319,511,4,-,1,4,,,2,4,H,,,,,,,,,,,,,,,,,,,,,,,,,,,,,,101.8,1500,100,,,,,,,,,,,,,,0.141461873
X,8,10,2023,897,84410,41.01183167,-71.34291333,296,515,4,-,1,4,,,2,4,H,,,,,,,,,,,,,,,,,,,,,,,,,,,,,,99.1,1500,100,,,,,,,,,,,,,,0.138818338
X,8,10,2023,898,84415,41.012295,-71.345855,270,521,4,-,1,4,,,2,4,H,,,,,,,,,,,,,,,,,,,,,,,,,,,,,,97.9,1500,100,,,,,,,,,,,,,,0.136144108
X,8,10,2023,899,84420,41.01183667,-71.34874333,247,522,4,-,1,4,,,2,4,H,,,,,,,,,,,,,,,,,,,,,,,,,,,,,,97,1500,100,,,,,,,,,,,,,,0.133717634
X,8,10,2023,900,84425,41.01038667,-71.35101333,215,511,4,-,1,4,,,2,4,H,,,,,,,,,,,,,,,,,,,,,,,,,,,,,,100.9,1500,100,,,,,,,,,,,,,,0.134744122
P,8,10,2023,901,84429,41.00854153,-71.35173547,190,495,4,-,1,4,,,2,4,H,19,,,MIWH,1,,,1,3,0,,,,,,,,,,,,,,,,,,,,107,1500,100,,,,,,,,,,EXACT POSITION,,,,0.115513281
X,8,10,2023,902,84430,41.00807,-71.35192,183,491,4,-,1,4,,,2,4,H,,,,,,,,,,,,,,,,,,,,,,,,,,,,,,108.6,1500,100,,,,,,,,,,,,,,0.145032677
X,8,10,2023,903,84435,41.00560333,-71.35169833,167,481,4,-,1,4,,,2,4,H,,,,,,,,,,,,,,,,,,,,,,,,,,,,,,104.8,1500,100,,,,,,,,,,,,,,0.148439948
X,8,10,2023,904,84440,41.00331,-71.35033833,145,501,4,-,1,4,,,2,4,H,,,,,,,,,,,,,,,,,,,,,,,,,,,,,,105.7,1500,100,,,,,,,,,,,,,,0.15085268
X,8,10,2023,905,84440,41.00331,-71.35033833,145,501,4,-,1,4,,,2,4,H,,,,,,,,,,,,,,,,,,,,,,,,,,,,,,105.7,1500,100,,,,,,,,,,,,,,0
X,8,10,2023,906,84445,41.001785,-71.34790333,117,520,4,-,1,4,,,2,4,H,,,,,,,,,,,,,,,,,,,,,,,,,,,,,,102.4,1500,100,,,,,,,,,,,,,,0.143376948
X,8,10,2023,907,84450,41.00145,-71.34478333,84,522,4,-,1,4,,,2,4,H,,,,,,,,,,,,,,,,,,,,,,,,,,,,,,104,1500,100,,,,,,,,,,,,,,0.142797063
X,8,10,2023,908,84455,41.00227833,-71.34171833,59,513,4,-,1,4,,,2,4,H,,,,,,,,,,,,,,,,,,,,,,,,,,,,,,108.2,1500,100,,,,,,,,,,,,,,0.147517065
X,8,10,2023,909,84500,41.00401833,-71.33926833,35,497,4,-,1,4,,,2,4,H,,,,,,,,,,,,,,,,,,,,,,,,,,,,,,112,1500,100,,,,,,,,,,,,,,0.152439122
X,8,10,2023,910,84505,41.00642833,-71.33798,10,499,4,-,1,4,,,2,4,H,,,,,,,,,,,,,,,,,,,,,,,,,,,,,,110,1500,100,,,,,,,,,,,,,,0.156028405
X,8,10,2023,911,84510,41.00885167,-71.338165,343,520,4,-,1,4,,,2,4,H,,,,,,,,,,,,,,,,,,,,,,,,,,,,,,101.8,1500,100,,,,,,,,,,,,,,0.145739278
X,8,10,2023,912,84515,41.01080833,-71.33969,316,530,4,-,1,4,,,2,4,H,,,,,,,,,,,,,,,,,,,,,,,,,,,,,,98.1,1500,100,,,,,,,,,,,,,,0.136290436
X,8,10,2023,913,84520,41.01177833,-71.34234667,277,514,4,-,1,4,,,2,4,H,,,,,,,,,,,,,,,,,,,,,,,,,,,,,,100.9,1500,100,,,,,,,,,,,,,,0.133710983
X,8,10,2023,914,84525,41.011215,-71.34546833,244,477,4,-,1,4,,,2,4,H,,,,,,,,,,,,,,,,,,,,,,,,,,,,,,110.2,1500,100,,,,,,,,,,,,,,0.145415913
X,8,10,2023,915,84530,41.00970333,-71.348255,227,476,4,-,1,4,,,2,4,H,,,,,,,,,,,,,,,,,,,,,,,,,,,,,,109.6,1500,100,,,,,,,,,,,,,,0.155490445
X,8,10,2023,916,84535,41.00765667,-71.349885,195,508,4,-,1,4,,,2,4,H,,,,,,,,,,,,,,,,,,,,,,,,,,,,,,99.3,1500,100,,,,,,,,,,,,,,0.143367011
X,8,10,2023,917,84540,41.00543667,-71.34965,159,526,4,-,1,4,,,2,4,H,,,,,,,,,,,,,,,,,,,,,,,,,,,,,,97.3,1500,100,,,,,,,,,,,,,,0.133714414
X,8,10,2023,918,84540,41.00543667,-71.34965,159,526,4,-,1,4,,,2,4,H,,,,,,,,,,,,,,,,,,,,,,,,,,,,,,97.3,1500,100,,,,,,,,,,,,,,0
X,8,10,2023,919,84545,41.003575,-71.347885,132,522,4,-,1,4,,,2,4,H,,,,,,,,,,,,,,,,,,,,,,,,,,,,,,102.5,1500,100,,,,,,,,,,,,,,0.137438238
X,8,10,2023,920,84550,41.00250667,-71.34500667,105,511,4,-,1,4,,,2,4,H,,,,,,,,,,,,,,,,,,,,,,,,,,,,,,107.6,1500,100,,,,,,,,,,,,,,0.145340238
X,8,10,2023,921,84555,41.00249333,-71.34166667,79,504,4,-,1,4,,,2,4,H,,,,,,,,,,,,,,,,,,,,,,,,,,,,,,111,1500,100,,,,,,,,,,,,,,0.151342158
S,8,10,2023,922,84558,41.00320782,-71.3396965,62,505,4,-,1,4,,,2,4,H,20,,,FIWH,1,,,1,3,0,,,,,,,,,,,,,,,,,,,,110.6,1500,100,,,,,,,,,,EXACT POSITION,,,,0.099042698
X,8,10,2023,923,84600,41.0036,-71.338615,52,505,4,-,1,4,,,2,4,H,,,,,,,,,,,,,,,,,,,,,,,,,,,,,,110.4,1500,100,,,,,,,,,,,,,,0.15341003
X,8,10,2023,924,84605,41.00560667,-71.33658333,25,506,4,-,1,4,,,2,4,H,,,,,,,,,,,,,,,,,,,,,,,,,,,,,,109.9,1500,100,,,,,,,,,,,,,,0.151623823
X,8,10,2023,925,84610,41.00806833,-71.33599167,358,505,4,-,1,4,,,2,4,H,,,,,,,,,,,,,,,,,,,,,,,,,,,,,,107.9,1500,100,,,,,,,,,,,,,,0.150211052
X,8,10,2023,926,84610,41.00806833,-71.33599167,358,505,4,-,1,4,,,2,4,H,,,,,,,,,,,,,,,,,,,,,,,,,,,,,,107.9,1500,100,,,,,,,,,,,,,,0
X,8,10,2023,927,84615,41.01048167,-71.33681167,334,505,4,-,1,4,,,2,4,H,,,,,,,,,,,,,,,,,,,,,,,,,,,,,,106.4,1500,100,,,,,,,,,,,,,,0.149584627
X,8,10,2023,928,84620,41.01240833,-71.338805,311,506,4,-,1,4,,,2,4,H,,,,,,,,,,,,,,,,,,,,,,,,,,,,,,105.9,1500,100,,,,,,,,,,,,,,0.146754906
X,8,10,2023,929,84625,41.01349667,-71.34161667,285,512,4,-,1,4,,,2,4,H,,,,,,,,,,,,,,,,,,,,,,,,,,,,,,102.7,1500,100,,,,,,,,,,,,,,0.1431628
X,8,10,2023,930,84630,41.01361667,-71.34470167,261,516,4,-,1,4,,,2,4,H,,,,,,,,,,,,,,,,,,,,,,,,,,,,,,101.2,1500,100,,,,,,,,,,,,,,0.139947768
X,8,10,2023,931,84635,41.01274333,-71.34756833,241,513,4,-,1,4,,,2,4,H,,,,,,,,,,,,,,,,,,,,,,,,,,,,,,101.8,1500,100,,,,,,,,,,,,,,0.140057475
X,8,10,2023,932,84640,41.01148833,-71.35024333,237,507,4,-,1,4,,,2,4,H,,,,,,,,,,,,,,,,,,,,,,,,,,,,,,104.7,1500,100,,,,,,,,,,,,,,0.142705372
P,8,10,2023,933,84644,41.01027797,-71.35270935,235,498,4,-,1,4,,,2,4,H,21,,,FIWH,3,,,2,3,0,,,,,,,,,,,,,,,,,,,,107.3,1500,100,,,,,,,,,,EXACT POSITION,,,,0.133279338
X,8,10,2023,934,84645,41.01015167,-71.35296667,235,497,4,-,1,4,,,2,4,H,,,,,,,,,,,,,,,,,,,,,,,,,,,,,,107.6,1500,100,,,,,,,,,,,,,,0.147186762
X,8,10,2023,935,84650,41.00833833,-71.35522667,208,497,4,-,1,4,,,2,4,H,,,,,,,,,,,,,,,,,,,,,,,,,,,,,,107.7,1500,100,,,,,,,,,,,,,,0.149458317
X,8,10,2023,936,84655,41.00587667,-71.35571333,171,498,4,-,1,4,,,2,4,H,,,,,,,,,,,,,,,,,,,,,,,,,,,,,,109.3,1500,100,,,,,,,,,,,,,,0.149435344
X,8,10,2023,937,84700,41.00363333,-71.35403833,136,492,4,-,1,4,,,2,4,H,,,,,,,,,,,,,,,,,,,,,,,,,,,,,,115.1,1500,100,,,,,,,,,,,,,,0.154601089
X,8,10,2023,938,84705,41.00252833,-71.35088167,99,492,4,-,1,4,,,2,4,H,,,,,,,,,,,,,,,,,,,,,,,,,,,,,,114,1500,100,,,,,,,,,,,,,,0.157669543
X,8,10,2023,939,84710,41.00292167,-71.347555,66,507,4,-,1,4,,,2,4,H,,,,,,,,,,,,,,,,,,,,,,,,,,,,,,108.4,1500,100,,,,,,,,,,,,,,0.152574128
X,8,10,2023,940,84710,41.00292167,-71.347555,66,507,4,-,1,4,,,2,4,H,,,,,,,,,,,,,,,,,,,,,,,,,,,,,,108.4,1500,100,,,,,,,,,,,,,,0
X,8,10,2023,941,84715,41.004555,-71.34511833,33,515,4,-,1,4,,,2,4,H,,,,,,,,,,,,,,,,,,,,,,,,,,,,,,107,1500,100,,,,,,,,,,,,,,0.147670547
P,8,10,2023,942,84716,41.00500674,-71.34491945,27,514,4,-,1,4,,,2,4,H,22,,,MIWH,1,,,1,3,0,,,,,,,,,,,,,,,,,,,,106.5,1500,100,,,,,,,,,,EXACT POSITION,,,,0.028580535
X,8,10,2023,943,84720,41.00685667,-71.344105,4,513,4,-,1,4,,,2,4,H,,,,,,,,,,,,,,,,,,,,,,,,,,,,,,104.8,1500,100,,,,,,,,,,,,,,0.145620637
X,8,10,2023,944,84725,41.009195,-71.34478333,331,510,4,-,1,4,,,2,4,H,,,,,,,,,,,,,,,,,,,,,,,,,,,,,,103.8,1500,100,,,,,,,,,,,,,,0.143719176
X,8,10,2023,945,84730,41.01081333,-71.34705,299,510,4,-,1,4,,,2,4,H,,,,,,,,,,,,,,,,,,,,,,,,,,,,,,102.6,1500,100,,,,,,,,,,,,,,0.141376135
X,8,10,2023,946,84735,41.01107167,-71.35014167,261,504,4,-,1,4,,,2,4,H,,,,,,,,,,,,,,,,,,,,,,,,,,,,,,103.1,1500,100,,,,,,,,,,,,,,0.140925914
X,8,10,2023,947,84740,41.00984167,-71.352815,220,492,4,-,1,4,,,2,4,H,,,,,,,,,,,,,,,,,,,,,,,,,,,,,,104.7,1500,100,,,,,,,,,,,,,,0.141856668
X,8,10,2023,948,84740,41.00984167,-71.352815,220,492,4,-,1,4,,,2,4,H,,,,,,,,,,,,,,,,,,,,,,,,,,,,,,104.7,1500,100,,,,,,,,,,,,,,0
X,8,10,2023,949,84745,41.00757,-71.35388167,183,505,4,-,1,4,,,2,4,H,,,,,,,,,,,,,,,,,,,,,,,,,,,,,,104.5,1500,100,,,,,,,,,,,,,,0.144700755
X,8,10,2023,950,84750,41.00533833,-71.353025,151,518,4,-,1,4,,,2,4,H,,,,,,,,,,,,,,,,,,,,,,,,,,,,,,101.2,1500,100,,,,,,,,,,,,,,0.139498949
S,8,10,2023,951,84751,41.0050868,-71.35266301,146,518,4,-,1,4,,,2,4,H,23,,,SADO,40,,,1,3,4,,,,,,,,,,,,,,,,,,,,101.5,1500,100,,,,,,,,,,EXACT POSITION,,,,0.02229569
X,8,10,2023,952,84755,41.00375167,-71.35074167,120,518,4,-,1,4,,,2,4,H,,,,,,,,,,,,,,,,,,,,,,,,,,,,,,103.4,1500,100,,,,,,,,,,,,,,0.140637057
X,8,10,2023,953,84800,41.003225,-71.34759,89,512,4,-,1,4,,,2,4,H,,,,,,,,,,,,,,,,,,,,,,,,,,,,,,108.3,1500,100,,,,,,,,,,,,,,0.146263331
X,8,10,2023,954,84805,41.00383,-71.34433667,63,507,4,-,1,4,,,2,4,H,,,,,,,,,,,,,,,,,,,,,,,,,,,,,,111.6,1500,100,,,,,,,,,,,,,,0.151820283
X,8,10,2023,955,84810,41.00559667,-71.341865,30,500,4,-,1,4,,,2,4,H,,,,,,,,,,,,,,,,,,,,,,,,,,,,,,112.7,1500,100,,,,,,,,,,,,,,0.154250177
X,8,10,2023,956,84815,41.00808667,-71.34119667,355,501,4,-,1,4,,,2,4,H,,,,,,,,,,,,,,,,,,,,,,,,,,,,,,108.9,1500,100,,,,,,,,,,,,,,0.152536608
X,8,10,2023,957,84820,41.01025667,-71.34265667,316,498,4,-,1,4,,,2,4,H,,,,,,,,,,,,,,,,,,,,,,,,,,,,,,107.3,1500,100,,,,,,,,,,,,,,0.146117958
X,8,10,2023,958,84825,41.01105167,-71.34567167,267,484,4,-,1,4,,,2,4,H,,,,,,,,,,,,,,,,,,,,,,,,,,,,,,106.5,1500,100,,,,,,,,,,,,,,0.144696517
X,8,10,2023,959,84830,41.010085,-71.34864167,229,479,4,-,1,4,,,2,4,H,,,,,,,,,,,,,,,,,,,,,,,,,,,,,,106,1500,100,,,,,,,,,,,,,,0.146541761
X,8,10,2023,960,84835,41.00796,-71.35022,194,488,4,-,1,4,,,2,4,H,,,,,,,,,,,,,,,,,,,,,,,,,,,,,,105.6,1500,100,,,,,,,,,,,,,,0.14625927
X,8,10,2023,961,84840,41.00558667,-71.349685,154,488,4,-,1,4,,,2,4,H,,,,,,,,,,,,,,,,,,,,,,,,,,,,,,106.8,1500,100,,,,,,,,,,,,,,0.144543052
X,8,10,2023,962,84840,41.00558667,-71.349685,154,488,4,-,1,4,,,2,4,H,,,,,,,,,,,,,,,,,,,,,,,,,,,,,,106.8,1500,100,,,,,,,,,,,,,,0
X,8,10,2023,963,84845,41.00380667,-71.34737667,124,486,4,-,1,4,,,2,4,H,,,,,,,,,,,,,,,,,,,,,,,,,,,,,,109.3,1500,100,,,,,,,,,,,,,,0.149535143
X,8,10,2023,964,84850,41.00311667,-71.34423833,90,494,4,-,1,4,,,2,4,H,,,,,,,,,,,,,,,,,,,,,,,,,,,,,,106.5,1500,100,,,,,,,,,,,,,,0.148111985
X,8,10,2023,965,84855,41.00398667,-71.34120167,51,487,4,-,1,4,,,2,4,H,,,,,,,,,,,,,,,,,,,,,,,,,,,,,,109.3,1500,100,,,,,,,,,,,,,,0.14717492
X,8,10,2023,966,84900,41.00613333,-71.339445,15,477,4,-,1,4,,,2,4,H,,,,,,,,,,,,,,,,,,,,,,,,,,,,,,111.3,1500,100,,,,,,,,,,,,,,0.151482709
X,8,10,2023,967,84905,41.00864167,-71.33952833,344,484,4,-,1,4,,,2,4,H,,,,,,,,,,,,,,,,,,,,,,,,,,,,,,107,1500,100,,,,,,,,,,,,,,0.150648802
X,8,10,2023,968,84910,41.01051,-71.34128,310,507,4,-,1,4,,,2,4,H,,,,,,,,,,,,,,,,,,,,,,,,,,,,,,97,1500,100,,,,,,,,,,,,,,0.137410619
X,8,10,2023,969,84915,41.01127667,-71.34396667,277,513,4,-,1,4,,,2,4,H,,,,,,,,,,,,,,,,,,,,,,,,,,,,,,93.4,1500,100,,,,,,,,,,,,,,0.130134083
X,8,10,2023,970,84920,41.01094333,-71.34687667,251,498,4,-,1,4,,,2,4,H,,,,,,,,,,,,,,,,,,,,,,,,,,,,,,98.9,1500,100,,,,,,,,,,,,,,0.133349313
X,8,10,2023,971,84925,41.00972833,-71.34952,227,487,4,-,1,4,,,2,4,H,,,,,,,,,,,,,,,,,,,,,,,,,,,,,,103,1500,100,,,,,,,,,,,,,,0.140227547
X,8,10,2023,972,84930,41.00762833,-71.350965,188,480,4,-,1,4,,,2,4,H,,,,,,,,,,,,,,,,,,,,,,,,,,,,,,104,1500,100,,,,,,,,,,,,,,0.142068939
X,8,10,2023,973,84935,41.00525667,-71.35020667,149,475,4,-,1,4,,,2,4,H,,,,,,,,,,,,,,,,,,,,,,,,,,,,,,107.7,1500,100,,,,,,,,,,,,,,0.146482604
X,8,10,2023,974,84940,41.00369167,-71.34766333,114,481,4,-,1,4,,,2,4,H,,,,,,,,,,,,,,,,,,,,,,,,,,,,,,106.5,1500,100,,,,,,,,,,,,,,0.148691022
X,8,10,2023,975,84940,41.00369167,-71.34766333,114,481,4,-,1,4,,,2,4,H,,,,,,,,,,,,,,,,,,,,,,,,,,,,,,106.5,1500,100,,,,,,,,,,,,,,0
X,8,10,2023,976,84945,41.00353167,-71.344425,78,491,4,-,1,4,,,2,4,H,,,,,,,,,,,,,,,,,,,,,,,,,,,,,,106.1,1500,100,,,,,,,,,,,,,,0.147045039
X,8,10,2023,977,84950,41.00473333,-71.34166333,42,493,4,-,1,4,,,2,4,H,,,,,,,,,,,,,,,,,,,,,,,,,,,,,,105.2,1500,100,,,,,,,,,,,,,,0.144441697
X,8,10,2023,978,84955,41.00693333,-71.340415,5,491,4,-,1,4,,,2,4,H,,,,,,,,,,,,,,,,,,,,,,,,,,,,,,103.9,1500,100,,,,,,,,,,,,,,0.143689373
X,8,10,2023,979,85000,41.00918167,-71.34113,329,509,4,-,1,4,,,2,4,H,,,,,,,,,,,,,,,,,,,,,,,,,,,,,,95,1500,100,,,,,,,,,,,,,,0.138823593
X,8,10,2023,980,85005,41.01060167,-71.3431,300,533,4,-,1,4,,,2,4,H,,,,,,,,,,,,,,,,,,,,,,,,,,,,,,86.5,1500,100,,,,,,,,,,,,,,0.123430169
X,8,10,2023,981,85010,41.01105,-71.34566167,269,532,4,-,1,4,,,2,4,H,,,,,,,,,,,,,,,,,,,,,,,,,,,,,,87.5,1500,100,,,,,,,,,,,,,,0.119138777
P,8,10,2023,982,85013,41.01068037,-71.34735703,251,523,4,-,1,4,,,2,4,H,24,,,FIWH,1,,,1,3,0,,,,,,,,,,,,,,,,,,,,90.2,1500,100,,,,,,,,,,EXACT POSITION,,,,0.079951431
X,8,10,2023,983,85015,41.01048167,-71.34826833,241,519,4,-,1,4,,,2,4,H,,,,,,,,,,,,,,,,,,,,,,,,,,,,,,91.7,1500,100,,,,,,,,,,,,,,0.122927825
X,8,10,2023,984,85020,41.00901833,-71.35046833,220,506,4,-,1,4,,,2,4,H,,,,,,,,,,,,,,,,,,,,,,,,,,,,,,97.1,1500,100,,,,,,,,,,,,,,0.132868972
X,8,10,2023,985,85025,41.00693667,-71.35193833,196,501,4,-,1,4,,,2,4,H,,,,,,,,,,,,,,,,,,,,,,,,,,,,,,102.8,1500,100,,,,,,,,,,,,,,0.141622416
X,8,10,2023,986,85030,41.00454833,-71.35184333,165,498,4,-,1,4,,,2,4,H,,,,,,,,,,,,,,,,,,,,,,,,,,,,,,105.1,1500,100,,,,,,,,,,,,,,0.143461213
X,8,10,2023,987,85035,41.00258833,-71.34995667,131,507,4,-,1,4,,,2,4,H,,,,,,,,,,,,,,,,,,,,,,,,,,,,,,105.7,1500,100,,,,,,,,,,,,,,0.145452021
X,8,10,2023,988,85040,41.00173,-71.34702167,96,519,4,-,1,4,,,2,4,H,,,,,,,,,,,,,,,,,,,,,,,,,,,,,,103,1500,100,,,,,,,,,,,,,,0.142625614
X,8,10,2023,989,85040,41.00173,-71.34702167,96,519,4,-,1,4,,,2,4,H,,,,,,,,,,,,,,,,,,,,,,,,,,,,,,103,1500,100,,,,,,,,,,,,,,0
X,8,10,2023,990,85045,41.00215167,-71.343925,65,518,4,-,1,4,,,2,4,H,,,,,,,,,,,,,,,,,,,,,,,,,,,,,,104.6,1500,100,,,,,,,,,,,,,,0.142581141
