rectype,month,day,year,eventno,time,lat,long,heading,alt,legtype,legstage,legno,visiblty,glarel,glarer,beaufort,cloud,wx,sightno,anglel,angler,speccode,number,numcalf,anhead,photos,idrel,confidnc,b1,b2,b3,b4,b5,b6,b7,b8,b9,b10,b11,b12,b13,b14,b15,refno,stratum,utc,radalt,gpsspeed,setalt,setvel,lensfl,ggf,int,gpsq,gpssats,roll,pitch,yaw,maghead,notes,edits,glarev,ph_qual,TrackDist
S,11,6,2023,291,80843,41.4082841,-71.19917763,203,479,1,-,,5,,,3,4,G,1,,,,,,,,,,,,,,,,,,,,,,,,,,,,,106.3,1500,100,,,,,,,,,,GOING ON WATCH; BEGIN SURVEY - ,,,,0.147239449
X,11,6,2023,292,80843,41.40827667,-71.19918167,203,479,1,-,,5,,,3,4,G,,,,,,,,,,,,,,,,,,,,,,,,,,,,,,106.3,1500,100,,,,,,,,,,,,,,0.147721304
X,11,6,2023,293,80848,41.40600667,-71.200525,205,473,1,-,,5,,,3,4,G,,,,,,,,,,,,,,,,,,,,,,,,,,,,,,107.6,1500,100,,,,,,,,,,,,,,0.149113636
X,11,6,2023,294,80853,41.40369333,-71.20188,203,468,1,-,,5,,,3,4,G,,,,,,,,,,,,,,,,,,,,,,,,,,,,,,109.5,1500,100,,,,,,,,,,,,,,0.151706766
X,11,6,2023,295,80858,41.40134333,-71.20317167,202,468,1,-,,5,,,3,4,G,,,,,,,,,,,,,,,,,,,,,,,,,,,,,,109.6,1500,100,,,,,,,,,,,,,,0.152615966
X,11,6,2023,296,80903,41.39900833,-71.20440333,202,475,1,-,,5,,,3,4,G,,,,,,,,,,,,,,,,,,,,,,,,,,,,,,107.5,1500,100,,,,,,,,,,,,,,0.150769553
X,11,6,2023,297,80908,41.39671333,-71.20567667,203,477,1,-,,5,,,3,4,G,,,,,,,,,,,,,,,,,,,,,,,,,,,,,,107.5,1500,100,,,,,,,,,,,,,,0.149250725
X,11,6,2023,298,80913,41.39445,-71.207015,204,476,1,-,,5,,,3,4,G,,,,,,,,,,,,,,,,,,,,,,,,,,,,,,106.5,1500,100,,,,,,,,,,,,,,0.148660794
X,11,6,2023,299,80918,41.39220333,-71.20840667,206,470,1,-,,5,,,3,4,G,,,,,,,,,,,,,,,,,,,,,,,,,,,,,,107.1,1500,100,,,,,,,,,,,,,,0.148743755
X,11,6,2023,300,80918,41.39220333,-71.20840667,206,470,1,-,,5,,,3,4,G,,,,,,,,,,,,,,,,,,,,,,,,,,,,,,107.1,1500,100,,,,,,,,,,,,,,0
X,11,6,2023,301,80923,41.38996667,-71.20981333,205,462,1,-,,5,,,3,4,G,,,,,,,,,,,,,,,,,,,,,,,,,,,,,,106.8,1500,100,,,,,,,,,,,,,,0.148487442
X,11,6,2023,302,80928,41.38770333,-71.21116833,205,459,1,-,,5,,,3,4,G,,,,,,,,,,,,,,,,,,,,,,,,,,,,,,106.9,1500,100,,,,,,,,,,,,,,0.148969349
X,11,6,2023,303,80933,41.38548667,-71.21262667,207,456,1,-,,5,,,3,4,G,,,,,,,,,,,,,,,,,,,,,,,,,,,,,,107,1500,100,,,,,,,,,,,,,,0.148419575
X,11,6,2023,304,80938,41.383275,-71.21421,209,444,1,-,,5,,,3,4,G,,,,,,,,,,,,,,,,,,,,,,,,,,,,,,109.2,1500,100,,,,,,,,,,,,,,0.150732897
X,11,6,2023,305,80943,41.38103,-71.21582667,208,445,1,-,,5,,,3,4,G,,,,,,,,,,,,,,,,,,,,,,,,,,,,,,109.3,1500,100,,,,,,,,,,,,,,0.153208194
X,11,6,2023,306,80948,41.37880167,-71.21735667,207,450,1,-,,5,,,3,4,G,,,,,,,,,,,,,,,,,,,,,,,,,,,,,,107.8,1500,100,,,,,,,,,,,,,,0.150502036
X,11,6,2023,307,80948,41.37880167,-71.21735667,207,450,1,-,,5,,,3,4,G,,,,,,,,,,,,,,,,,,,,,,,,,,,,,,107.8,1500,100,,,,,,,,,,,,,,0
X,11,6,2023,308,80953,41.37657167,-71.21878333,205,455,1,-,,5,,,3,4,G,,,,,,,,,,,,,,,,,,,,,,,,,,,,,,106.5,1500,100,,,,,,,,,,,,,,0.148518848
X,11,6,2023,309,80958,41.37436833,-71.22022833,207,462,1,-,,5,,,3,4,G,,,,,,,,,,,,,,,,,,,,,,,,,,,,,,105.8,1500,100,,,,,,,,,,,,,,0.147440912
X,11,6,2023,310,81003,41.37218333,-71.221645,206,466,1,-,,5,,,3,4,G,,,,,,,,,,,,,,,,,,,,,,,,,,,,,,104.3,1500,100,,,,,,,,,,,,,,0.145892063
X,11,6,2023,311,81008,41.36997,-71.22290833,203,470,1,-,,5,,,3,4,G,,,,,,,,,,,,,,,,,,,,,,,,,,,,,,103.6,1500,100,,,,,,,,,,,,,,0.144567471
X,11,6,2023,312,81013,41.36772,-71.223995,199,469,1,-,,5,,,3,4,G,,,,,,,,,,,,,,,,,,,,,,,,,,,,,,103.2,1500,100,,,,,,,,,,,,,,0.143690735
X,11,6,2023,313,81018,41.36543167,-71.22483833,195,469,1,-,,5,,,3,4,G,,,,,,,,,,,,,,,,,,,,,,,,,,,,,,102.3,1500,100,,,,,,,,,,,,,,0.142550963
X,11,6,2023,314,81018,41.36543167,-71.22483833,195,469,1,-,,5,,,3,4,G,,,,,,,,,,,,,,,,,,,,,,,,,,,,,,102.3,1500,100,,,,,,,,,,,,,,0
X,11,6,2023,315,81023,41.36312667,-71.22556667,193,467,1,-,,5,,,3,4,G,,,,,,,,,,,,,,,,,,,,,,,,,,,,,,102.2,1500,100,,,,,,,,,,,,,,0.142231655
X,11,6,2023,316,81028,41.36079,-71.22620667,191,463,1,-,,5,,,3,4,G,,,,,,,,,,,,,,,,,,,,,,,,,,,,,,103,1500,100,,,,,,,,,,,,,,0.143228258
X,11,6,2023,317,81033,41.35843,-71.22675167,190,462,1,-,,5,,,3,4,G,,,,,,,,,,,,,,,,,,,,,,,,,,,,,,103.4,1500,100,,,,,,,,,,,,,,0.143808285
X,11,6,2023,318,81038,41.35605667,-71.227245,189,462,1,-,,5,,,3,4,G,,,,,,,,,,,,,,,,,,,,,,,,,,,,,,103.7,1500,100,,,,,,,,,,,,,,0.144220026
X,11,6,2023,319,81043,41.353675,-71.22774833,189,462,1,-,,5,,,3,4,G,,,,,,,,,,,,,,,,,,,,,,,,,,,,,,104.2,1500,100,,,,,,,,,,,,,,0.144784454
X,11,6,2023,320,81048,41.35128,-71.22828833,190,465,1,-,,5,,,3,4,G,,,,,,,,,,,,,,,,,,,,,,,,,,,,,,104.9,1500,100,,,,,,,,,,,,,,0.145841947
X,11,6,2023,321,81053,41.348885,-71.22905333,194,469,1,-,,5,,,3,4,G,,,,,,,,,,,,,,,,,,,,,,,,,,,,,,106.7,1500,100,,,,,,,,,,,,,,0.147872922
X,11,6,2023,322,81058,41.34651333,-71.22981,193,478,1,-,,5,,,3,4,G,,,,,,,,,,,,,,,,,,,,,,,,,,,,,,104.7,1500,100,,,,,,,,,,,,,,0.146423312
X,11,6,2023,323,81103,41.344165,-71.230485,192,480,1,-,,5,,,3,4,G,,,,,,,,,,,,,,,,,,,,,,,,,,,,,,103.8,1500,100,,,,,,,,,,,,,,0.144240443
X,11,6,2023,324,81108,41.34178333,-71.23106167,190,478,1,-,,5,,,3,4,G,,,,,,,,,,,,,,,,,,,,,,,,,,,,,,104.9,1500,100,,,,,,,,,,,,,,0.145339781
X,11,6,2023,325,81113,41.33936167,-71.23153333,188,474,1,-,,5,,,3,4,G,,,,,,,,,,,,,,,,,,,,,,,,,,,,,,105.7,1500,100,,,,,,,,,,,,,,0.146944336
X,11,6,2023,326,81118,41.33693667,-71.23199,188,477,1,-,,5,,,3,4,G,,,,,,,,,,,,,,,,,,,,,,,,,,,,,,105.2,1500,100,,,,,,,,,,,,,,0.147046291
X,11,6,2023,327,81123,41.33454333,-71.23248167,189,478,1,-,,5,,,3,4,G,,,,,,,,,,,,,,,,,,,,,,,,,,,,,,104.1,1500,100,,,,,,,,,,,,,,0.145396248
S,11,6,2023,328,81126,41.33322324,-71.23264876,186,476,2,1,7,5,2,2,4,4,G,2,,,,,,,,,,,,,,,,,,,,,,,,,,,,,103.4,1500,100,,,,,,,,,,BEGIN LINE - ,,,,0.079615924
X,11,6,2023,329,81128,41.33216,-71.23278333,183,474,2,2,7,5,2,2,4,4,G,,,,,,,,,,,,,,,,,,,,,,,,,,,,,,102.8,1500,100,,,,,,,,,,,,,,0.143741256
X,11,6,2023,330,81132,41.33037465,-71.232796,180,474,2,2,7,5,2,2,4,4,G,,,,,,,,,,,,,,,,,,,,,,,,,,,,,,101.7,1500,100,,,,,,,,,,,,,,0.107194524
X,11,6,2023,331,81133,41.32981167,-71.2328,179,475,2,2,7,5,2,2,4,4,G,,,,,,,,,,,,,,,,,,,,,,,,,,,,,,101.3,1500,100,,,,,,,,,,,,,,0.140997009
X,11,6,2023,332,81138,41.327465,-71.23277667,180,474,2,2,7,5,2,2,4,4,G,,,,,,,,,,,,,,,,,,,,,,,,,,,,,,101,1500,100,,,,,,,,,,,,,,0.140898867
X,11,6,2023,333,81143,41.325135,-71.23280667,181,473,2,2,7,5,2,2,4,4,G,,,,,,,,,,,,,,,,,,,,,,,,,,,,,,100.8,1500,100,,,,,,,,,,,,,,0.139900804
X,11,6,2023,334,81148,41.32277,-71.23291333,182,468,2,2,7,5,2,2,4,4,G,,,,,,,,,,,,,,,,,,,,,,,,,,,,,,102,1500,100,,,,,,,,,,,,,,0.142077111
X,11,6,2023,335,81153,41.32040667,-71.23296167,180,466,2,2,7,5,2,2,4,4,G,,,,,,,,,,,,,,,,,,,,,,,,,,,,,,101.9,1500,100,,,,,,,,,,,,,,0.14191235
X,11,6,2023,336,81158,41.31804,-71.23291667,179,465,2,2,7,5,2,2,4,4,G,,,,,,,,,,,,,,,,,,,,,,,,,,,,,,102,1500,100,,,,,,,,,,,,,,0.142110237
X,11,6,2023,337,81203,41.315685,-71.23289667,180,469,2,2,7,5,2,2,4,4,G,,,,,,,,,,,,,,,,,,,,,,,,,,,,,,101.2,1500,100,,,,,,,,,,,,,,0.141398153
X,11,6,2023,338,81208,41.31334833,-71.23294167,181,474,2,2,7,5,2,2,4,4,G,,,,,,,,,,,,,,,,,,,,,,,,,,,,,,100.9,1500,100,,,,,,,,,,,,,,0.140309211
X,11,6,2023,339,81213,41.311015,-71.23296167,180,476,2,2,7,5,2,2,4,4,G,,,,,,,,,,,,,,,,,,,,,,,,,,,,,,100.8,1500,100,,,,,,,,,,,,,,0.140097304
X,11,6,2023,340,81218,41.30867667,-71.23297333,180,477,2,2,7,5,2,2,4,4,G,,,,,,,,,,,,,,,,,,,,,,,,,,,,,,100.8,1500,100,,,,,,,,,,,,,,0.140395588
X,11,6,2023,341,81218,41.30867667,-71.23297333,180,477,2,2,7,5,2,2,4,4,G,,,,,,,,,,,,,,,,,,,,,,,,,,,,,,100.8,1500,100,,,,,,,,,,,,,,0
X,11,6,2023,342,81223,41.30636333,-71.23298167,180,481,2,2,7,5,2,2,4,4,G,,,,,,,,,,,,,,,,,,,,,,,,,,,,,,99.6,1500,100,,,,,,,,,,,,,,0.138894099
X,11,6,2023,343,81228,41.30405833,-71.233005,180,479,2,2,7,5,2,2,4,4,G,,,,,,,,,,,,,,,,,,,,,,,,,,,,,,99.8,1500,100,,,,,,,,,,,,,,0.138397255
X,11,6,2023,344,81233,41.30173833,-71.23299167,179,477,2,2,7,5,2,2,4,4,G,,,,,,,,,,,,,,,,,,,,,,,,,,,,,,100.3,1500,100,,,,,,,,,,,,,,0.139295159
X,11,6,2023,345,81238,41.29939667,-71.23300167,181,474,2,2,7,5,2,2,4,4,G,,,,,,,,,,,,,,,,,,,,,,,,,,,,,,101.8,1500,100,,,,,,,,,,,,,,0.140595461
X,11,6,2023,346,81243,41.29702167,-71.23303,181,471,2,2,7,5,2,2,4,4,G,,,,,,,,,,,,,,,,,,,,,,,,,,,,,,102.4,1500,100,,,,,,,,,,,,,,0.142601813
X,11,6,2023,347,81248,41.29465333,-71.233045,180,471,2,2,7,5,2,2,4,4,G,,,,,,,,,,,,,,,,,,,,,,,,,,,,,,101.7,1500,100,,,,,,,,,,,,,,0.142197426
X,11,6,2023,348,81253,41.29229167,-71.23303333,180,471,2,2,7,5,2,2,4,4,G,,,,,,,,,,,,,,,,,,,,,,,,,,,,,,102.3,1500,100,,,,,,,,,,,,,,0.141796523
X,11,6,2023,349,81258,41.28989667,-71.23304,180,473,2,2,7,5,2,2,4,4,G,,,,,,,,,,,,,,,,,,,,,,,,,,,,,,103.5,1500,100,,,,,,,,,,,,,,0.143797209
X,11,6,2023,350,81303,41.287485,-71.23307,181,473,2,2,7,5,2,2,4,4,G,,,,,,,,,,,,,,,,,,,,,,,,,,,,,,104.3,1500,100,,,,,,,,,,,,,,0.144803894
X,11,6,2023,351,81308,41.28508333,-71.233145,181,477,2,2,7,5,2,2,4,4,G,,,,,,,,,,,,,,,,,,,,,,,,,,,,,,103.1,1500,100,,,,,,,,,,,,,,0.144236859
X,11,6,2023,352,81313,41.2827,-71.23317667,180,477,2,2,7,5,2,2,4,4,G,,,,,,,,,,,,,,,,,,,,,,,,,,,,,,102.4,1500,100,,,,,,,,,,,,,,0.143103555
X,11,6,2023,353,81318,41.28033,-71.23313,179,474,2,2,7,5,2,2,4,4,G,,,,,,,,,,,,,,,,,,,,,,,,,,,,,,102.2,1500,100,,,,,,,,,,,,,,0.142311461
X,11,6,2023,354,81318,41.28033,-71.23313,179,474,2,2,7,5,2,2,4,4,G,,,,,,,,,,,,,,,,,,,,,,,,,,,,,,102.2,1500,100,,,,,,,,,,,,,,0
X,11,6,2023,355,81323,41.27794167,-71.23308167,179,471,2,2,7,5,2,2,4,4,G,,,,,,,,,,,,,,,,,,,,,,,,,,,,,,103.5,1500,100,,,,,,,,,,,,,,0.143413208
X,11,6,2023,356,81328,41.27553333,-71.23304,179,471,2,2,7,5,2,2,4,4,G,,,,,,,,,,,,,,,,,,,,,,,,,,,,,,104,1500,100,,,,,,,,,,,,,,0.144609657
X,11,6,2023,357,81333,41.27311667,-71.233025,180,474,2,2,7,5,2,2,4,4,G,,,,,,,,,,,,,,,,,,,,,,,,,,,,,,104.4,1500,100,,,,,,,,,,,,,,0.14509935
X,11,6,2023,358,81338,41.270685,-71.233085,181,479,2,2,7,5,2,2,4,4,G,,,,,,,,,,,,,,,,,,,,,,,,,,,,,,105.3,1500,100,,,,,,,,,,,,,,0.146023482
X,11,6,2023,359,81343,41.26824,-71.23316833,181,476,2,2,7,5,2,2,4,4,G,,,,,,,,,,,,,,,,,,,,,,,,,,,,,,105.6,1500,100,,,,,,,,,,,,,,0.146847079
X,11,6,2023,360,81348,41.2658,-71.233255,182,480,2,2,7,5,2,2,4,4,G,,,,,,,,,,,,,,,,,,,,,,,,,,,,,,104.8,1500,100,,,,,,,,,,,,,,0.146550916
X,11,6,2023,361,81348,41.2658,-71.233255,182,480,2,2,7,5,2,2,4,4,G,,,,,,,,,,,,,,,,,,,,,,,,,,,,,,104.8,1500,100,,,,,,,,,,,,,,0
X,11,6,2023,362,81353,41.26339667,-71.23332167,181,482,2,2,7,5,2,2,4,4,G,,,,,,,,,,,,,,,,,,,,,,,,,,,,,,103.4,1500,100,,,,,,,,,,,,,,0.144328596
X,11,6,2023,363,81358,41.260985,-71.233385,181,477,2,2,7,5,2,2,4,4,G,,,,,,,,,,,,,,,,,,,,,,,,,,,,,,104.5,1500,100,,,,,,,,,,,,,,0.14482578
X,11,6,2023,364,81403,41.25855667,-71.23345333,182,476,2,2,7,5,2,2,4,4,G,,,,,,,,,,,,,,,,,,,,,,,,,,,,,,104.9,1500,100,,,,,,,,,,,,,,0.14583086
X,11,6,2023,365,81408,41.25612833,-71.23351667,181,474,2,2,7,5,2,2,4,4,G,,,,,,,,,,,,,,,,,,,,,,,,,,,,,,105.3,1500,100,,,,,,,,,,,,,,0.145826264
X,11,6,2023,366,81413,41.25370667,-71.23357167,181,475,2,2,7,5,2,2,4,4,G,,,,,,,,,,,,,,,,,,,,,,,,,,,,,,104,1500,100,,,,,,,,,,,,,,0.145419166
X,11,6,2023,367,81418,41.25131667,-71.23362833,181,478,2,2,7,5,2,2,4,4,G,,,,,,,,,,,,,,,,,,,,,,,,,,,,,,103,1500,100,,,,,,,,,,,,,,0.143519488
X,11,6,2023,368,81418,41.25131667,-71.23362833,181,478,2,2,7,5,2,2,4,4,G,,,,,,,,,,,,,,,,,,,,,,,,,,,,,,103,1500,100,,,,,,,,,,,,,,0
X,11,6,2023,369,81423,41.24896,-71.23361333,179,480,2,2,7,5,2,2,4,4,G,,,,,,,,,,,,,,,,,,,,,,,,,,,,,,101.4,1500,100,,,,,,,,,,,,,,0.141496964
X,11,6,2023,370,81428,41.24660167,-71.23362167,181,478,2,2,7,5,2,2,4,4,G,,,,,,,,,,,,,,,,,,,,,,,,,,,,,,101.9,1500,100,,,,,,,,,,,,,,0.141595911
X,11,6,2023,371,81433,41.244225,-71.233645,180,478,2,2,7,5,2,2,4,4,G,,,,,,,,,,,,,,,,,,,,,,,,,,,,,,102.5,1500,100,,,,,,,,,,,,,,0.142700041
X,11,6,2023,372,81438,41.241855,-71.23364333,180,476,2,2,7,5,2,2,4,4,G,,,,,,,,,,,,,,,,,,,,,,,,,,,,,,102.1,1500,100,,,,,,,,,,,,,,0.142295903
X,11,6,2023,373,81443,41.239485,-71.23363333,179,472,2,2,7,5,2,2,4,4,G,,,,,,,,,,,,,,,,,,,,,,,,,,,,,,102.3,1500,100,,,,,,,,,,,,,,0.1422966
X,11,6,2023,374,81448,41.23712,-71.23359833,179,473,2,2,7,5,2,2,4,4,G,,,,,,,,,,,,,,,,,,,,,,,,,,,,,,102,1500,100,,,,,,,,,,,,,,0.142004474
X,11,6,2023,375,81453,41.23478167,-71.23353833,178,475,2,2,7,5,2,2,4,4,G,,,,,,,,,,,,,,,,,,,,,,,,,,,,,,100.7,1500,100,,,,,,,,,,,,,,0.140420736
X,11,6,2023,376,81458,41.23245167,-71.23348667,179,472,2,2,7,5,2,2,4,4,G,,,,,,,,,,,,,,,,,,,,,,,,,,,,,,101.1,1500,100,,,,,,,,,,,,,,0.139913715
X,11,6,2023,377,81503,41.23008667,-71.23346833,180,466,2,2,7,5,2,2,4,4,G,,,,,,,,,,,,,,,,,,,,,,,,,,,,,,102.9,1500,100,,,,,,,,,,,,,,0.141998094
X,11,6,2023,378,81508,41.22766667,-71.23353167,181,459,2,2,7,5,2,2,4,4,G,,,,,,,,,,,,,,,,,,,,,,,,,,,,,,105,1500,100,,,,,,,,,,,,,,0.145326048
X,11,6,2023,379,81513,41.22524167,-71.23365333,183,456,2,2,7,5,2,2,4,4,G,,,,,,,,,,,,,,,,,,,,,,,,,,,,,,104.7,1500,100,,,,,,,,,,,,,,0.145701731
X,11,6,2023,380,81518,41.22284,-71.23374833,181,454,2,2,7,5,2,2,4,4,G,,,,,,,,,,,,,,,,,,,,,,,,,,,,,,102.7,1500,100,,,,,,,,,,,,,,0.144260969
X,11,6,2023,381,81523,41.220505,-71.233695,179,455,2,2,7,5,2,2,4,4,G,,,,,,,,,,,,,,,,,,,,,,,,,,,,,,100.6,1500,100,,,,,,,,,,,,,,0.140215156
X,11,6,2023,382,81528,41.21819167,-71.23365333,179,453,2,2,7,5,2,2,4,4,G,,,,,,,,,,,,,,,,,,,,,,,,,,,,,,99.4,1500,100,,,,,,,,,,,,,,0.138906337
X,11,6,2023,383,81533,41.21590333,-71.23359667,179,448,2,2,7,5,2,2,4,4,G,,,,,,,,,,,,,,,,,,,,,,,,,,,,,,98.6,1500,100,,,,,,,,,,,,,,0.137416414
X,11,6,2023,384,81538,41.21363833,-71.23355667,179,446,2,2,7,5,2,2,4,4,G,,,,,,,,,,,,,,,,,,,,,,,,,,,,,,97.2,1500,100,,,,,,,,,,,,,,0.136003635
X,11,6,2023,385,81543,41.2114,-71.23349,179,446,2,2,7,5,2,2,4,4,G,,,,,,,,,,,,,,,,,,,,,,,,,,,,,,96.6,1500,100,,,,,,,,,,,,,,0.134424285
X,11,6,2023,386,81548,41.20914833,-71.23344833,180,444,2,2,7,5,2,2,4,4,G,,,,,,,,,,,,,,,,,,,,,,,,,,,,,,97.4,1500,100,,,,,,,,,,,,,,0.135204195
X,11,6,2023,387,81553,41.20688667,-71.23338,178,443,2,2,7,5,2,2,4,4,G,,,,,,,,,,,,,,,,,,,,,,,,,,,,,,97.8,1500,100,,,,,,,,,,,,,,0.135826576
X,11,6,2023,388,81558,41.20467,-71.23324833,177,447,2,2,7,5,2,2,4,4,G,,,,,,,,,,,,,,,,,,,,,,,,,,,,,,95.2,1500,100,,,,,,,,,,,,,,0.133222507
X,11,6,2023,389,81603,41.202475,-71.233195,179,448,2,2,7,5,2,2,4,4,G,,,,,,,,,,,,,,,,,,,,,,,,,,,,,,94.8,1500,100,,,,,,,,,,,,,,0.131810823
X,11,6,2023,390,81608,41.200305,-71.23321833,181,450,2,2,7,5,2,2,4,4,G,,,,,,,,,,,,,,,,,,,,,,,,,,,,,,93.1,1500,100,,,,,,,,,,,,,,0.130292056
X,11,6,2023,391,81613,41.19813167,-71.233325,182,451,2,2,7,5,2,2,4,4,G,,,,,,,,,,,,,,,,,,,,,,,,,,,,,,94.1,1500,100,,,,,,,,,,,,,,0.130576872
X,11,6,2023,392,81618,41.19599333,-71.233395,181,454,2,2,7,5,2,2,4,4,G,,,,,,,,,,,,,,,,,,,,,,,,,,,,,,92.1,1500,100,,,,,,,,,,,,,,0.128425453
X,11,6,2023,393,81618,41.19599333,-71.233395,181,454,2,2,7,5,2,2,4,4,G,,,,,,,,,,,,,,,,,,,,,,,,,,,,,,92.1,1500,100,,,,,,,,,,,,,,0
X,11,6,2023,394,81623,41.193915,-71.23346833,182,461,2,2,7,5,2,2,4,4,G,,,,,,,,,,,,,,,,,,,,,,,,,,,,,,89.1,1500,100,,,,,,,,,,,,,,0.124828059
X,11,6,2023,395,81628,41.191865,-71.23349667,180,463,2,2,7,5,2,2,4,4,G,,,,,,,,,,,,,,,,,,,,,,,,,,,,,,88.3,1500,100,,,,,,,,,,,,,,0.123089594
X,11,6,2023,396,81633,41.18982333,-71.23351333,180,468,2,2,7,5,2,2,4,4,G,,,,,,,,,,,,,,,,,,,,,,,,,,,,,,88.2,1500,100,,,,,,,,,,,,,,0.122584913
X,11,6,2023,397,81638,41.18779667,-71.23358167,182,473,2,2,7,5,2,2,4,4,G,,,,,,,,,,,,,,,,,,,,,,,,,,,,,,87.6,1500,100,,,,,,,,,,,,,,0.121721158
X,11,6,2023,398,81643,41.18576333,-71.23365833,181,475,2,2,7,5,2,2,4,4,G,,,,,,,,,,,,,,,,,,,,,,,,,,,,,,87.9,1500,100,,,,,,,,,,,,,,0.122131401
X,11,6,2023,399,81648,41.18373833,-71.23371833,181,482,2,2,7,5,2,2,4,4,G,,,,,,,,,,,,,,,,,,,,,,,,,,,,,,87.2,1500,100,,,,,,,,,,,,,,0.12161215
X,11,6,2023,400,81648,41.18373833,-71.23371833,181,482,2,2,7,5,2,2,4,4,G,,,,,,,,,,,,,,,,,,,,,,,,,,,,,,87.2,1500,100,,,,,,,,,,,,,,0
X,11,6,2023,401,81653,41.18166833,-71.23380833,182,485,2,2,7,5,2,2,4,4,G,,,,,,,,,,,,,,,,,,,,,,,,,,,,,,90.6,1500,100,,,,,,,,,,,,,,0.124350267
X,11,6,2023,402,81658,41.179535,-71.23385833,181,487,2,2,7,5,2,2,4,4,G,,,,,,,,,,,,,,,,,,,,,,,,,,,,,,93,1500,100,,,,,,,,,,,,,,0.128106235
X,11,6,2023,403,81703,41.1774,-71.23379333,178,490,2,2,7,5,2,2,4,4,G,,,,,,,,,,,,,,,,,,,,,,,,,,,,,,91.9,1500,100,,,,,,,,,,,,,,0.128220026
X,11,6,2023,404,81708,41.17525167,-71.23366667,177,489,2,2,7,5,2,2,4,4,G,,,,,,,,,,,,,,,,,,,,,,,,,,,,,,93.7,1500,100,,,,,,,,,,,,,,0.129113871
X,11,6,2023,405,81713,41.17303667,-71.233475,177,491,2,2,7,5,2,2,4,4,G,,,,,,,,,,,,,,,,,,,,,,,,,,,,,,96.6,1500,100,,,,,,,,,,,,,,0.133271406
X,11,6,2023,406,81718,41.170795,-71.23320833,174,490,2,2,7,5,2,2,4,4,G,,,,,,,,,,,,,,,,,,,,,,,,,,,,,,98,1500,100,,,,,,,,,,,,,,0.135129209
X,11,6,2023,407,81723,41.16849,-71.23289167,175,486,2,2,7,5,2,2,4,4,G,,,,,,,,,,,,,,,,,,,,,,,,,,,,,,101,1500,100,,,,,,,,,,,,,,0.139131343
X,11,6,2023,408,81728,41.16612833,-71.23281833,180,491,2,2,7,5,2,2,4,4,G,,,,,,,,,,,,,,,,,,,,,,,,,,,,,,102,1500,100,,,,,,,,,,,,,,0.14183428
X,11,6,2023,409,81733,41.16375333,-71.23284167,180,493,2,2,7,5,2,2,4,4,G,,,,,,,,,,,,,,,,,,,,,,,,,,,,,,103.3,1500,100,,,,,,,,,,,,,,0.142599986
X,11,6,2023,410,81738,41.161365,-71.23275167,177,495,2,2,7,5,2,2,4,4,G,,,,,,,,,,,,,,,,,,,,,,,,,,,,,,103.4,1500,100,,,,,,,,,,,,,,0.143454319
X,11,6,2023,411,81743,41.15896167,-71.23264833,179,491,2,2,7,5,2,2,4,4,G,,,,,,,,,,,,,,,,,,,,,,,,,,,,,,104.3,1500,100,,,,,,,,,,,,,,0.144372813
X,11,6,2023,412,81748,41.15651,-71.23261667,179,491,2,2,7,5,2,2,4,4,G,,,,,,,,,,,,,,,,,,,,,,,,,,,,,,105.8,1500,100,,,,,,,,,,,,,,0.147206148
X,11,6,2023,413,81748,41.15651,-71.23261667,179,491,2,2,7,5,2,2,4,4,G,,,,,,,,,,,,,,,,,,,,,,,,,,,,,,105.8,1500,100,,,,,,,,,,,,,,0
X,11,6,2023,414,81753,41.15406333,-71.23251,178,489,2,2,7,5,2,2,4,4,G,,,,,,,,,,,,,,,,,,,,,,,,,,,,,,106.1,1500,100,,,,,,,,,,,,,,0.146978105
X,11,6,2023,415,81758,41.15159,-71.23247667,180,490,2,2,7,5,2,2,4,4,G,,,,,,,,,,,,,,,,,,,,,,,,,,,,,,107,1500,100,,,,,,,,,,,,,,0.14850771
X,11,6,2023,416,81803,41.14911667,-71.23254833,182,492,2,2,7,5,2,2,4,4,G,,,,,,,,,,,,,,,,,,,,,,,,,,,,,,106.7,1500,100,,,,,,,,,,,,,,0.148535406
X,11,6,2023,417,81808,41.14664333,-71.23266333,182,489,2,2,7,5,2,2,4,4,G,,,,,,,,,,,,,,,,,,,,,,,,,,,,,,107.1,1500,100,,,,,,,,,,,,,,0.148591055
X,11,6,2023,418,81813,41.14417667,-71.23274667,181,489,2,2,7,5,2,2,4,4,G,,,,,,,,,,,,,,,,,,,,,,,,,,,,,,105.9,1500,100,,,,,,,,,,,,,,0.148147714
X,11,6,2023,419,81818,41.14173833,-71.23277833,181,487,2,2,7,5,2,2,4,4,G,,,,,,,,,,,,,,,,,,,,,,,,,,,,,,105.1,1500,100,,,,,,,,,,,,,,0.146405649
X,11,6,2023,420,81823,41.13929667,-71.23280167,180,482,2,2,7,5,2,2,4,4,G,,,,,,,,,,,,,,,,,,,,,,,,,,,,,,105.6,1500,100,,,,,,,,,,,,,,0.146602579
X,11,6,2023,421,81828,41.13686333,-71.23280167,180,480,2,2,7,5,2,2,4,4,G,,,,,,,,,,,,,,,,,,,,,,,,,,,,,,105.1,1500,100,,,,,,,,,,,,,,0.146098446
X,11,6,2023,422,81833,41.134425,-71.23282833,181,478,2,2,7,5,2,2,4,4,G,,,,,,,,,,,,,,,,,,,,,,,,,,,,,,105.3,1500,100,,,,,,,,,,,,,,0.146403614
X,11,6,2023,423,81838,41.131995,-71.23289,181,478,2,2,7,5,2,2,4,4,G,,,,,,,,,,,,,,,,,,,,,,,,,,,,,,104.7,1500,100,,,,,,,,,,,,,,0.145924959
X,11,6,2023,424,81843,41.12959,-71.23296,181,477,2,2,7,5,2,2,4,4,G,,,,,,,,,,,,,,,,,,,,,,,,,,,,,,104,1500,100,,,,,,,,,,,,,,0.144431995
X,11,6,2023,425,81848,41.12720333,-71.23298167,180,476,2,2,7,5,2,2,4,4,G,,,,,,,,,,,,,,,,,,,,,,,,,,,,,,102.8,1500,100,,,,,,,,,,,,,,0.143299908
X,11,6,2023,426,81848,41.12720333,-71.23298167,180,476,2,2,7,5,2,2,4,4,G,,,,,,,,,,,,,,,,,,,,,,,,,,,,,,102.8,1500,100,,,,,,,,,,,,,,0
X,11,6,2023,427,81853,41.12483667,-71.23295333,179,474,2,2,7,5,2,2,4,4,G,,,,,,,,,,,,,,,,,,,,,,,,,,,,,,102.3,1500,100,,,,,,,,,,,,,,0.142101526
X,11,6,2023,428,81858,41.12248667,-71.232895,180,475,2,2,7,5,2,2,4,4,G,,,,,,,,,,,,,,,,,,,,,,,,,,,,,,101.6,1500,100,,,,,,,,,,,,,,0.141119739
X,11,6,2023,429,81903,41.12015667,-71.23292833,181,475,2,2,7,5,2,2,4,4,G,,,,,,,,,,,,,,,,,,,,,,,,,,,,,,100.5,1500,100,,,,,,,,,,,,,,0.139902389
X,11,6,2023,430,81908,41.11780333,-71.23297333,181,468,2,2,7,5,2,2,4,4,G,,,,,,,,,,,,,,,,,,,,,,,,,,,,,,101.6,1500,100,,,,,,,,,,,,,,0.141309869
X,11,6,2023,431,81913,41.11540667,-71.23303667,181,465,2,2,7,5,2,2,4,4,G,,,,,,,,,,,,,,,,,,,,,,,,,,,,,,104.3,1500,100,,,,,,,,,,,,,,0.143925476
X,11,6,2023,432,81918,41.11298667,-71.23306667,180,465,2,2,7,5,2,2,4,4,G,,,,,,,,,,,,,,,,,,,,,,,,,,,,,,104.6,1500,100,,,,,,,,,,,,,,0.145304243
X,11,6,2023,433,81923,41.11056833,-71.23306667,180,464,2,2,7,5,2,2,4,4,G,,,,,,,,,,,,,,,,,,,,,,,,,,,,,,103.9,1500,100,,,,,,,,,,,,,,0.145197839
X,11,6,2023,434,81928,41.10817,-71.23304667,180,463,2,2,7,5,2,2,4,4,G,,,,,,,,,,,,,,,,,,,,,,,,,,,,,,103.4,1500,100,,,,,,,,,,,,,,0.143999872
X,11,6,2023,435,81933,41.10578333,-71.233035,180,465,2,2,7,5,2,2,4,4,G,,,,,,,,,,,,,,,,,,,,,,,,,,,,,,102.5,1500,100,,,,,,,,,,,,,,0.14329753
X,11,6,2023,436,81938,41.10342167,-71.233125,182,467,2,2,7,5,2,2,4,4,G,,,,,,,,,,,,,,,,,,,,,,,,,,,,,,102,1500,100,,,,,,,,,,,,,,0.141853994
X,11,6,2023,437,81943,41.10109,-71.23326333,183,470,2,2,7,5,2,2,4,4,G,,,,,,,,,,,,,,,,,,,,,,,,,,,,,,100.3,1500,100,,,,,,,,,,,,,,0.140134161
X,11,6,2023,438,81948,41.09879333,-71.23340833,183,476,2,2,7,5,2,2,4,4,G,,,,,,,,,,,,,,,,,,,,,,,,,,,,,,98.9,1500,100,,,,,,,,,,,,,,0.138048889
X,11,6,2023,439,81948,41.09879333,-71.23340833,183,476,2,2,7,5,2,2,4,4,G,,,,,,,,,,,,,,,,,,,,,,,,,,,,,,98.9,1500,100,,,,,,,,,,,,,,0
P,11,6,2023,440,81948,41.09850768,-71.23342385,183,476,2,2,7,5,2,2,4,4,G,3,,,CV-O,1,,,1,9,0,,,,,,,,,,,,,,,,,,,,98.7,1500,100,,,,,,,,,,,,,,0.0171653
X,11,6,2023,441,81953,41.09652333,-71.23353167,182,477,2,2,7,5,2,2,4,4,G,,,,,,,,,,,,,,,,,,,,,,,,,,,,,,97.5,1500,100,,,,,,,,,,,,,,0.13640603
X,11,6,2023,442,81958,41.09426833,-71.23361333,182,476,2,2,7,5,2,2,4,4,G,,,,,,,,,,,,,,,,,,,,,,,,,,,,,,97.2,1500,100,,,,,,,,,,,,,,0.135441648
X,11,6,2023,443,82003,41.09201833,-71.23365167,181,478,2,2,7,5,2,2,4,4,G,,,,,,,,,,,,,,,,,,,,,,,,,,,,,,97.2,1500,100,,,,,,,,,,,,,,0.135102164
X,11,6,2023,444,82008,41.089775,-71.233635,179,478,2,2,7,5,2,2,4,4,G,,,,,,,,,,,,,,,,,,,,,,,,,,,,,,97.2,1500,100,,,,,,,,,,,,,,0.13469287
X,11,6,2023,445,82013,41.08750333,-71.23362667,180,475,2,2,7,5,2,2,4,4,G,,,,,,,,,,,,,,,,,,,,,,,,,,,,,,98.4,1500,100,,,,,,,,,,,,,,0.136392427
X,11,6,2023,446,82018,41.08521,-71.2336,180,473,2,2,7,5,2,2,4,4,G,,,,,,,,,,,,,,,,,,,,,,,,,,,,,,99,1500,100,,,,,,,,,,,,,,0.13769807
X,11,6,2023,447,82018,41.08521,-71.2336,180,473,2,2,7,5,2,2,4,4,G,,,,,,,,,,,,,,,,,,,,,,,,,,,,,,99,1500,100,,,,,,,,,,,,,,0
X,11,6,2023,448,82023,41.08289167,-71.23355,179,470,2,2,7,5,2,2,4,4,G,,,,,,,,,,,,,,,,,,,,,,,,,,,,,,100.2,1500,100,,,,,,,,,,,,,,0.139212184
X,11,6,2023,449,82028,41.080555,-71.233445,178,467,2,2,7,5,2,2,4,4,G,,,,,,,,,,,,,,,,,,,,,,,,,,,,,,101.1,1500,100,,,,,,,,,,,,,,0.14037499
X,11,6,2023,450,82033,41.078215,-71.23336167,179,467,2,2,7,5,2,2,4,4,G,,,,,,,,,,,,,,,,,,,,,,,,,,,,,,100.6,1500,100,,,,,,,,,,,,,,0.140545284
X,11,6,2023,451,82038,41.07587833,-71.23333,180,464,2,2,7,5,2,2,4,4,G,,,,,,,,,,,,,,,,,,,,,,,,,,,,,,101.2,1500,100,,,,,,,,,,,,,,0.140301856
X,11,6,2023,452,82043,41.07352667,-71.23336167,181,463,2,2,7,5,2,2,4,4,G,,,,,,,,,,,,,,,,,,,,,,,,,,,,,,101.7,1500,100,,,,,,,,,,,,,,0.141202416
X,11,6,2023,453,82048,41.07119333,-71.23341,181,464,2,2,7,5,2,2,4,4,G,,,,,,,,,,,,,,,,,,,,,,,,,,,,,,100.5,1500,100,,,,,,,,,,,,,,0.140111481
X,11,6,2023,454,82053,41.06888,-71.23347333,181,465,2,2,7,5,2,2,4,4,G,,,,,,,,,,,,,,,,,,,,,,,,,,,,,,99.9,1500,100,,,,,,,,,,,,,,0.138923173
P,11,6,2023,455,82053,41.06872102,-71.23347495,181,465,2,2,7,5,2,2,4,4,G,4,,,CV-C,1,,22,1,9,0,,,,,,,,,,,,,,,,,,,,99.8,1500,100,,,,,,,,,,ON STILTS,,,,0.009545418
X,11,6,2023,456,82058,41.066585,-71.23349667,180,466,2,2,7,5,2,2,4,4,G,,,,,,,,,,,,,,,,,,,,,,,,,,,,,,98.6,1500,100,,,,,,,,,,,,,,0.137796897
X,11,6,2023,457,82103,41.0643,-71.23346333,179,468,2,2,7,5,2,2,4,4,G,,,,,,,,,,,,,,,,,,,,,,,,,,,,,,98.3,1500,100,,,,,,,,,,,,,,0.137200743
P,11,6,2023,458,82104,41.06354995,-71.23345615,179,468,2,2,7,5,2,2,4,4,G,5,,,CV-O,2,,,1,9,0,,,,,,,,,,,,,,,,,,,,98.1,1500,100,,,,,,,,,,,,,,0.045034487
X,11,6,2023,459,82108,41.06203833,-71.23344167,179,467,2,2,7,5,2,2,4,4,G,,,,,,,,,,,,,,,,,,,,,,,,,,,,,,97.7,1500,100,,,,,,,,,,,,,,0.135795043
X,11,6,2023,460,82113,41.05977667,-71.23340833,179,465,2,2,7,5,2,2,4,4,G,,,,,,,,,,,,,,,,,,,,,,,,,,,,,,97.8,1500,100,,,,,,,,,,,,,,0.135799885
X,11,6,2023,461,82118,41.057505,-71.23337,179,464,2,2,7,5,2,2,4,4,G,,,,,,,,,,,,,,,,,,,,,,,,,,,,,,98.2,1500,100,,,,,,,,,,,,,,0.136402946
X,11,6,2023,462,82118,41.057505,-71.23337,179,464,2,2,7,5,2,2,4,4,G,,,,,,,,,,,,,,,,,,,,,,,,,,,,,,98.2,1500,100,,,,,,,,,,,,,,0
X,11,6,2023,463,82123,41.05521667,-71.23331667,179,463,2,2,7,5,2,2,4,4,G,,,,,,,,,,,,,,,,,,,,,,,,,,,,,,98.7,1500,100,,,,,,,,,,,,,,0.137413796
X,11,6,2023,464,82128,41.05294167,-71.23325333,179,465,2,2,7,5,2,2,4,4,G,,,,,,,,,,,,,,,,,,,,,,,,,,,,,,98.1,1500,100,,,,,,,,,,,,,,0.136622135
X,11,6,2023,465,82133,41.050665,-71.23320833,179,468,2,2,7,5,2,2,4,4,G,,,,,,,,,,,,,,,,,,,,,,,,,,,,,,98.1,1500,100,,,,,,,,,,,,,,0.136707292
S,11,6,2023,466,82135,41.04973594,-71.23320766,180,469,2,2,7,5,2,2,5,4,G,6,,,,,,,,,,,,,,,,,,,,,,,,,,,,,98.5,1500,100,,,,,,,,,,,,,,0.055781032
X,11,6,2023,467,82138,41.04837333,-71.23320667,180,472,2,2,7,5,2,2,5,4,G,,,,,,,,,,,,,,,,,,,,,,,,,,,,,,98.9,1500,100,,,,,,,,,,,,,,0.137592735
X,11,6,2023,468,82143,41.04609,-71.23325167,181,476,2,2,7,5,2,2,5,4,G,,,,,,,,,,,,,,,,,,,,,,,,,,,,,,98.1,1500,100,,,,,,,,,,,,,,0.137107519
X,11,6,2023,469,82148,41.04381,-71.23331333,181,479,2,2,7,5,2,2,5,4,G,,,,,,,,,,,,,,,,,,,,,,,,,,,,,,99,1500,100,,,,,,,,,,,,,,0.13692072
X,11,6,2023,470,82148,41.04381,-71.23331333,181,479,2,2,7,5,2,2,5,4,G,,,,,,,,,,,,,,,,,,,,,,,,,,,,,,99,1500,100,,,,,,,,,,,,,,0
X,11,6,2023,471,82153,41.04147,-71.23339667,182,481,2,2,7,5,2,2,5,4,G,,,,,,,,,,,,,,,,,,,,,,,,,,,,,,101.8,1500,100,,,,,,,,,,,,,,0.14054534
X,11,6,2023,472,82158,41.039085,-71.23345,180,486,2,2,7,5,2,2,5,4,G,,,,,,,,,,,,,,,,,,,,,,,,,,,,,,103,1500,100,,,,,,,,,,,,,,0.143216857
X,11,6,2023,473,82203,41.036695,-71.233465,180,491,2,2,7,5,2,2,5,4,G,,,,,,,,,,,,,,,,,,,,,,,,,,,,,,103.3,1500,100,,,,,,,,,,,,,,0.143498301
X,11,6,2023,474,82208,41.03429833,-71.23344667,180,491,2,2,7,5,2,2,5,4,G,,,,,,,,,,,,,,,,,,,,,,,,,,,,,,103.8,1500,100,,,,,,,,,,,,,,0.143899358
X,11,6,2023,475,82213,41.03187167,-71.23337167,178,490,2,2,7,5,2,2,5,4,G,,,,,,,,,,,,,,,,,,,,,,,,,,,,,,105.1,1500,100,,,,,,,,,,,,,,0.145737767
X,11,6,2023,476,82218,41.02943667,-71.2333,179,491,2,2,7,5,2,2,5,4,G,,,,,,,,,,,,,,,,,,,,,,,,,,,,,,105.4,1500,100,,,,,,,,,,,,,,0.146234542
X,11,6,2023,477,82223,41.02698667,-71.233285,180,492,2,2,7,5,2,2,5,4,G,,,,,,,,,,,,,,,,,,,,,,,,,,,,,,105.8,1500,100,,,,,,,,,,,,,,0.147100689
X,11,6,2023,478,82228,41.02453333,-71.23326,180,490,2,2,7,5,2,2,5,4,G,,,,,,,,,,,,,,,,,,,,,,,,,,,,,,106,1500,100,,,,,,,,,,,,,,0.147303608
X,11,6,2023,479,82233,41.022075,-71.233245,180,489,2,2,7,5,2,2,5,4,G,,,,,,,,,,,,,,,,,,,,,,,,,,,,,,106.1,1500,100,,,,,,,,,,,,,,0.147601021
X,11,6,2023,480,82238,41.01962667,-71.23324333,180,484,2,2,7,5,2,2,5,4,G,,,,,,,,,,,,,,,,,,,,,,,,,,,,,,105.7,1500,100,,,,,,,,,,,,,,0.146999072
X,11,6,2023,481,82243,41.01715833,-71.23326667,181,475,2,2,7,5,2,2,5,4,G,,,,,,,,,,,,,,,,,,,,,,,,,,,,,,106.7,1500,100,,,,,,,,,,,,,,0.148203631
X,11,6,2023,482,82248,41.01470333,-71.23327167,180,470,2,2,7,5,2,2,5,4,G,,,,,,,,,,,,,,,,,,,,,,,,,,,,,,105.7,1500,100,,,,,,,,,,,,,,0.147399496
X,11,6,2023,483,82253,41.01228333,-71.23320833,179,468,2,2,7,5,2,2,5,4,G,,,,,,,,,,,,,,,,,,,,,,,,,,,,,,104.1,1500,100,,,,,,,,,,,,,,0.145326234
X,11,6,2023,484,82258,41.00987833,-71.23325833,182,470,2,2,7,5,2,2,5,4,G,,,,,,,,,,,,,,,,,,,,,,,,,,,,,,103.9,1500,100,,,,,,,,,,,,,,0.144415067
X,11,6,2023,485,82303,41.00749833,-71.23333167,181,472,2,2,7,5,2,2,5,4,G,,,,,,,,,,,,,,,,,,,,,,,,,,,,,,101.9,1500,100,,,,,,,,,,,,,,0.142934909
X,11,6,2023,486,82308,41.00518833,-71.23333667,180,474,2,2,7,5,2,2,5,4,G,,,,,,,,,,,,,,,,,,,,,,,,,,,,,,99.4,1500,100,,,,,,,,,,,,,,0.138693641
X,11,6,2023,487,82313,41.00292833,-71.23330667,180,476,2,2,7,5,2,2,5,4,G,,,,,,,,,,,,,,,,,,,,,,,,,,,,,,97.3,1500,100,,,,,,,,,,,,,,0.135698242
X,11,6,2023,488,82318,41.00070667,-71.23323,178,480,2,2,7,5,2,2,5,4,G,,,,,,,,,,,,,,,,,,,,,,,,,,,,,,95.6,1500,100,,,,,,,,,,,,,,0.133435111
X,11,6,2023,489,82318,41.00070667,-71.23323,178,480,2,2,7,5,2,2,5,4,G,,,,,,,,,,,,,,,,,,,,,,,,,,,,,,95.6,1500,100,,,,,,,,,,,,,,0
X,11,6,2023,490,82323,40.99851667,-71.23321667,181,485,2,2,7,5,2,2,5,4,G,,,,,,,,,,,,,,,,,,,,,,,,,,,,,,94.2,1500,100,,,,,,,,,,,,,,0.131489989
X,11,6,2023,491,82328,40.99629667,-71.23327167,181,481,2,2,7,5,2,2,5,4,G,,,,,,,,,,,,,,,,,,,,,,,,,,,,,,96.8,1500,100,,,,,,,,,,,,,,0.133313114
X,11,6,2023,492,82333,40.99399,-71.23336333,182,476,2,2,7,5,2,2,5,4,G,,,,,,,,,,,,,,,,,,,,,,,,,,,,,,100.3,1500,100,,,,,,,,,,,,,,0.138555605
S,11,6,2023,493,82335,40.99288971,-71.23341317,182,473,2,2,7,5,2,2,4,4,G,7,,,,,,,,,,,,,,,,,,,,,,,,,,,,,101.1,1500,100,,,,,,,,,,,,,,0.066100345
X,11,6,2023,494,82338,40.991635,-71.23347,182,470,2,2,7,5,2,2,4,4,G,,,,,,,,,,,,,,,,,,,,,,,,,,,,,,102,1500,100,,,,,,,,,,,,,,0.141477882
P,11,6,2023,495,82342,40.98940085,-71.23354405,181,468,2,2,7,5,2,2,4,4,G,8,,,FV-T,1,,,1,9,0,,,,,,,,,,,,,,,,,,,,101.8,1500,100,,,,,,,,,,,,,,0.134181305
X,11,6,2023,496,82343,40.98927167,-71.23354833,181,468,2,2,7,5,2,2,4,4,G,,,,,,,,,,,,,,,,,,,,,,,,,,,,,,101.8,1500,100,,,,,,,,,,,,,,0.141940016
X,11,6,2023,497,82348,40.986915,-71.23357,180,466,2,2,7,5,2,2,4,4,G,,,,,,,,,,,,,,,,,,,,,,,,,,,,,,101.8,1500,100,,,,,,,,,,,,,,0.141498751
X,11,6,2023,498,82348,40.986915,-71.23357,180,466,2,2,7,5,2,2,4,4,G,,,,,,,,,,,,,,,,,,,,,,,,,,,,,,101.8,1500,100,,,,,,,,,,,,,,0
X,11,6,2023,499,82353,40.98457333,-71.23356833,180,468,2,2,7,5,2,2,4,4,G,,,,,,,,,,,,,,,,,,,,,,,,,,,,,,101.1,1500,100,,,,,,,,,,,,,,0.140594758
X,11,6,2023,500,82358,40.98226,-71.23358167,180,469,2,2,7,5,2,2,4,4,G,,,,,,,,,,,,,,,,,,,,,,,,,,,,,,99.2,1500,100,,,,,,,,,,,,,,0.138894906
X,11,6,2023,501,82403,40.97998167,-71.23362167,180,472,2,2,7,5,2,2,4,4,G,,,,,,,,,,,,,,,,,,,,,,,,,,,,,,97.9,1500,100,,,,,,,,,,,,,,0.136804189
X,11,6,2023,502,82408,40.97775833,-71.23359333,179,475,2,2,7,5,2,2,4,4,G,,,,,,,,,,,,,,,,,,,,,,,,,,,,,,95.4,1500,100,,,,,,,,,,,,,,0.133496128
X,11,6,2023,503,82413,40.97552833,-71.23359,180,477,2,2,7,5,2,2,4,4,G,,,,,,,,,,,,,,,,,,,,,,,,,,,,,,96.5,1500,100,,,,,,,,,,,,,,0.133890305
X,11,6,2023,504,82418,40.973285,-71.23358333,180,479,2,2,7,5,2,2,4,4,G,,,,,,,,,,,,,,,,,,,,,,,,,,,,,,96.9,1500,100,,,,,,,,,,,,,,0.134691098
X,11,6,2023,505,82423,40.97102833,-71.23364833,181,478,2,2,7,5,2,2,4,4,G,,,,,,,,,,,,,,,,,,,,,,,,,,,,,,97.9,1500,100,,,,,,,,,,,,,,0.135523335
X,11,6,2023,506,82428,40.96876333,-71.233705,181,476,2,2,7,5,2,2,4,4,G,,,,,,,,,,,,,,,,,,,,,,,,,,,,,,97.4,1500,100,,,,,,,,,,,,,,0.136015897
X,11,6,2023,507,82433,40.966525,-71.23370167,179,476,2,2,7,5,2,2,4,4,G,,,,,,,,,,,,,,,,,,,,,,,,,,,,,,96.5,1500,100,,,,,,,,,,,,,,0.134390642
X,11,6,2023,508,82438,40.96432167,-71.23366333,179,478,2,2,7,5,2,2,4,4,G,,,,,,,,,,,,,,,,,,,,,,,,,,,,,,95.1,1500,100,,,,,,,,,,,,,,0.132300556
X,11,6,2023,509,82443,40.96210833,-71.23358667,178,479,2,2,7,5,2,2,4,4,G,,,,,,,,,,,,,,,,,,,,,,,,,,,,,,96.2,1500,100,,,,,,,,,,,,,,0.132934997
X,11,6,2023,510,82448,40.95986167,-71.23348,178,477,2,2,7,5,2,2,4,4,G,,,,,,,,,,,,,,,,,,,,,,,,,,,,,,97.4,1500,100,,,,,,,,,,,,,,0.134977563
X,11,6,2023,511,82448,40.95986167,-71.23348,178,477,2,2,7,5,2,2,4,4,G,,,,,,,,,,,,,,,,,,,,,,,,,,,,,,97.4,1500,100,,,,,,,,,,,,,,0
X,11,6,2023,512,82453,40.95759,-71.23342,180,470,2,2,7,5,2,2,4,4,G,,,,,,,,,,,,,,,,,,,,,,,,,,,,,,98.7,1500,100,,,,,,,,,,,,,,0.136419034
X,11,6,2023,513,82458,40.95528,-71.233425,180,465,2,2,7,5,2,2,4,4,G,,,,,,,,,,,,,,,,,,,,,,,,,,,,,,99.9,1500,100,,,,,,,,,,,,,,0.138693641
X,11,6,2023,514,82503,40.95293667,-71.23341667,180,461,2,2,7,5,2,2,4,4,G,,,,,,,,,,,,,,,,,,,,,,,,,,,,,,101.9,1500,100,,,,,,,,,,,,,,0.140695312
X,11,6,2023,515,82508,40.95057833,-71.23342333,180,460,2,2,7,5,2,2,4,4,G,,,,,,,,,,,,,,,,,,,,,,,,,,,,,,101.4,1500,100,,,,,,,,,,,,,,0.141595734
X,11,6,2023,516,82513,40.948235,-71.23345667,181,459,2,2,7,5,2,2,4,4,G,,,,,,,,,,,,,,,,,,,,,,,,,,,,,,101,1500,100,,,,,,,,,,,,,,0.140702925
X,11,6,2023,517,82518,40.945915,-71.23348667,180,462,2,2,7,5,2,2,4,4,G,,,,,,,,,,,,,,,,,,,,,,,,,,,,,,99.9,1500,100,,,,,,,,,,,,,,0.139300504
X,11,6,2023,518,82523,40.94359,-71.233495,180,463,2,2,7,5,2,2,4,4,G,,,,,,,,,,,,,,,,,,,,,,,,,,,,,,100.6,1500,100,,,,,,,,,,,,,,0.139594575
X,11,6,2023,519,82528,40.94128333,-71.23346,179,462,2,2,7,5,2,2,4,4,G,,,,,,,,,,,,,,,,,,,,,,,,,,,,,,99.1,1500,100,,,,,,,,,,,,,,0.138502418
X,11,6,2023,520,82533,40.93899333,-71.23339167,179,460,2,2,7,5,2,2,4,4,G,,,,,,,,,,,,,,,,,,,,,,,,,,,,,,98.7,1500,100,,,,,,,,,,,,,,0.137527572
X,11,6,2023,521,82538,40.93671833,-71.23332333,179,460,2,2,7,5,2,2,4,4,G,,,,,,,,,,,,,,,,,,,,,,,,,,,,,,98.3,1500,100,,,,,,,,,,,,,,0.136627198
X,11,6,2023,522,82543,40.93445333,-71.233225,178,458,2,2,7,5,2,2,4,4,G,,,,,,,,,,,,,,,,,,,,,,,,,,,,,,98,1500,100,,,,,,,,,,,,,,0.136064756
X,11,6,2023,523,82548,40.93217667,-71.233215,180,458,2,2,7,5,2,2,4,4,G,,,,,,,,,,,,,,,,,,,,,,,,,,,,,,98.5,1500,100,,,,,,,,,,,,,,0.13669286
X,11,6,2023,524,82548,40.93217667,-71.233215,180,458,2,2,7,5,2,2,4,4,G,,,,,,,,,,,,,,,,,,,,,,,,,,,,,,98.5,1500,100,,,,,,,,,,,,,,0
X,11,6,2023,525,82553,40.92988333,-71.23333667,183,460,2,2,7,5,2,2,4,4,G,,,,,,,,,,,,,,,,,,,,,,,,,,,,,,98.8,1500,100,,,,,,,,,,,,,,0.137803338
X,11,6,2023,526,82558,40.927615,-71.23347333,182,462,2,2,7,5,2,2,4,4,G,,,,,,,,,,,,,,,,,,,,,,,,,,,,,,97.4,1500,100,,,,,,,,,,,,,,0.136332798
X,11,6,2023,527,82603,40.92537667,-71.23361667,183,463,2,2,7,5,2,2,4,4,G,,,,,,,,,,,,,,,,,,,,,,,,,,,,,,96.1,1500,100,,,,,,,,,,,,,,0.134547758
X,11,6,2023,528,82608,40.92316667,-71.23373833,182,463,2,2,7,5,2,2,4,4,G,,,,,,,,,,,,,,,,,,,,,,,,,,,,,,95.4,1500,100,,,,,,,,,,,,,,0.132804155
X,11,6,2023,529,82613,40.92095,-71.23383,181,459,2,2,7,5,2,2,4,4,G,,,,,,,,,,,,,,,,,,,,,,,,,,,,,,96,1500,100,,,,,,,,,,,,,,0.133154636
X,11,6,2023,530,82618,40.91870333,-71.23385333,180,453,2,2,7,5,2,2,4,4,G,,,,,,,,,,,,,,,,,,,,,,,,,,,,,,97.9,1500,100,,,,,,,,,,,,,,0.134895048
S,11,6,2023,531,82623,40.91642667,-71.23381,179,454,2,5,7,5,2,2,4,4,G,9,,,,,,,,,,,,,,,,,,,,,,,,,,,,,98.5,1500,100,,,,,,,,,,END LINE,,,,0.136706245
X,11,6,2023,532,82624,40.91590881,-71.23377358,178,456,3,-,,5,,,4,4,G,,,,,,,,,,,,,,,,,,,,,,,,,,,,,,98,1500,100,,,,,,,,,,,,,,0.031136141
X,11,6,2023,533,82625,40.91534506,-71.23373394,177,457,3,-,,5,,,4,4,G,,,,,,,,,,,,,,,,,,,,,,,,,,,,,,97.4,1500,100,,,,,,,,,,,,,,0.065031704
X,11,6,2023,534,82628,40.914175,-71.23365167,176,460,3,-,,5,,,4,4,G,,,,,,,,,,,,,,,,,,,,,,,,,,,,,,96.3,1500,100,,,,,,,,,,,,,,0.135381828
X,11,6,2023,535,82633,40.91199,-71.23315,168,457,3,-,,5,,,4,4,G,,,,,,,,,,,,,,,,,,,,,,,,,,,,,,96.1,1500,100,,,,,,,,,,,,,,0.133148435
X,11,6,2023,536,82638,40.90990333,-71.23226333,160,460,3,-,,5,,,4,4,G,,,,,,,,,,,,,,,,,,,,,,,,,,,,,,93.8,1500,100,,,,,,,,,,,,,,0.13158567
X,11,6,2023,537,82643,40.908015,-71.230975,150,461,3,-,,5,,,4,4,G,,,,,,,,,,,,,,,,,,,,,,,,,,,,,,91,1500,100,,,,,,,,,,,,,,0.127560402
X,11,6,2023,538,82648,40.906395,-71.22933,140,464,3,-,,5,,,4,4,G,,,,,,,,,,,,,,,,,,,,,,,,,,,,,,87.3,1500,100,,,,,,,,,,,,,,0.122606883
X,11,6,2023,539,82648,40.906395,-71.22933,140,464,3,-,,5,,,4,4,G,,,,,,,,,,,,,,,,,,,,,,,,,,,,,,87.3,1500,100,,,,,,,,,,,,,,0
X,11,6,2023,540,82653,40.905065,-71.22739667,129,466,3,-,,5,,,4,4,G,,,,,,,,,,,,,,,,,,,,,,,,,,,,,,84.4,1500,100,,,,,,,,,,,,,,0.118630836
X,11,6,2023,541,82658,40.90402833,-71.22523667,120,466,3,-,,5,,,4,4,G,,,,,,,,,,,,,,,,,,,,,,,,,,,,,,83.7,1500,100,,,,,,,,,,,,,,0.116110174
X,11,6,2023,542,82703,40.90327833,-71.22287667,110,460,3,-,,5,,,4,4,G,,,,,,,,,,,,,,,,,,,,,,,,,,,,,,84.3,1500,100,,,,,,,,,,,,,,0.11617699
X,11,6,2023,543,82708,40.90292,-71.22031167,98,460,3,-,,5,,,4,4,G,,,,,,,,,,,,,,,,,,,,,,,,,,,,,,85,1500,100,,,,,,,,,,,,,,0.118370442
X,11,6,2023,544,82713,40.90279833,-71.21775,94,465,3,-,,5,,,4,4,G,,,,,,,,,,,,,,,,,,,,,,,,,,,,,,83.2,1500,100,,,,,,,,,,,,,,0.116477279
X,11,6,2023,545,82718,40.90267,-71.21520833,93,467,3,-,,5,,,4,4,G,,,,,,,,,,,,,,,,,,,,,,,,,,,,,,83.4,1500,100,,,,,,,,,,,,,,0.115597691
X,11,6,2023,546,82723,40.90256833,-71.21265333,93,466,3,-,,5,,,4,4,G,,,,,,,,,,,,,,,,,,,,,,,,,,,,,,84.1,1500,100,,,,,,,,,,,,,,0.116106445
X,11,6,2023,547,82728,40.90247,-71.21005667,92,465,3,-,,5,,,4,4,G,,,,,,,,,,,,,,,,,,,,,,,,,,,,,,85.1,1500,100,,,,,,,,,,,,,,0.117984698
X,11,6,2023,548,82733,40.90235833,-71.20742833,94,460,3,-,,5,,,4,4,G,,,,,,,,,,,,,,,,,,,,,,,,,,,,,,86.3,1500,100,,,,,,,,,,,,,,0.119462397
X,11,6,2023,549,82738,40.902175,-71.204745,95,457,3,-,,5,,,4,4,G,,,,,,,,,,,,,,,,,,,,,,,,,,,,,,88.4,1500,100,,,,,,,,,,,,,,0.122266786
X,11,6,2023,550,82743,40.90198,-71.20207833,96,461,3,-,,5,,,4,4,G,,,,,,,,,,,,,,,,,,,,,,,,,,,,,,87.1,1500,100,,,,,,,,,,,,,,0.121579338
X,11,6,2023,551,82748,40.9018,-71.19945,95,462,3,-,,5,,,4,4,G,,,,,,,,,,,,,,,,,,,,,,,,,,,,,,86.2,1500,100,,,,,,,,,,,,,,0.11976367
X,11,6,2023,552,82753,40.90165667,-71.196805,94,457,3,-,,5,,,4,4,G,,,,,,,,,,,,,,,,,,,,,,,,,,,,,,87.6,1500,100,,,,,,,,,,,,,,0.120339798
X,11,6,2023,553,82758,40.90156,-71.19409667,92,449,3,-,,5,,,4,4,G,,,,,,,,,,,,,,,,,,,,,,,,,,,,,,89.3,1500,100,,,,,,,,,,,,,,0.123042981
X,11,6,2023,554,82803,40.90145333,-71.191365,93,446,3,-,,5,,,4,4,G,,,,,,,,,,,,,,,,,,,,,,,,,,,,,,89.5,1500,100,,,,,,,,,,,,,,0.124130414
X,11,6,2023,555,82808,40.90129667,-71.188635,94,443,3,-,,5,,,4,4,G,,,,,,,,,,,,,,,,,,,,,,,,,,,,,,89.9,1500,100,,,,,,,,,,,,,,0.124246281
X,11,6,2023,556,82813,40.9012,-71.18587167,92,448,3,-,,5,,,4,4,G,,,,,,,,,,,,,,,,,,,,,,,,,,,,,,90.3,1500,100,,,,,,,,,,,,,,0.125536877
X,11,6,2023,557,82818,40.90110333,-71.18315833,92,454,3,-,,5,,,4,4,G,,,,,,,,,,,,,,,,,,,,,,,,,,,,,,88.4,1500,100,,,,,,,,,,,,,,0.123270481
X,11,6,2023,558,82818,40.90110333,-71.18315833,92,454,3,-,,5,,,4,4,G,,,,,,,,,,,,,,,,,,,,,,,,,,,,,,88.4,1500,100,,,,,,,,,,,,,,0
X,11,6,2023,559,82823,40.90107,-71.18045167,91,456,3,-,,5,,,4,4,G,,,,,,,,,,,,,,,,,,,,,,,,,,,,,,88.8,1500,100,,,,,,,,,,,,,,0.122847658
X,11,6,2023,560,82828,40.901045,-71.17772833,90,457,3,-,,5,,,4,4,G,,,,,,,,,,,,,,,,,,,,,,,,,,,,,,89.2,1500,100,,,,,,,,,,,,,,0.123596874
X,11,6,2023,561,82833,40.90103,-71.17501,90,459,3,-,,5,,,4,4,G,,,,,,,,,,,,,,,,,,,,,,,,,,,,,,88.9,1500,100,,,,,,,,,,,,,,0.123364179
X,11,6,2023,562,82838,40.901035,-71.17231833,90,461,3,-,,5,,,4,4,G,,,,,,,,,,,,,,,,,,,,,,,,,,,,,,87.4,1500,100,,,,,,,,,,,,,,0.122151108
X,11,6,2023,563,82843,40.90097167,-71.169665,92,464,3,-,,5,,,4,4,G,,,,,,,,,,,,,,,,,,,,,,,,,,,,,,86.6,1500,100,,,,,,,,,,,,,,0.120471211
X,11,6,2023,564,82848,40.900885,-71.16701333,93,468,3,-,,5,,,4,4,G,,,,,,,,,,,,,,,,,,,,,,,,,,,,,,86.7,1500,100,,,,,,,,,,,,,,0.120448137
X,11,6,2023,565,82853,40.90075333,-71.16437333,94,469,3,-,,5,,,4,4,G,,,,,,,,,,,,,,,,,,,,,,,,,,,,,,86.6,1500,100,,,,,,,,,,,,,,0.120066966
X,11,6,2023,566,82858,40.90058833,-71.16173167,95,469,3,-,,5,,,4,4,G,,,,,,,,,,,,,,,,,,,,,,,,,,,,,,87,1500,100,,,,,,,,,,,,,,0.120290971
X,11,6,2023,567,82903,40.90043333,-71.15908167,94,472,3,-,,5,,,4,4,G,,,,,,,,,,,,,,,,,,,,,,,,,,,,,,86.8,1500,100,,,,,,,,,,,,,,0.12062035
X,11,6,2023,568,82908,40.90028833,-71.15640167,94,473,3,-,,5,,,4,4,G,,,,,,,,,,,,,,,,,,,,,,,,,,,,,,88.1,1500,100,,,,,,,,,,,,,,0.121933717
X,11,6,2023,569,82913,40.90016833,-71.15368833,93,473,3,-,,5,,,4,4,G,,,,,,,,,,,,,,,,,,,,,,,,,,,,,,89.3,1500,100,,,,,,,,,,,,,,0.123346096
X,11,6,2023,570,82918,40.90002,-71.15096667,94,475,3,-,,5,,,4,4,G,,,,,,,,,,,,,,,,,,,,,,,,,,,,,,89.3,1500,100,,,,,,,,,,,,,,0.123834592
X,11,6,2023,571,82918,40.90002,-71.15096667,94,475,3,-,,5,,,4,4,G,,,,,,,,,,,,,,,,,,,,,,,,,,,,,,89.3,1500,100,,,,,,,,,,,,,,0
X,11,6,2023,572,82923,40.89989,-71.148235,93,473,3,-,,5,,,4,4,G,,,,,,,,,,,,,,,,,,,,,,,,,,,,,,90.1,1500,100,,,,,,,,,,,,,,0.124213475
X,11,6,2023,573,82928,40.899835,-71.14544667,91,471,3,-,,5,,,4,4,G,,,,,,,,,,,,,,,,,,,,,,,,,,,,,,91.6,1500,100,,,,,,,,,,,,,,0.126582895
X,11,6,2023,574,82933,40.89981667,-71.14264667,90,470,3,-,,5,,,4,4,G,,,,,,,,,,,,,,,,,,,,,,,,,,,,,,91.5,1500,100,,,,,,,,,,,,,,0.127074108
X,11,6,2023,575,82938,40.89975,-71.13983333,92,469,3,-,,5,,,4,4,G,,,,,,,,,,,,,,,,,,,,,,,,,,,,,,92.1,1500,100,,,,,,,,,,,,,,0.127737243
X,11,6,2023,576,82943,40.8997,-71.13696667,90,464,3,-,,5,,,4,4,G,,,,,,,,,,,,,,,,,,,,,,,,,,,,,,94.5,1500,100,,,,,,,,,,,,,,0.130129632
X,11,6,2023,577,82948,40.89973,-71.13406667,89,463,3,-,,5,,,4,4,G,,,,,,,,,,,,,,,,,,,,,,,,,,,,,,95.3,1500,100,,,,,,,,,,,,,,0.131620077
X,11,6,2023,578,82948,40.89973,-71.13406667,89,463,3,-,,5,,,4,4,G,,,,,,,,,,,,,,,,,,,,,,,,,,,,,,95.3,1500,100,,,,,,,,,,,,,,0
X,11,6,2023,579,82953,40.89980333,-71.13115667,88,463,3,-,,5,,,4,4,G,,,,,,,,,,,,,,,,,,,,,,,,,,,,,,95.1,1500,100,,,,,,,,,,,,,,0.132134846
X,11,6,2023,580,82958,40.89987167,-71.12823167,88,460,3,-,,5,,,4,4,G,,,,,,,,,,,,,,,,,,,,,,,,,,,,,,96.4,1500,100,,,,,,,,,,,,,,0.132805444
X,11,6,2023,581,83003,40.89995333,-71.12527833,88,458,3,-,,5,,,4,4,G,,,,,,,,,,,,,,,,,,,,,,,,,,,,,,96.5,1500,100,,,,,,,,,,,,,,0.134117386
X,11,6,2023,582,83008,40.90002333,-71.12233333,88,458,3,-,,5,,,4,4,G,,,,,,,,,,,,,,,,,,,,,,,,,,,,,,96.8,1500,100,,,,,,,,,,,,,,0.133715455
X,11,6,2023,583,83013,40.90007333,-71.11939,89,457,3,-,,5,,,4,4,G,,,,,,,,,,,,,,,,,,,,,,,,,,,,,,96.3,1500,100,,,,,,,,,,,,,,0.133607362
X,11,6,2023,584,83018,40.90008333,-71.11644833,89,457,3,-,,5,,,4,4,G,,,,,,,,,,,,,,,,,,,,,,,,,,,,,,95.8,1500,100,,,,,,,,,,,,,,0.133499285
X,11,6,2023,585,83023,40.90016667,-71.11352833,87,459,3,-,,5,,,4,4,G,,,,,,,,,,,,,,,,,,,,,,,,,,,,,,95.2,1500,100,,,,,,,,,,,,,,0.132608993
X,11,6,2023,586,83028,40.90042833,-71.110635,82,460,3,-,,5,,,4,4,G,,,,,,,,,,,,,,,,,,,,,,,,,,,,,,95.5,1500,100,,,,,,,,,,,,,,0.132240598
X,11,6,2023,587,83033,40.90105333,-71.10784,70,461,3,-,,5,,,4,4,G,,,,,,,,,,,,,,,,,,,,,,,,,,,,,,95.6,1500,100,,,,,,,,,,,,,,0.132275108
S,11,6,2023,588,83037,40.90208958,-71.10553236,57,460,3,-,,5,,,4,4,G,10,,,FV-T,4,,,1,9,0,,,,,,,,,,,,,,,,,,,,96.9,1500,100,,,,,,,,,,,,,,0.121810112
X,11,6,2023,589,83038,40.90219167,-71.105305,56,460,3,-,,5,,,4,4,G,,,,,,,,,,,,,,,,,,,,,,,,,,,,,,97.1,1500,100,,,,,,,,,,,,,,0.133811012
X,11,6,2023,590,83043,40.90384,-71.10317333,41,454,3,-,,5,,,4,4,G,,,,,,,,,,,,,,,,,,,,,,,,,,,,,,100.6,1500,100,,,,,,,,,,,,,,0.138390591
X,11,6,2023,591,83048,40.905855,-71.10149333,29,452,3,-,,5,,,4,4,G,,,,,,,,,,,,,,,,,,,,,,,,,,,,,,103.7,1500,100,,,,,,,,,,,,,,0.142998
X,11,6,2023,592,83048,40.905855,-71.10149333,29,452,3,-,,5,,,4,4,G,,,,,,,,,,,,,,,,,,,,,,,,,,,,,,103.7,1500,100,,,,,,,,,,,,,,0
X,11,6,2023,593,83053,40.90812,-71.10039333,17,456,3,-,,5,,,4,4,G,,,,,,,,,,,,,,,,,,,,,,,,,,,,,,104.8,1500,100,,,,,,,,,,,,,,0.144862699
X,11,6,2023,594,83058,40.91054833,-71.10004333,3,461,3,-,,5,,,4,4,G,,,,,,,,,,,,,,,,,,,,,,,,,,,,,,105.9,1500,100,,,,,,,,,,,,,,0.14666065
X,11,6,2023,595,83103,40.913015,-71.10019833,356,464,3,-,,5,,,4,4,G,,,,,,,,,,,,,,,,,,,,,,,,,,,,,,105.9,1500,100,,,,,,,,,,,,,,0.148266689
X,11,6,2023,596,83108,40.91545333,-71.10015667,3,463,3,-,,5,,,4,4,G,,,,,,,,,,,,,,,,,,,,,,,,,,,,,,105.2,1500,100,,,,,,,,,,,,,,0.146410854
S,11,6,2023,597,83110,40.91635617,-71.10009104,3,462,2,1,15,5,2,2,4,4,G,11,,,,,,,,,,,,,,,,,,,,,,,,,,,,,105.8,1500,100,,,,,,,,,,BEGIN LINE - ,,,,0.05428859
X,11,6,2023,598,83112,40.91729179,-71.10002303,2,460,2,2,15,5,2,2,4,4,G,,,,,,,,,,,,,,,,,,,,,,,,,,,,,,106.3,1500,100,,,,,,,,,,,,,,0.110548376
X,11,6,2023,599,83113,40.91790667,-71.09997833,2,459,2,2,15,5,2,2,4,4,G,,,,,,,,,,,,,,,,,,,,,,,,,,,,,,106.7,1500,100,,,,,,,,,,,,,,0.147521305
X,11,6,2023,600,83118,40.92039667,-71.10001333,360,456,2,2,15,5,2,2,4,4,G,,,,,,,,,,,,,,,,,,,,,,,,,,,,,,107.5,1500,100,,,,,,,,,,,,,,0.149509171
X,11,6,2023,601,83123,40.92290167,-71.09999833,360,454,2,2,15,5,2,2,4,4,G,,,,,,,,,,,,,,,,,,,,,,,,,,,,,,108,1500,100,,,,,,,,,,,,,,0.150402885
X,11,6,2023,602,83128,40.92539667,-71.100045,359,455,2,2,15,5,2,2,4,4,G,,,,,,,,,,,,,,,,,,,,,,,,,,,,,,107,1500,100,,,,,,,,,,,,,,0.149815899
X,11,6,2023,603,83133,40.927865,-71.10016333,358,459,2,2,15,5,2,2,4,4,G,,,,,,,,,,,,,,,,,,,,,,,,,,,,,,106.4,1500,100,,,,,,,,,,,,,,0.148297049
X,11,6,2023,604,83138,40.930285,-71.10016833,1,464,2,2,15,5,2,2,4,4,G,,,,,,,,,,,,,,,,,,,,,,,,,,,,,,104,1500,100,,,,,,,,,,,,,,0.145298083
X,11,6,2023,605,83143,40.932685,-71.10012167,1,464,2,2,15,5,2,2,4,4,G,,,,,,,,,,,,,,,,,,,,,,,,,,,,,,103.4,1500,100,,,,,,,,,,,,,,0.144112644
X,11,6,2023,606,83148,40.93508333,-71.10006833,1,464,2,2,15,5,2,2,4,4,G,,,,,,,,,,,,,,,,,,,,,,,,,,,,,,103.5,1500,100,,,,,,,,,,,,,,0.144017349
X,11,6,2023,607,83153,40.93746667,-71.09995333,3,466,2,2,15,5,2,2,4,4,G,,,,,,,,,,,,,,,,,,,,,,,,,,,,,,102.8,1500,100,,,,,,,,,,,,,,0.143191457
X,11,6,2023,608,83158,40.93985833,-71.099855,1,466,2,2,15,5,2,2,4,4,G,,,,,,,,,,,,,,,,,,,,,,,,,,,,,,103.5,1500,100,,,,,,,,,,,,,,0.143666003
X,11,6,2023,609,83203,40.94227833,-71.09977833,1,464,2,2,15,5,2,2,4,4,G,,,,,,,,,,,,,,,,,,,,,,,,,,,,,,104.7,1500,100,,,,,,,,,,,,,,0.145339506
X,11,6,2023,610,83208,40.94470167,-71.09973,1,465,2,2,15,5,2,2,4,4,G,,,,,,,,,,,,,,,,,,,,,,,,,,,,,,104.7,1500,100,,,,,,,,,,,,,,0.145514552
X,11,6,2023,611,83213,40.94714833,-71.09970667,0,461,2,2,15,5,2,2,4,4,G,,,,,,,,,,,,,,,,,,,,,,,,,,,,,,106.3,1500,100,,,,,,,,,,,,,,0.146902796
X,11,6,2023,612,83218,40.94962,-71.09966333,1,459,2,2,15,5,2,2,4,4,G,,,,,,,,,,,,,,,,,,,,,,,,,,,,,,106,1500,100,,,,,,,,,,,,,,0.148413007
X,11,6,2023,613,83218,40.94962,-71.09966333,1,459,2,2,15,5,2,2,4,4,G,,,,,,,,,,,,,,,,,,,,,,,,,,,,,,106,1500,100,,,,,,,,,,,,,,0
X,11,6,2023,614,83223,40.952095,-71.09967833,359,459,2,2,15,5,2,2,4,4,G,,,,,,,,,,,,,,,,,,,,,,,,,,,,,,107,1500,100,,,,,,,,,,,,,,0.148601688
X,11,6,2023,615,83228,40.95456667,-71.09972667,359,460,2,2,15,5,2,2,4,4,G,,,,,,,,,,,,,,,,,,,,,,,,,,,,,,106.5,1500,100,,,,,,,,,,,,,,0.14841618
X,11,6,2023,616,83233,40.95701667,-71.09974833,360,461,2,2,15,5,2,2,4,4,G,,,,,,,,,,,,,,,,,,,,,,,,,,,,,,105.6,1500,100,,,,,,,,,,,,,,0.147102401
X,11,6,2023,617,83238,40.959455,-71.09977167,359,465,2,2,15,5,2,2,4,4,G,,,,,,,,,,,,,,,,,,,,,,,,,,,,,,104.9,1500,100,,,,,,,,,,,,,,0.146402471
X,11,6,2023,618,83243,40.96185833,-71.09979333,360,467,2,2,15,5,2,2,4,4,G,,,,,,,,,,,,,,,,,,,,,,,,,,,,,,103.3,1500,100,,,,,,,,,,,,,,0.144300576
X,11,6,2023,619,83248,40.964235,-71.099795,360,472,2,2,15,5,2,2,4,4,G,,,,,,,,,,,,,,,,,,,,,,,,,,,,,,101.9,1500,100,,,,,,,,,,,,,,0.142696173
X,11,6,2023,620,83253,40.96659167,-71.09982,360,474,2,2,15,5,2,2,4,4,G,,,,,,,,,,,,,,,,,,,,,,,,,,,,,,101.6,1500,100,,,,,,,,,,,,,,0.141499884
X,11,6,2023,621,83258,40.96898,-71.09984667,359,471,2,2,15,5,2,2,4,4,G,,,,,,,,,,,,,,,,,,,,,,,,,,,,,,104.1,1500,100,,,,,,,,,,,,,,0.143401721
X,11,6,2023,622,83303,40.97139667,-71.099885,359,470,2,2,15,5,2,2,4,4,G,,,,,,,,,,,,,,,,,,,,,,,,,,,,,,103.9,1500,100,,,,,,,,,,,,,,0.145108178
X,11,6,2023,623,83308,40.97382333,-71.09998333,358,470,2,2,15,5,2,2,4,4,G,,,,,,,,,,,,,,,,,,,,,,,,,,,,,,104.9,1500,100,,,,,,,,,,,,,,0.145766351
X,11,6,2023,624,83313,40.97625,-71.100025,360,472,2,2,15,5,2,2,4,4,G,,,,,,,,,,,,,,,,,,,,,,,,,,,,,,104.4,1500,100,,,,,,,,,,,,,,0.145710418
X,11,6,2023,625,83318,40.97864667,-71.10001333,0,474,2,2,15,5,2,2,4,4,G,,,,,,,,,,,,,,,,,,,,,,,,,,,,,,103.5,1500,100,,,,,,,,,,,,,,0.143897934
X,11,6,2023,626,83323,40.98105333,-71.099985,1,471,2,2,15,5,2,2,4,4,G,,,,,,,,,,,,,,,,,,,,,,,,,,,,,,104.2,1500,100,,,,,,,,,,,,,,0.144503074
X,11,6,2023,627,83328,40.98349167,-71.099945,0,468,2,2,15,5,2,2,4,4,G,,,,,,,,,,,,,,,,,,,,,,,,,,,,,,104.7,1500,100,,,,,,,,,,,,,,0.146409874
X,11,6,2023,628,83333,40.985945,-71.099875,2,468,2,2,15,5,2,2,4,4,G,,,,,,,,,,,,,,,,,,,,,,,,,,,,,,106,1500,100,,,,,,,,,,,,,,0.147333419
X,11,6,2023,629,83338,40.98839833,-71.09977333,2,469,2,2,15,5,2,2,4,4,G,,,,,,,,,,,,,,,,,,,,,,,,,,,,,,105.6,1500,100,,,,,,,,,,,,,,0.147371305
X,11,6,2023,630,83343,40.99085333,-71.09971667,0,470,2,2,15,5,2,2,4,4,G,,,,,,,,,,,,,,,,,,,,,,,,,,,,,,105.6,1500,100,,,,,,,,,,,,,,0.147421693
X,11,6,2023,631,83348,40.993305,-71.09968167,1,470,2,2,15,5,2,2,4,4,G,,,,,,,,,,,,,,,,,,,,,,,,,,,,,,105.9,1500,100,,,,,,,,,,,,,,0.147207733
X,11,6,2023,632,83348,40.993305,-71.09968167,1,470,2,2,15,5,2,2,4,4,G,,,,,,,,,,,,,,,,,,,,,,,,,,,,,,105.9,1500,100,,,,,,,,,,,,,,0
X,11,6,2023,633,83353,40.99575333,-71.09962333,1,470,2,2,15,5,2,2,4,4,G,,,,,,,,,,,,,,,,,,,,,,,,,,,,,,105.5,1500,100,,,,,,,,,,,,,,0.14702282
X,11,6,2023,634,83358,40.99820667,-71.09962333,360,470,2,2,15,5,2,2,4,4,G,,,,,,,,,,,,,,,,,,,,,,,,,,,,,,106.2,1500,100,,,,,,,,,,,,,,0.147299255
X,11,6,2023,635,83403,41.00067167,-71.09963833,360,470,2,2,15,5,2,2,4,4,G,,,,,,,,,,,,,,,,,,,,,,,,,,,,,,106.2,1500,100,,,,,,,,,,,,,,0.148001288
X,11,6,2023,636,83408,41.003145,-71.09960667,1,469,2,2,15,5,2,2,4,4,G,,,,,,,,,,,,,,,,,,,,,,,,,,,,,,106.7,1500,100,,,,,,,,,,,,,,0.148506996
X,11,6,2023,637,83413,41.00564333,-71.09959,1,466,2,2,15,5,2,2,4,4,G,,,,,,,,,,,,,,,,,,,,,,,,,,,,,,107.8,1500,100,,,,,,,,,,,,,,0.150002976
X,11,6,2023,638,83418,41.00815333,-71.09954167,1,464,2,2,15,5,2,2,4,4,G,,,,,,,,,,,,,,,,,,,,,,,,,,,,,,108.6,1500,100,,,,,,,,,,,,,,0.150717458
X,11,6,2023,639,83423,41.01063,-71.099435,2,466,2,2,15,5,2,2,4,4,G,,,,,,,,,,,,,,,,,,,,,,,,,,,,,,106.7,1500,100,,,,,,,,,,,,,,0.148778709
X,11,6,2023,640,83428,41.01306167,-71.09944333,359,470,2,2,15,5,2,2,4,4,G,,,,,,,,,,,,,,,,,,,,,,,,,,,,,,103.3,1500,100,,,,,,,,,,,,,,0.145998867
X,11,6,2023,641,83433,41.01548167,-71.09954167,358,466,2,2,15,5,2,2,4,4,G,,,,,,,,,,,,,,,,,,,,,,,,,,,,,,105.1,1500,100,,,,,,,,,,,,,,0.145366183
X,11,6,2023,642,83438,41.017935,-71.09966,358,464,2,2,15,5,2,2,4,4,G,,,,,,,,,,,,,,,,,,,,,,,,,,,,,,105.8,1500,100,,,,,,,,,,,,,,0.147396769
X,11,6,2023,643,83443,41.02035333,-71.099825,357,464,2,2,15,5,2,2,4,4,G,,,,,,,,,,,,,,,,,,,,,,,,,,,,,,104.2,1500,100,,,,,,,,,,,,,,0.145390097
X,11,6,2023,644,83448,41.02274833,-71.09997833,357,469,2,2,15,5,2,2,4,4,G,,,,,,,,,,,,,,,,,,,,,,,,,,,,,,103.8,1500,100,,,,,,,,,,,,,,0.143964545
X,11,6,2023,645,83448,41.02274833,-71.09997833,357,469,2,2,15,5,2,2,4,4,G,,,,,,,,,,,,,,,,,,,,,,,,,,,,,,103.8,1500,100,,,,,,,,,,,,,,0
X,11,6,2023,646,83453,41.02510167,-71.10009667,358,472,2,2,15,5,2,2,4,4,G,,,,,,,,,,,,,,,,,,,,,,,,,,,,,,101,1500,100,,,,,,,,,,,,,,0.141396842
X,11,6,2023,647,83458,41.02743167,-71.10018333,358,471,2,2,15,5,2,2,4,4,G,,,,,,,,,,,,,,,,,,,,,,,,,,,,,,100.1,1500,100,,,,,,,,,,,,,,0.139949332
X,11,6,2023,648,83503,41.02975833,-71.10028333,358,469,2,2,15,5,2,2,4,4,G,,,,,,,,,,,,,,,,,,,,,,,,,,,,,,100.3,1500,100,,,,,,,,,,,,,,0.139767539
X,11,6,2023,649,83508,41.03206167,-71.100325,360,470,2,2,15,5,2,2,4,4,G,,,,,,,,,,,,,,,,,,,,,,,,,,,,,,98.4,1500,100,,,,,,,,,,,,,,0.138306062
X,11,6,2023,650,83513,41.03433667,-71.100385,358,468,2,2,15,5,2,2,4,4,G,,,,,,,,,,,,,,,,,,,,,,,,,,,,,,98,1500,100,,,,,,,,,,,,,,0.136619068
X,11,6,2023,651,83518,41.03661,-71.10046833,359,466,2,2,15,5,2,2,4,4,G,,,,,,,,,,,,,,,,,,,,,,,,,,,,,,97.8,1500,100,,,,,,,,,,,,,,0.13654414
X,11,6,2023,652,83523,41.03887833,-71.10045333,1,465,2,2,15,5,2,2,4,4,G,,,,,,,,,,,,,,,,,,,,,,,,,,,,,,97.7,1500,100,,,,,,,,,,,,,,0.136193464
X,11,6,2023,653,83528,41.04113333,-71.10034,2,462,2,2,15,5,2,2,4,4,G,,,,,,,,,,,,,,,,,,,,,,,,,,,,,,97.5,1500,100,,,,,,,,,,,,,,0.135488474
X,11,6,2023,654,83533,41.043405,-71.10022333,2,464,2,2,15,5,2,2,4,4,G,,,,,,,,,,,,,,,,,,,,,,,,,,,,,,97.8,1500,100,,,,,,,,,,,,,,0.136494188
X,11,6,2023,655,83538,41.04566667,-71.100135,1,468,2,2,15,5,2,2,4,4,G,,,,,,,,,,,,,,,,,,,,,,,,,,,,,,97.3,1500,100,,,,,,,,,,,,,,0.1358504
X,11,6,2023,656,83543,41.04792667,-71.100085,1,470,2,2,15,5,2,2,4,4,G,,,,,,,,,,,,,,,,,,,,,,,,,,,,,,97.4,1500,100,,,,,,,,,,,,,,0.13571032
X,11,6,2023,657,83548,41.05024833,-71.10003833,2,466,2,2,15,5,2,2,4,4,G,,,,,,,,,,,,,,,,,,,,,,,,,,,,,,100.5,1500,100,,,,,,,,,,,,,,0.139409943
X,11,6,2023,658,83548,41.05024833,-71.10003833,2,466,2,2,15,5,2,2,4,4,G,,,,,,,,,,,,,,,,,,,,,,,,,,,,,,100.5,1500,100,,,,,,,,,,,,,,0
X,11,6,2023,659,83553,41.05257833,-71.09997333,1,468,2,2,15,5,2,2,4,4,G,,,,,,,,,,,,,,,,,,,,,,,,,,,,,,100.6,1500,100,,,,,,,,,,,,,,0.139925219
X,11,6,2023,660,83558,41.05489333,-71.09988833,2,471,2,2,15,5,2,2,4,4,G,,,,,,,,,,,,,,,,,,,,,,,,,,,,,,99.3,1500,100,,,,,,,,,,,,,,0.139046927
X,11,6,2023,661,83603,41.05716167,-71.099875,359,475,2,2,15,5,2,2,4,4,G,,,,,,,,,,,,,,,,,,,,,,,,,,,,,,98,1500,100,,,,,,,,,,,,,,0.136193108
X,11,6,2023,662,83608,41.05941167,-71.099895,360,478,2,2,15,5,2,2,4,4,G,,,,,,,,,,,,,,,,,,,,,,,,,,,,,,96.7,1500,100,,,,,,,,,,,,,,0.135094063
S,11,6,2023,663,83612,41.06115834,-71.09981804,3,478,2,2,15,5,2,2,4,4,G,12,,45,FG-U,1,,,1,9,0,,,,,,,,,,,,,,,,,,,,96.3,1500,100,,,,,,,,,,,,,,0.10492908
X,11,6,2023,664,83613,41.06164333,-71.09979667,3,478,2,2,15,5,2,2,4,4,G,,,,,,,,,,,,,,,,,,,,,,,,,,,,,,96.2,1500,100,,,,,,,,,,,,,,0.134064218
P,11,6,2023,665,83617,41.06368097,-71.09971158,1,476,2,2,15,5,2,2,4,4,G,13,,,CV-O,1,,,1,9,0,,,,,,,,,,,,,,,,,,,,97.1,1500,100,,,,,,,,,,,,,,0.122401057
X,11,6,2023,666,83618,41.06387833,-71.09970333,1,476,2,2,15,5,2,2,4,4,G,,,,,,,,,,,,,,,,,,,,,,,,,,,,,,97.1,1500,100,,,,,,,,,,,,,,0.134256924
X,11,6,2023,667,83618,41.06387833,-71.09970333,1,476,2,2,15,5,2,2,4,4,G,,,,,,,,,,,,,,,,,,,,,,,,,,,,,,97.1,1500,100,,,,,,,,,,,,,,0
X,11,6,2023,668,83623,41.06617667,-71.09971167,360,475,2,2,15,5,2,2,4,4,G,,,,,,,,,,,,,,,,,,,,,,,,,,,,,,99.4,1500,100,,,,,,,,,,,,,,0.1379935
X,11,6,2023,669,83628,41.06848167,-71.09975,359,475,2,2,15,5,2,2,4,4,G,,,,,,,,,,,,,,,,,,,,,,,,,,,,,,99,1500,100,,,,,,,,,,,,,,0.138404132
X,11,6,2023,670,83633,41.07080333,-71.09979667,359,477,2,2,15,5,2,2,4,4,G,,,,,,,,,,,,,,,,,,,,,,,,,,,,,,99.8,1500,100,,,,,,,,,,,,,,0.139409933
X,11,6,2023,671,83638,41.0731,-71.09980167,360,480,2,2,15,5,2,2,4,4,G,,,,,,,,,,,,,,,,,,,,,,,,,,,,,,98.8,1500,100,,,,,,,,,,,,,,0.137893102
X,11,6,2023,672,83643,41.07540667,-71.09982667,360,475,2,2,15,5,2,2,4,4,G,,,,,,,,,,,,,,,,,,,,,,,,,,,,,,100.2,1500,100,,,,,,,,,,,,,,0.138497944
X,11,6,2023,673,83648,41.07776667,-71.0999,359,469,2,2,15,5,2,2,4,4,G,,,,,,,,,,,,,,,,,,,,,,,,,,,,,,102.2,1500,100,,,,,,,,,,,,,,0.141734347
X,11,6,2023,674,83648,41.07776667,-71.0999,359,469,2,2,15,5,2,2,4,4,G,,,,,,,,,,,,,,,,,,,,,,,,,,,,,,102.2,1500,100,,,,,,,,,,,,,,0
X,11,6,2023,675,83653,41.080175,-71.09999,358,462,2,2,15,5,2,2,4,4,G,,,,,,,,,,,,,,,,,,,,,,,,,,,,,,103.6,1500,100,,,,,,,,,,,,,,0.144654795
X,11,6,2023,676,83658,41.082595,-71.10008167,359,459,2,2,15,5,2,2,4,4,G,,,,,,,,,,,,,,,,,,,,,,,,,,,,,,104.7,1500,100,,,,,,,,,,,,,,0.14535712
X,11,6,2023,677,83703,41.085005,-71.10015,359,457,2,2,15,5,2,2,4,4,G,,,,,,,,,,,,,,,,,,,,,,,,,,,,,,104.1,1500,100,,,,,,,,,,,,,,0.144730544
X,11,6,2023,678,83708,41.08739667,-71.100165,360,457,2,2,15,5,2,2,4,4,G,,,,,,,,,,,,,,,,,,,,,,,,,,,,,,102.8,1500,100,,,,,,,,,,,,,,0.143598364
X,11,6,2023,679,83713,41.089775,-71.10014333,0,456,2,2,15,5,2,2,4,4,G,,,,,,,,,,,,,,,,,,,,,,,,,,,,,,102.7,1500,100,,,,,,,,,,,,,,0.142799587
X,11,6,2023,680,83718,41.09212833,-71.10011167,0,460,2,2,15,5,2,2,4,4,G,,,,,,,,,,,,,,,,,,,,,,,,,,,,,,101.3,1500,100,,,,,,,,,,,,,,0.141302475
X,11,6,2023,681,83723,41.09445667,-71.10004167,2,463,2,2,15,5,2,2,4,4,G,,,,,,,,,,,,,,,,,,,,,,,,,,,,,,100.2,1500,100,,,,,,,,,,,,,,0.139830077
X,11,6,2023,682,83728,41.09676667,-71.09993833,2,464,2,2,15,5,2,2,4,4,G,,,,,,,,,,,,,,,,,,,,,,,,,,,,,,99.4,1500,100,,,,,,,,,,,,,,0.138772244
X,11,6,2023,683,83733,41.09909333,-71.09991667,0,464,2,2,15,5,2,2,4,4,G,,,,,,,,,,,,,,,,,,,,,,,,,,,,,,100.4,1500,100,,,,,,,,,,,,,,0.13969757
X,11,6,2023,684,83738,41.10140167,-71.099905,0,463,2,2,15,5,2,2,4,4,G,,,,,,,,,,,,,,,,,,,,,,,,,,,,,,99.6,1500,100,,,,,,,,,,,,,,0.138594394
X,11,6,2023,685,83743,41.10368833,-71.09991667,359,464,2,2,15,5,2,2,4,4,G,,,,,,,,,,,,,,,,,,,,,,,,,,,,,,98.6,1500,100,,,,,,,,,,,,,,0.137293527
X,11,6,2023,686,83748,41.10594833,-71.09996333,359,464,2,2,15,5,2,2,4,4,G,,,,,,,,,,,,,,,,,,,,,,,,,,,,,,98,1500,100,,,,,,,,,,,,,,0.135707857
X,11,6,2023,687,83753,41.10821,-71.10003167,359,468,2,2,15,5,2,2,4,4,G,,,,,,,,,,,,,,,,,,,,,,,,,,,,,,98.2,1500,100,,,,,,,,,,,,,,0.135826684
X,11,6,2023,688,83758,41.11047,-71.10006833,360,468,2,2,15,5,2,2,4,4,G,,,,,,,,,,,,,,,,,,,,,,,,,,,,,,97.6,1500,100,,,,,,,,,,,,,,0.135701571
X,11,6,2023,689,83803,41.11272667,-71.10006667,0,465,2,2,15,5,2,2,4,4,G,,,,,,,,,,,,,,,,,,,,,,,,,,,,,,98.1,1500,100,,,,,,,,,,,,,,0.135491319
X,11,6,2023,690,83808,41.11499167,-71.10002833,1,462,2,2,15,5,2,2,4,4,G,,,,,,,,,,,,,,,,,,,,,,,,,,,,,,98.7,1500,100,,,,,,,,,,,,,,0.13600269
X,11,6,2023,691,83813,41.11727667,-71.09999833,0,457,2,2,15,5,2,2,4,4,G,,,,,,,,,,,,,,,,,,,,,,,,,,,,,,98.6,1500,100,,,,,,,,,,,,,,0.137199156
X,11,6,2023,692,83818,41.11957667,-71.09993,2,458,2,2,15,5,2,2,4,4,G,,,,,,,,,,,,,,,,,,,,,,,,,,,,,,99.4,1500,100,,,,,,,,,,,,,,0.138127637
X,11,6,2023,693,83823,41.12186,-71.09981333,2,460,2,2,15,5,2,2,4,4,G,,,,,,,,,,,,,,,,,,,,,,,,,,,,,,98.8,1500,100,,,,,,,,,,,,,,0.137193895
X,11,6,2023,694,83828,41.12416167,-71.09975333,1,466,2,2,15,5,2,2,4,4,G,,,,,,,,,,,,,,,,,,,,,,,,,,,,,,99.4,1500,100,,,,,,,,,,,,,,0.138219761
X,11,6,2023,695,83833,41.12643,-71.09969667,2,469,2,2,15,5,2,2,4,4,G,,,,,,,,,,,,,,,,,,,,,,,,,,,,,,97.7,1500,100,,,,,,,,,,,,,,0.136215882
X,11,6,2023,696,83838,41.12868833,-71.09971,359,471,2,2,15,5,2,2,4,4,G,,,,,,,,,,,,,,,,,,,,,,,,,,,,,,97.5,1500,100,,,,,,,,,,,,,,0.135592707
X,11,6,2023,697,83843,41.130985,-71.09984,358,467,2,2,15,5,2,2,4,4,G,,,,,,,,,,,,,,,,,,,,,,,,,,,,,,99.7,1500,100,,,,,,,,,,,,,,0.138018188
X,11,6,2023,698,83848,41.13329667,-71.09996333,358,464,2,2,15,5,2,2,4,4,G,,,,,,,,,,,,,,,,,,,,,,,,,,,,,,100,1500,100,,,,,,,,,,,,,,0.138905542
X,11,6,2023,699,83853,41.13563833,-71.100025,359,462,2,2,15,5,2,2,4,4,G,,,,,,,,,,,,,,,,,,,,,,,,,,,,,,100.6,1500,100,,,,,,,,,,,,,,0.140622389
X,11,6,2023,700,83858,41.13797167,-71.10002,1,459,2,2,15,5,2,2,4,4,G,,,,,,,,,,,,,,,,,,,,,,,,,,,,,,100.7,1500,100,,,,,,,,,,,,,,0.140094583
X,11,6,2023,701,83903,41.1403,-71.09997667,1,457,2,2,15,5,2,2,4,4,G,,,,,,,,,,,,,,,,,,,,,,,,,,,,,,100,1500,100,,,,,,,,,,,,,,0.139807929
X,11,6,2023,702,83908,41.14261667,-71.099935,1,457,2,2,15,5,2,2,4,4,G,,,,,,,,,,,,,,,,,,,,,,,,,,,,,,99.7,1500,100,,,,,,,,,,,,,,0.139106484
X,11,6,2023,703,83913,41.14491333,-71.09987167,1,459,2,2,15,5,2,2,4,4,G,,,,,,,,,,,,,,,,,,,,,,,,,,,,,,99.2,1500,100,,,,,,,,,,,,,,0.137922647
X,11,6,2023,704,83918,41.14719667,-71.09982333,1,462,2,2,15,5,2,2,4,4,G,,,,,,,,,,,,,,,,,,,,,,,,,,,,,,98.5,1500,100,,,,,,,,,,,,,,0.137109793
X,11,6,2023,705,83923,41.14947167,-71.09979833,0,461,2,2,15,5,2,2,4,4,G,,,,,,,,,,,,,,,,,,,,,,,,,,,,,,98.5,1500,100,,,,,,,,,,,,,,0.136596716
X,11,6,2023,706,83928,41.15175333,-71.09978167,0,466,2,2,15,5,2,2,4,4,G,,,,,,,,,,,,,,,,,,,,,,,,,,,,,,98.3,1500,100,,,,,,,,,,,,,,0.136994382
X,11,6,2023,707,83933,41.154005,-71.09977167,360,470,2,2,15,5,2,2,4,4,G,,,,,,,,,,,,,,,,,,,,,,,,,,,,,,97.1,1500,100,,,,,,,,,,,,,,0.135191852
X,11,6,2023,708,83938,41.15625833,-71.09975833,0,471,2,2,15,5,2,2,4,4,G,,,,,,,,,,,,,,,,,,,,,,,,,,,,,,97.5,1500,100,,,,,,,,,,,,,,0.135292506
X,11,6,2023,709,83943,41.15851167,-71.099725,1,474,2,2,15,5,2,2,4,4,G,,,,,,,,,,,,,,,,,,,,,,,,,,,,,,97.3,1500,100,,,,,,,,,,,,,,0.135299554
X,11,6,2023,710,83948,41.16074667,-71.09971167,360,479,2,2,15,5,2,2,4,4,G,,,,,,,,,,,,,,,,,,,,,,,,,,,,,,96.4,1500,100,,,,,,,,,,,,,,0.134191775
X,11,6,2023,711,83948,41.16074667,-71.09971167,360,479,2,2,15,5,2,2,4,4,G,,,,,,,,,,,,,,,,,,,,,,,,,,,,,,96.4,1500,100,,,,,,,,,,,,,,0
X,11,6,2023,712,83953,41.16300167,-71.099685,0,475,2,2,15,5,2,2,4,4,G,,,,,,,,,,,,,,,,,,,,,,,,,,,,,,98.2,1500,100,,,,,,,,,,,,,,0.135396597
X,11,6,2023,713,83958,41.16529,-71.09973167,359,468,2,2,15,5,2,2,4,4,G,,,,,,,,,,,,,,,,,,,,,,,,,,,,,,98.7,1500,100,,,,,,,,,,,,,,0.13740877
X,11,6,2023,714,84003,41.16759833,-71.09978833,359,463,2,2,15,5,2,2,4,4,G,,,,,,,,,,,,,,,,,,,,,,,,,,,,,,100.1,1500,100,,,,,,,,,,,,,,0.138617053
X,11,6,2023,715,84008,41.16990333,-71.09976167,1,459,2,2,15,5,2,2,4,4,G,,,,,,,,,,,,,,,,,,,,,,,,,,,,,,99.8,1500,100,,,,,,,,,,,,,,0.138398502
X,11,6,2023,716,84013,41.172225,-71.09974833,0,453,2,2,15,5,2,2,4,4,G,,,,,,,,,,,,,,,,,,,,,,,,,,,,,,100.4,1500,100,,,,,,,,,,,,,,0.139395231
X,11,6,2023,717,84018,41.17456333,-71.09969667,1,452,2,2,15,5,2,2,4,4,G,,,,,,,,,,,,,,,,,,,,,,,,,,,,,,100.3,1500,100,,,,,,,,,,,,,,0.140414019
