"eventno","rectype","month","day","year","time","lat","long","heading","alt","legtype","legstage","legno","visiblty","glarel","glarer","beaufort","cloud","wx","sightno","anglel","angler","speccode","number","numcalf","anhead","photos","idrel","confidnc","b1","b2","b3","b4","b5","b6","b7","b8","b9","b10","b11","b12","b13","b14","b15","refno","stratum","utc","radalt","gpsspeed","setalt","setvel","lensfl","ggf","int","gpsq","gpssats","roll","pitch","yaw","maghead","notes","edits","glarev","ph_qual","TrackDist"
906,"S",7,25,2023,93221,41.39526437,-71.18381746,216,512,1,"-","",5,"","",2,2,"H","1","","","","","","","","","","","","","","","","","","","","","","","","","","","","",102.6,1000,100,"","","","","","","","","","","","","",0.09645449
907,"X",7,25,2023,93222,41.39463833,-71.1844,217,512,1,"-","",5,"","",2,2,"H","","","","","","","","","","","","","","","","","","","","","","","","","","","","","",102.3,1000,100,"","","","","","","","","","","","","",0.142294008
908,"X",7,25,2023,93227,41.39281333,-71.18638833,221,503,1,"-","",5,"","",2,2,"H","","","","","","","","","","","","","","","","","","","","","","","","","","","","","",102.3,1000,100,"","","","","","","","","","","","","",0.141516514
909,"X",7,25,2023,93232,41.39103333,-71.18846833,222,499,1,"-","",5,"","",2,2,"H","","","","","","","","","","","","","","","","","","","","","","","","","","","","","",102.4,1000,100,"","","","","","","","","","","","","",0.14212384
910,"X",7,25,2023,93237,41.38928833,-71.190575,223,494,1,"-","",5,"","",2,2,"H","","","","","","","","","","","","","","","","","","","","","","","","","","","","","",101.8,1000,100,"","","","","","","","","","","","","",0.141355697
911,"X",7,25,2023,93237,41.38928833,-71.190575,223,494,1,"-","",5,"","",2,2,"H","","","","","","","","","","","","","","","","","","","","","","","","","","","","","",101.8,1000,100,"","","","","","","","","","","","","",0
912,"X",7,25,2023,93242,41.387585,-71.19273167,224,489,1,"-","",5,"","",2,2,"H","","","","","","","","","","","","","","","","","","","","","","","","","","","","","",101.6,1000,100,"","","","","","","","","","","","","",0.141054917
913,"X",7,25,2023,93247,41.38592,-71.19493167,225,488,1,"-","",5,"","",2,2,"H","","","","","","","","","","","","","","","","","","","","","","","","","","","","","",101,1000,100,"","","","","","","","","","","","","",0.140764357
914,"X",7,25,2023,93252,41.38426833,-71.19711333,225,486,1,"-","",5,"","",2,2,"H","","","","","","","","","","","","","","","","","","","","","","","","","","","","","",100.2,1000,100,"","","","","","","","","","","","","",0.139616184
915,"X",7,25,2023,93257,41.382605,-71.199265,224,483,1,"-","",5,"","",2,2,"H","","","","","","","","","","","","","","","","","","","","","","","","","","","","","",100.6,1000,100,"","","","","","","","","","","","","",0.139171733
916,"X",7,25,2023,93302,41.38091833,-71.20141,224,477,1,"-","",5,"","",2,2,"H","","","","","","","","","","","","","","","","","","","","","","","","","","","","","",101.3,1000,100,"","","","","","","","","","","","","",0.139974647
917,"X",7,25,2023,93307,41.37922167,-71.20354,223,477,1,"-","",5,"","",2,2,"H","","","","","","","","","","","","","","","","","","","","","","","","","","","","","",99.9,1000,100,"","","","","","","","","","","","","",0.139947152
918,"X",7,25,2023,93312,41.37750167,-71.20558667,220,475,1,"-","",5,"","",2,2,"H","","","","","","","","","","","","","","","","","","","","","","","","","","","","","",99.4,1000,100,"","","","","","","","","","","","","",0.138443613
919,"X",7,25,2023,93317,41.37573833,-71.20755,220,473,1,"-","",5,"","",2,2,"H","","","","","","","","","","","","","","","","","","","","","","","","","","","","","",98.9,1000,100,"","","","","","","","","","","","","",0.137959898
920,"X",7,25,2023,93322,41.37397333,-71.209495,220,472,1,"-","",5,"","",2,2,"H","","","","","","","","","","","","","","","","","","","","","","","","","","","","","",99.2,1000,100,"","","","","","","","","","","","","",0.137510394
921,"X",7,25,2023,93327,41.37219333,-71.21138333,217,472,1,"-","",5,"","",2,2,"H","","","","","","","","","","","","","","","","","","","","","","","","","","","","","",97.8,1000,100,"","","","","","","","","","","","","",0.136602531
922,"X",7,25,2023,93332,41.37033833,-71.21305333,211,474,1,"-","",5,"","",2,2,"H","","","","","","","","","","","","","","","","","","","","","","","","","","","","","",95.8,1000,100,"","","","","","","","","","","","","",0.134410637
923,"X",7,25,2023,93337,41.368405,-71.21445167,206,475,1,"-","",5,"","",2,2,"H","","","","","","","","","","","","","","","","","","","","","","","","","","","","","",95.1,1000,100,"","","","","","","","","","","","","",0.132075593
924,"X",7,25,2023,93342,41.36639667,-71.215595,201,471,1,"-","",5,"","",2,2,"H","","","","","","","","","","","","","","","","","","","","","","","","","","","","","",95.3,1000,100,"","","","","","","","","","","","","",0.131125728
925,"X",7,25,2023,93347,41.36430167,-71.21656167,198,466,1,"-","",5,"","",2,2,"H","","","","","","","","","","","","","","","","","","","","","","","","","","","","","",95.9,1000,100,"","","","","","","","","","","","","",0.133113449
926,"P",7,25,2023,93350,41.36301967,-71.2171022,198,464,1,"-","",5,"","",2,2,"H","2","","","SV-S","1","","","1","9","0","","","","","","","","","","","","","","","","","","","",95.9,1000,100,"","","","","","","","","","","","","",0.080733647
927,"X",7,25,2023,93352,41.362175,-71.21745833,197,463,1,"-","",5,"","",2,2,"H","","","","","","","","","","","","","","","","","","","","","","","","","","","","","",95.8,1000,100,"","","","","","","","","","","","","",0.133926738
928,"X",7,25,2023,93357,41.36007333,-71.218345,198,466,1,"-","",5,"","",2,2,"H","","","","","","","","","","","","","","","","","","","","","","","","","","","","","",94.2,1000,100,"","","","","","","","","","","","","",0.13236011
929,"X",7,25,2023,93402,41.35802167,-71.219225,198,469,1,"-","",5,"","",2,2,"H","","","","","","","","","","","","","","","","","","","","","","","","","","","","","",91.9,1000,100,"","","","","","","","","","","","","",0.129409322
930,"P",7,25,2023,93402,41.35798022,-71.21924249,198,469,1,"-","",5,"","",2,2,"H","3","","","RECV","2","","","1","9","0","","","","","","","","","","","","","","","","","","","",91.9,1000,100,"","","","","","","","","","","","","",0.002610643
931,"X",7,25,2023,93407,41.35596,-71.220095,199,467,1,"-","",5,"","",2,2,"H","","","","","","","","","","","","","","","","","","","","","","","","","","","","","",93.7,1000,100,"","","","","","","","","","","","","",0.129844557
932,"X",7,25,2023,93407,41.35596,-71.220095,199,467,1,"-","",5,"","",2,2,"H","","","","","","","","","","","","","","","","","","","","","","","","","","","","","",93.7,1000,100,"","","","","","","","","","","","","",0
933,"X",7,25,2023,93412,41.35390333,-71.221045,199,466,1,"-","",5,"","",2,2,"H","","","","","","","","","","","","","","","","","","","","","","","","","","","","","",94.1,1000,100,"","","","","","","","","","","","","",0.130695107
934,"X",7,25,2023,93417,41.351865,-71.22199333,200,466,1,"-","",5,"","",2,2,"H","","","","","","","","","","","","","","","","","","","","","","","","","","","","","",92.6,1000,100,"","","","","","","","","","","","","",0.129631266
935,"X",7,25,2023,93422,41.34987667,-71.22312333,205,465,1,"-","",5,"","",2,2,"H","","","","","","","","","","","","","","","","","","","","","","","","","","","","","",93.8,1000,100,"","","","","","","","","","","","","",0.129790535
936,"X",7,25,2023,93427,41.34791333,-71.22439667,207,463,1,"-","",5,"","",2,2,"H","","","","","","","","","","","","","","","","","","","","","","","","","","","","","",94.2,1000,100,"","","","","","","","","","","","","",0.131108447
937,"X",7,25,2023,93432,41.34596333,-71.22569667,207,466,1,"-","",5,"","",2,2,"H","","","","","","","","","","","","","","","","","","","","","","","","","","","","","",93.4,1000,100,"","","","","","","","","","","","","",0.130923434
938,"P",7,25,2023,93432,41.34585845,-71.22576969,207,467,1,"-","",5,"","",2,2,"H","4","","","SV-L","3","","","1","9","0","","","","","","","","","","","","","","","","","","","",93.4,1000,100,"","","","","","","","","","","","","",0.007105935
939,"X",7,25,2023,93437,41.344065,-71.22701833,208,469,1,"-","",5,"","",2,2,"H","","","","","","","","","","","","","","","","","","","","","","","","","","","","","",91.8,1000,100,"","","","","","","","","","","","","",0.128607164
940,"X",7,25,2023,93442,41.34221333,-71.228375,210,472,1,"-","",5,"","",2,2,"H","","","","","","","","","","","","","","","","","","","","","","","","","","","","","",91.3,1000,100,"","","","","","","","","","","","","",0.126884314
941,"X",7,25,2023,93447,41.340385,-71.22979,210,473,1,"-","",5,"","",2,2,"H","","","","","","","","","","","","","","","","","","","","","","","","","","","","","",91.4,1000,100,"","","","","","","","","","","","","",0.126959984
942,"X",7,25,2023,93452,41.33853833,-71.23116,207,474,1,"-","",5,"","",2,2,"H","","","","","","","","","","","","","","","","","","","","","","","","","","","","","",91.2,1000,100,"","","","","","","","","","","","","",0.126914421
943,"X",7,25,2023,93457,41.336565,-71.23211,192,472,1,"-","",5,"","",2,2,"H","","","","","","","","","","","","","","","","","","","","","","","","","","","","","",91.8,1000,100,"","","","","","","","","","","","","",0.125982375
944,"X",7,25,2023,93502,41.33447333,-71.23232833,180,470,1,"-","",5,"","",2,2,"H","","","","","","","","","","","","","","","","","","","","","","","","","","","","","",89.7,1000,100,"","","","","","","","","","","","","",0.125969754
945,"S",7,25,2023,93503,41.33419432,-71.23231575,180,471,2,"1","7",5,"3","1",2,2,"H","5","","","","","","","","","","","","","","","","","","","","","","","","","","","","",89.9,1000,100,"","","","","","","","","","","","","",0.016761471
946,"X",7,25,2023,93507,41.33236667,-71.23223333,178,474,2,"2","7",5,"3","1",2,2,"H","","","","","","","","","","","","","","","","","","","","","","","","","","","","","",90.9,1000,100,"","","","","","","","","","","","","",0.12655772
947,"X",7,25,2023,93512,41.33022667,-71.23221,181,472,2,"2","7",5,"3","1",2,2,"H","","","","","","","","","","","","","","","","","","","","","","","","","","","","","",93,1000,100,"","","","","","","","","","","","","",0.128490885
948,"X",7,25,2023,93514,41.32943165,-71.23221,180,472,2,"2","7",5,"3","1",2,2,"H","","","","","","","","","","","","","","","","","","","","","","","","","","","","","",92.7,1000,100,"","","","","","","","","","","","","",0.047733377
949,"X",7,25,2023,93517,41.32806667,-71.23221,179,472,2,"2","7",5,"3","1",2,2,"H","","","","","","","","","","","","","","","","","","","","","","","","","","","","","",92.1,1000,100,"","","","","","","","","","","","","",0.129687387
950,"X",7,25,2023,93522,41.32592667,-71.23215,179,474,2,"2","7",5,"3","1",2,2,"H","","","","","","","","","","","","","","","","","","","","","","","","","","","","","",93.4,1000,100,"","","","","","","","","","","","","",0.128515054
951,"X",7,25,2023,93527,41.32376167,-71.23205667,178,476,2,"2","7",5,"3","1",2,2,"H","","","","","","","","","","","","","","","","","","","","","","","","","","","","","",93.9,1000,100,"","","","","","","","","","","","","",0.130055693
952,"X",7,25,2023,93532,41.32159667,-71.231925,178,477,2,"2","7",5,"3","1",2,2,"H","","","","","","","","","","","","","","","","","","","","","","","","","","","","","",93.8,1000,100,"","","","","","","","","","","","","",0.130123098
953,"X",7,25,2023,93537,41.319425,-71.231825,177,478,2,"2","7",5,"3","1",2,2,"H","","","","","","","","","","","","","","","","","","","","","","","","","","","","","",93.6,1000,100,"","","","","","","","","","","","","",0.130465807
954,"X",7,25,2023,93542,41.31725333,-71.23165833,176,479,2,"2","7",5,"3","1",2,2,"H","","","","","","","","","","","","","","","","","","","","","","","","","","","","","",94.3,1000,100,"","","","","","","","","","","","","",0.13060428
955,"X",7,25,2023,93547,41.31508667,-71.23138667,173,480,2,"2","7",5,"3","1",2,2,"H","","","","","","","","","","","","","","","","","","","","","","","","","","","","","",94.6,1000,100,"","","","","","","","","","","","","",0.130663236
956,"X",7,25,2023,93552,41.31293333,-71.23099,171,482,2,"2","7",5,"3","1",2,2,"H","","","","","","","","","","","","","","","","","","","","","","","","","","","","","",93.2,1000,100,"","","","","","","","","","","","","",0.130518773
957,"X",7,25,2023,93557,41.31078167,-71.23051,170,480,2,"2","7",5,"3","1",2,2,"H","","","","","","","","","","","","","","","","","","","","","","","","","","","","","",94.8,1000,100,"","","","","","","","","","","","","",0.130988126
958,"X",7,25,2023,93602,41.30860833,-71.23002167,170,480,2,"2","7",5,"3","1",2,2,"H","","","","","","","","","","","","","","","","","","","","","","","","","","","","","",95.4,1000,100,"","","","","","","","","","","","","",0.132333436
959,"X",7,25,2023,93607,41.30637,-71.22967167,176,488,2,"2","7",5,"3","1",2,2,"H","","","","","","","","","","","","","","","","","","","","","","","","","","","","","",98.4,1000,100,"","","","","","","","","","","","","",0.135314447
960,"X",7,25,2023,93607,41.30637,-71.22967167,176,488,2,"2","7",5,"3","1",2,2,"H","","","","","","","","","","","","","","","","","","","","","","","","","","","","","",98.4,1000,100,"","","","","","","","","","","","","",0
961,"X",7,25,2023,93612,41.30416167,-71.22957167,180,486,2,"2","7",5,"3","1",2,2,"H","","","","","","","","","","","","","","","","","","","","","","","","","","","","","",96.1,1000,100,"","","","","","","","","","","","","",0.132666033
962,"X",7,25,2023,93617,41.30195167,-71.22962,181,487,2,"2","7",5,"3","1",2,2,"H","","","","","","","","","","","","","","","","","","","","","","","","","","","","","",95.1,1000,100,"","","","","","","","","","","","","",0.132707318
963,"X",7,25,2023,93622,41.299785,-71.22969667,182,489,2,"2","7",5,"3","1",2,2,"H","","","","","","","","","","","","","","","","","","","","","","","","","","","","","",94.1,1000,100,"","","","","","","","","","","","","",0.130133612
964,"P",7,25,2023,93625,41.2985893,-71.22976217,182,489,2,"2","7",5,"3","1",2,2,"H","6","42","","FG-U","2","","","1","9","0","","","","","","","","","","","","","","","","","","","",94,1000,100,"","","","","","","","","","","","","",0.071851208
965,"X",7,25,2023,93627,41.297625,-71.229815,182,489,2,"2","7",5,"3","1",2,2,"H","","","","","","","","","","","","","","","","","","","","","","","","","","","","","",94,1000,100,"","","","","","","","","","","","","",0.129797185
966,"X",7,25,2023,93632,41.29544333,-71.229905,181,488,2,"2","7",5,"3","1",2,2,"H","","","","","","","","","","","","","","","","","","","","","","","","","","","","","",94.4,1000,100,"","","","","","","","","","","","","",0.131051162
967,"X",7,25,2023,93637,41.29325,-71.22995167,181,488,2,"2","7",5,"3","1",2,2,"H","","","","","","","","","","","","","","","","","","","","","","","","","","","","","",94.8,1000,100,"","","","","","","","","","","","","",0.131705561
968,"X",7,25,2023,93642,41.29106833,-71.23000167,181,487,2,"2","7",5,"3","1",2,2,"H","","","","","","","","","","","","","","","","","","","","","","","","","","","","","",94,1000,100,"","","","","","","","","","","","","",0.131007683
969,"X",7,25,2023,93647,41.28889167,-71.23009333,182,488,2,"2","7",5,"3","1",2,2,"H","","","","","","","","","","","","","","","","","","","","","","","","","","","","","",94.2,1000,100,"","","","","","","","","","","","","",0.130753473
970,"X",7,25,2023,93652,41.28673,-71.23019667,183,488,2,"2","7",5,"3","1",2,2,"H","","","","","","","","","","","","","","","","","","","","","","","","","","","","","",93.7,1000,100,"","","","","","","","","","","","","",0.129871153
971,"X",7,25,2023,93657,41.284575,-71.23036167,184,488,2,"2","7",5,"3","1",2,2,"H","","","","","","","","","","","","","","","","","","","","","","","","","","","","","",93,1000,100,"","","","","","","","","","","","","",0.129601155
972,"X",7,25,2023,93702,41.28243333,-71.23058167,185,488,2,"2","7",5,"3","1",2,2,"H","","","","","","","","","","","","","","","","","","","","","","","","","","","","","",92.7,1000,100,"","","","","","","","","","","","","",0.128969177
973,"X",7,25,2023,93707,41.28030833,-71.23083833,185,488,2,"2","7",5,"3","1",2,2,"H","","","","","","","","","","","","","","","","","","","","","","","","","","","","","",92.8,1000,100,"","","","","","","","","","","","","",0.12811046
974,"X",7,25,2023,93707,41.28030833,-71.23083833,185,488,2,"2","7",5,"3","1",2,2,"H","","","","","","","","","","","","","","","","","","","","","","","","","","","","","",92.8,1000,100,"","","","","","","","","","","","","",0
975,"X",7,25,2023,93712,41.27816833,-71.23104667,183,488,2,"2","7",5,"3","1",2,2,"H","","","","","","","","","","","","","","","","","","","","","","","","","","","","","",93,1000,100,"","","","","","","","","","","","","",0.128829978
976,"X",7,25,2023,93717,41.27602,-71.231145,181,488,2,"2","7",5,"3","1",2,2,"H","","","","","","","","","","","","","","","","","","","","","","","","","","","","","",92.8,1000,100,"","","","","","","","","","","","","",0.129063207
977,"X",7,25,2023,93722,41.27387,-71.231115,178,488,2,"2","7",5,"3","1",2,2,"H","","","","","","","","","","","","","","","","","","","","","","","","","","","","","",93.2,1000,100,"","","","","","","","","","","","","",0.129094081
978,"X",7,25,2023,93727,41.27170833,-71.23102833,178,488,2,"2","7",5,"3","1",2,2,"H","","","","","","","","","","","","","","","","","","","","","","","","","","","","","",93.9,1000,100,"","","","","","","","","","","","","",0.129846363
979,"X",7,25,2023,93732,41.26953333,-71.23097833,180,489,2,"2","7",5,"3","1",2,2,"H","","","","","","","","","","","","","","","","","","","","","","","","","","","","","",94.2,1000,100,"","","","","","","","","","","","","",0.130607486
980,"X",7,25,2023,93737,41.26735,-71.23098667,181,490,2,"2","7",5,"3","1",2,2,"H","","","","","","","","","","","","","","","","","","","","","","","","","","","","","",93.9,1000,100,"","","","","","","","","","","","","",0.131088871
981,"X",7,25,2023,93737,41.26735,-71.23098667,181,490,2,"2","7",5,"3","1",2,2,"H","","","","","","","","","","","","","","","","","","","","","","","","","","","","","",93.9,1000,100,"","","","","","","","","","","","","",0
982,"X",7,25,2023,93742,41.265175,-71.23108333,183,490,2,"2","7",5,"3","1",2,2,"H","","","","","","","","","","","","","","","","","","","","","","","","","","","","","",94,1000,100,"","","","","","","","","","","","","",0.130660843
983,"P",7,25,2023,93747,41.26310899,-71.23128914,184,491,2,"2","7",5,"3","1",2,2,"H","7","24","","FG-U","1","","","1","3","0","","","","","","","","","","","","","","","","","","","",93.2,1000,100,"","","","","","","","","","","","","",0.124391147
984,"X",7,25,2023,93747,41.26301667,-71.23129833,184,491,2,"2","7",5,"3","1",2,2,"H","","","","","","","","","","","","","","","","","","","","","","","","","","","","","",93.2,1000,100,"","","","","","","","","","","","","",0.129950087
985,"X",7,25,2023,93752,41.26087167,-71.23149,183,491,2,"2","7",5,"3","1",2,2,"H","","","","","","","","","","","","","","","","","","","","","","","","","","","","","",93,1000,100,"","","","","","","","","","","","","",0.129076971
986,"X",7,25,2023,93757,41.25872333,-71.23164167,183,490,2,"2","7",5,"3","1",2,2,"H","","","","","","","","","","","","","","","","","","","","","","","","","","","","","",93.1,1000,100,"","","","","","","","","","","","","",0.129168428
987,"X",7,25,2023,93802,41.25655167,-71.23176333,182,489,2,"2","7",5,"3","1",2,2,"H","","","","","","","","","","","","","","","","","","","","","","","","","","","","","",93.8,1000,100,"","","","","","","","","","","","","",0.13050345
988,"X",7,25,2023,93807,41.25437167,-71.23177,178,488,2,"2","7",5,"3","1",2,2,"H","","","","","","","","","","","","","","","","","","","","","","","","","","","","","",94.3,1000,100,"","","","","","","","","","","","","",0.130888543
989,"X",7,25,2023,93812,41.25218333,-71.23162333,176,489,2,"2","7",5,"3","1",2,2,"H","","","","","","","","","","","","","","","","","","","","","","","","","","","","","",95,1000,100,"","","","","","","","","","","","","",0.131555218
990,"X",7,25,2023,93817,41.24998667,-71.23139333,176,490,2,"2","7",5,"3","1",2,2,"H","","","","","","","","","","","","","","","","","","","","","","","","","","","","","",95.8,1000,100,"","","","","","","","","","","","","",0.132296881
991,"X",7,25,2023,93822,41.24779,-71.231255,178,490,2,"2","7",5,"3","1",2,2,"H","","","","","","","","","","","","","","","","","","","","","","","","","","","","","",95.3,1000,100,"","","","","","","","","","","","","",0.13203662
992,"X",7,25,2023,93827,41.24558667,-71.23121833,180,491,2,"2","7",5,"3","1",2,2,"H","","","","","","","","","","","","","","","","","","","","","","","","","","","","","",95,1000,100,"","","","","","","","","","","","","",0.132299496
993,"X",7,25,2023,93832,41.24339333,-71.23126167,181,492,2,"2","7",5,"3","1",2,2,"H","","","","","","","","","","","","","","","","","","","","","","","","","","","","","",95.5,1000,100,"","","","","","","","","","","","","",0.131703266
994,"X",7,25,2023,93837,41.24121,-71.23132333,181,494,2,"2","7",5,"3","1",2,2,"H","","","","","","","","","","","","","","","","","","","","","","","","","","","","","",94.3,1000,100,"","","","","","","","","","","","","",0.131117891
995,"X",7,25,2023,93842,41.23905333,-71.23143833,183,494,2,"2","7",5,"3","1",2,2,"H","","","","","","","","","","","","","","","","","","","","","","","","","","","","","",93.2,1000,100,"","","","","","","","","","","","","",0.129591301
996,"X",7,25,2023,93847,41.2369,-71.23163,185,495,2,"2","7",5,"3","1",2,2,"H","","","","","","","","","","","","","","","","","","","","","","","","","","","","","",93.8,1000,100,"","","","","","","","","","","","","",0.129576399
997,"X",7,25,2023,93852,41.23475,-71.23190333,186,494,2,"2","7",5,"3","1",2,2,"H","","","","","","","","","","","","","","","","","","","","","","","","","","","","","",93.8,1000,100,"","","","","","","","","","","","","",0.12967557
998,"X",7,25,2023,93857,41.23259333,-71.23219,185,493,2,"2","7",5,"3","1",2,2,"H","","","","","","","","","","","","","","","","","","","","","","","","","","","","","",93.6,1000,100,"","","","","","","","","","","","","",0.130132568
999,"X",7,25,2023,93902,41.230435,-71.23245667,184,494,2,"2","7",5,"3","1",2,2,"H","","","","","","","","","","","","","","","","","","","","","","","","","","","","","",93.5,1000,100,"","","","","","","","","","","","","",0.130145527
1000,"P",7,25,2023,93906,41.22857847,-71.23257584,182,495,2,"2","7",5,"3","1",2,2,"H","8","","","UNVE","1","","","1","9","0","","","","","","","","","","","","","","","","","","","",93.5,1000,100,"","","","","","","","","","","","","",0.111596896
1001,"X",7,25,2023,93907,41.22828,-71.232595,182,495,2,"2","7",5,"3","1",2,2,"H","","","","","","","","","","","","","","","","","","","","","","","","","","","","","",93.5,1000,100,"","","","","","","","","","","","","",0.129537878
1002,"X",7,25,2023,93907,41.22828,-71.232595,182,495,2,"2","7",5,"3","1",2,2,"H","","","","","","","","","","","","","","","","","","","","","","","","","","","","","",93.5,1000,100,"","","","","","","","","","","","","",0
1003,"X",7,25,2023,93912,41.22610333,-71.23263667,180,494,2,"2","7",5,"3","1",2,2,"H","","","","","","","","","","","","","","","","","","","","","","","","","","","","","",94,1000,100,"","","","","","","","","","","","","",0.130701605
1004,"X",7,25,2023,93917,41.22391167,-71.2326,179,493,2,"2","7",5,"3","1",2,2,"H","","","","","","","","","","","","","","","","","","","","","","","","","","","","","",94.7,1000,100,"","","","","","","","","","","","","",0.131599086
1005,"X",7,25,2023,93922,41.2217,-71.23252,179,490,2,"2","7",5,"3","1",2,2,"H","","","","","","","","","","","","","","","","","","","","","","","","","","","","","",95.8,1000,100,"","","","","","","","","","","","","",0.132838614
1006,"X",7,25,2023,93927,41.21949333,-71.23252333,181,489,2,"2","7",5,"3","1",2,2,"H","","","","","","","","","","","","","","","","","","","","","","","","","","","","","",95.3,1000,100,"","","","","","","","","","","","","",0.132489361
1007,"X",7,25,2023,93932,41.21728333,-71.232605,182,488,2,"2","7",5,"3","1",2,2,"H","","","","","","","","","","","","","","","","","","","","","","","","","","","","","",95.4,1000,100,"","","","","","","","","","","","","",0.132740661
1008,"X",7,25,2023,93937,41.21507333,-71.23269333,182,488,2,"2","7",5,"3","1",2,2,"H","","","","","","","","","","","","","","","","","","","","","","","","","","","","","",95.4,1000,100,"","","","","","","","","","","","","",0.132749372
1009,"X",7,25,2023,93937,41.21507333,-71.23269333,182,488,2,"2","7",5,"3","1",2,2,"H","","","","","","","","","","","","","","","","","","","","","","","","","","","","","",95.4,1000,100,"","","","","","","","","","","","","",0
1010,"X",7,25,2023,93942,41.21286167,-71.23276,181,489,2,"2","7",5,"3","1",2,2,"H","","","","","","","","","","","","","","","","","","","","","","","","","","","","","",95,1000,100,"","","","","","","","","","","","","",0.132823612
1011,"P",7,25,2023,93943,41.21244562,-71.2327704,181,489,2,"2","7",5,"3","1",2,2,"H","9","40","","UNSH","1","","","1","3","0","","","","","","","","","","","","","","","","","","","",95,1000,100,"","","","","","","","","","","","","",0.024984325
1012,"X",7,25,2023,93947,41.21066167,-71.232815,181,491,2,"2","7",5,"3","1",2,2,"H","","","","","","","","","","","","","","","","","","","","","","","","","","","","","",94.8,1000,100,"","","","","","","","","","","","","",0.132112364
1013,"X",7,25,2023,93952,41.20846833,-71.23288833,182,491,2,"2","7",5,"3","1",2,2,"H","","","","","","","","","","","","","","","","","","","","","","","","","","","","","",95.2,1000,100,"","","","","","","","","","","","","",0.131730388
1014,"X",7,25,2023,93957,41.206265,-71.23298667,182,491,2,"2","7",5,"3","1",2,2,"H","","","","","","","","","","","","","","","","","","","","","","","","","","","","","",95.3,1000,100,"","","","","","","","","","","","","",0.132363688
1015,"X",7,25,2023,94002,41.20406,-71.23307667,181,492,2,"2","7",5,"3","1",2,2,"H","","","","","","","","","","","","","","","","","","","","","","","","","","","","","",94.8,1000,100,"","","","","","","","","","","","","",0.132451615
1016,"X",7,25,2023,94007,41.20187,-71.23313,181,494,2,"2","7",5,"3","1",2,2,"H","","","","","","","","","","","","","","","","","","","","","","","","","","","","","",94.3,1000,100,"","","","","","","","","","","","","",0.131510671
1017,"X",7,25,2023,94012,41.19968833,-71.23318167,182,495,2,"2","7",5,"3","1",2,2,"H","","","","","","","","","","","","","","","","","","","","","","","","","","","","","",94.6,1000,100,"","","","","","","","","","","","","",0.131009057
1018,"X",7,25,2023,94017,41.19749667,-71.23329,182,494,2,"2","7",5,"3","1",2,2,"H","","","","","","","","","","","","","","","","","","","","","","","","","","","","","",95.1,1000,100,"","","","","","","","","","","","","",0.131679649
1019,"X",7,25,2023,94022,41.19529333,-71.23341833,182,493,2,"2","7",5,"3","1",2,2,"H","","","","","","","","","","","","","","","","","","","","","","","","","","","","","",95,1000,100,"","","","","","","","","","","","","",0.13241613
1020,"X",7,25,2023,94027,41.19309333,-71.23354833,182,493,2,"2","7",5,"3","1",2,2,"H","","","","","","","","","","","","","","","","","","","","","","","","","","","","","",95,1000,100,"","","","","","","","","","","","","",0.132219519
1021,"X",7,25,2023,94032,41.19089667,-71.23362,181,493,2,"2","7",5,"3","1",2,2,"H","","","","","","","","","","","","","","","","","","","","","","","","","","","","","",95,1000,100,"","","","","","","","","","","","","",0.131928612
1022,"X",7,25,2023,94037,41.18870167,-71.23362333,179,493,2,"2","7",5,"3","1",2,2,"H","","","","","","","","","","","","","","","","","","","","","","","","","","","","","",95.2,1000,100,"","","","","","","","","","","","","",0.13178889
1023,"X",7,25,2023,94037,41.18870167,-71.23362333,179,493,2,"2","7",5,"3","1",2,2,"H","","","","","","","","","","","","","","","","","","","","","","","","","","","","","",95.2,1000,100,"","","","","","","","","","","","","",0
1024,"X",7,25,2023,94042,41.186495,-71.23356167,178,493,2,"2","7",5,"3","1",2,2,"H","","","","","","","","","","","","","","","","","","","","","","","","","","","","","",95.7,1000,100,"","","","","","","","","","","","","",0.132518572
1025,"X",7,25,2023,94047,41.18428833,-71.23342667,176,492,2,"2","7",5,"3","1",2,2,"H","","","","","","","","","","","","","","","","","","","","","","","","","","","","","",95.6,1000,100,"","","","","","","","","","","","","",0.132629629
1026,"X",7,25,2023,94052,41.18206667,-71.23318833,176,490,2,"2","7",5,"3","1",2,2,"H","","","","","","","","","","","","","","","","","","","","","","","","","","","","","",96.9,1000,100,"","","","","","","","","","","","","",0.133823929
1027,"X",7,25,2023,94057,41.17983333,-71.23302,178,491,2,"2","7",5,"3","1",2,2,"H","","","","","","","","","","","","","","","","","","","","","","","","","","","","","",97.1,1000,100,"","","","","","","","","","","","","",0.13430594
1028,"X",7,25,2023,94102,41.17762,-71.23294833,179,494,2,"2","7",5,"3","1",2,2,"H","","","","","","","","","","","","","","","","","","","","","","","","","","","","","",95.4,1000,100,"","","","","","","","","","","","","",0.132929003
1029,"X",7,25,2023,94107,41.17541333,-71.23292,180,493,2,"2","7",5,"3","1",2,2,"H","","","","","","","","","","","","","","","","","","","","","","","","","","","","","",95.3,1000,100,"","","","","","","","","","","","","",0.132495463
1030,"X",7,25,2023,94107,41.17541333,-71.23292,180,493,2,"2","7",5,"3","1",2,2,"H","","","","","","","","","","","","","","","","","","","","","","","","","","","","","",95.3,1000,100,"","","","","","","","","","","","","",0
1031,"X",7,25,2023,94112,41.1732,-71.23293333,182,490,2,"2","7",5,"3","1",2,2,"H","","","","","","","","","","","","","","","","","","","","","","","","","","","","","",96,1000,100,"","","","","","","","","","","","","",0.132890911
1032,"X",7,25,2023,94117,41.17099167,-71.23307,183,488,2,"2","7",5,"3","1",2,2,"H","","","","","","","","","","","","","","","","","","","","","","","","","","","","","",95.8,1000,100,"","","","","","","","","","","","","",0.132733131
1033,"X",7,25,2023,94122,41.16878,-71.23321833,182,488,2,"2","7",5,"3","1",2,2,"H","","","","","","","","","","","","","","","","","","","","","","","","","","","","","",95.4,1000,100,"","","","","","","","","","","","","",0.132958603
1034,"X",7,25,2023,94127,41.16657667,-71.23327833,180,490,2,"2","7",5,"3","1",2,2,"H","","","","","","","","","","","","","","","","","","","","","","","","","","","","","",95.2,1000,100,"","","","","","","","","","","","","",0.132316934
1035,"X",7,25,2023,94132,41.16437,-71.23327,180,491,2,"2","7",5,"3","1",2,2,"H","","","","","","","","","","","","","","","","","","","","","","","","","","","","","",95.3,1000,100,"","","","","","","","","","","","","",0.132489811
1036,"X",7,25,2023,94137,41.16215167,-71.23325333,180,491,2,"2","7",5,"3","1",2,2,"H","","","","","","","","","","","","","","","","","","","","","","","","","","","","","",95.8,1000,100,"","","","","","","","","","","","","",0.133191878
1037,"X",7,25,2023,94142,41.15992833,-71.23320833,178,491,2,"2","7",5,"3","1",2,2,"H","","","","","","","","","","","","","","","","","","","","","","","","","","","","","",96.1,1000,100,"","","","","","","","","","","","","",0.133505447
1038,"X",7,25,2023,94147,41.157695,-71.23312167,178,491,2,"2","7",5,"3","1",2,2,"H","","","","","","","","","","","","","","","","","","","","","","","","","","","","","",96.6,1000,100,"","","","","","","","","","","","","",0.134147572
1039,"X",7,25,2023,94152,41.15544333,-71.23305167,179,492,2,"2","7",5,"3","1",2,2,"H","","","","","","","","","","","","","","","","","","","","","","","","","","","","","",96.9,1000,100,"","","","","","","","","","","","","",0.135228125
1040,"X",7,25,2023,94157,41.15320167,-71.233025,179,493,2,"2","7",5,"3","1",2,2,"H","","","","","","","","","","","","","","","","","","","","","","","","","","","","","",96.6,1000,100,"","","","","","","","","","","","","",0.13459609
1041,"X",7,25,2023,94202,41.15097667,-71.23297167,178,494,2,"2","7",5,"3","1",2,2,"H","","","","","","","","","","","","","","","","","","","","","","","","","","","","","",96.1,1000,100,"","","","","","","","","","","","","",0.133611774
1042,"X",7,25,2023,94207,41.14875667,-71.23288667,178,495,2,"2","7",5,"3","1",2,2,"H","","","","","","","","","","","","","","","","","","","","","","","","","","","","","",95.3,1000,100,"","","","","","","","","","","","","",0.133345199
1043,"X",7,25,2023,94212,41.14652667,-71.23277667,178,495,2,"2","7",5,"3","1",2,2,"H","","","","","","","","","","","","","","","","","","","","","","","","","","","","","",96.4,1000,100,"","","","","","","","","","","","","",0.133982552
1044,"X",7,25,2023,94217,41.14428667,-71.23265,178,495,2,"2","7",5,"3","1",2,2,"H","","","","","","","","","","","","","","","","","","","","","","","","","","","","","",96.7,1000,100,"","","","","","","","","","","","","",0.134612504
1045,"X",7,25,2023,94222,41.14205333,-71.23252333,178,493,2,"2","7",5,"3","1",2,2,"H","","","","","","","","","","","","","","","","","","","","","","","","","","","","","",96.8,1000,100,"","","","","","","","","","","","","",0.134212606
1046,"X",7,25,2023,94227,41.139795,-71.23251333,181,486,2,"2","7",5,"3","1",2,2,"H","","","","","","","","","","","","","","","","","","","","","","","","","","","","","",98.4,1000,100,"","","","","","","","","","","","","",0.13559212
1047,"X",7,25,2023,94232,41.13751,-71.23258667,182,483,2,"2","7",5,"3","1",2,2,"H","","","","","","","","","","","","","","","","","","","","","","","","","","","","","",98.5,1000,100,"","","","","","","","","","","","","",0.137232512
1048,"X",7,25,2023,94237,41.13525833,-71.232655,181,490,2,"2","7",5,"3","1",2,2,"H","","","","","","","","","","","","","","","","","","","","","","","","","","","","","",95.8,1000,100,"","","","","","","","","","","","","",0.135226404
1049,"X",7,25,2023,94237,41.13525833,-71.232655,181,490,2,"2","7",5,"3","1",2,2,"H","","","","","","","","","","","","","","","","","","","","","","","","","","","","","",95.8,1000,100,"","","","","","","","","","","","","",0
1050,"X",7,25,2023,94242,41.13305667,-71.23270833,181,495,2,"2","7",5,"3","1",2,2,"H","","","","","","","","","","","","","","","","","","","","","","","","","","","","","",94.8,1000,100,"","","","","","","","","","","","","",0.132211073
1051,"X",7,25,2023,94247,41.13086667,-71.23278667,182,496,2,"2","7",5,"3","1",2,2,"H","","","","","","","","","","","","","","","","","","","","","","","","","","","","","",94.6,1000,100,"","","","","","","","","","","","","",0.13153631
1052,"X",7,25,2023,94252,41.12868,-71.23285333,180,495,2,"2","7",5,"3","1",2,2,"H","","","","","","","","","","","","","","","","","","","","","","","","","","","","","",94.9,1000,100,"","","","","","","","","","","","","",0.131323079
1053,"X",7,25,2023,94257,41.12648833,-71.23282333,179,494,2,"2","7",5,"3","1",2,2,"H","","","","","","","","","","","","","","","","","","","","","","","","","","","","","",95.1,1000,100,"","","","","","","","","","","","","",0.131595663
1054,"X",7,25,2023,94302,41.12428667,-71.23274833,179,494,2,"2","7",5,"3","1",2,2,"H","","","","","","","","","","","","","","","","","","","","","","","","","","","","","",95.2,1000,100,"","","","","","","","","","","","","",0.132232586
1055,"X",7,25,2023,94307,41.12207833,-71.23274167,181,492,2,"2","7",5,"3","1",2,2,"H","","","","","","","","","","","","","","","","","","","","","","","","","","","","","",95.5,1000,100,"","","","","","","","","","","","","",0.132589686
1056,"X",7,25,2023,94307,41.12207833,-71.23274167,181,492,2,"2","7",5,"3","1",2,2,"H","","","","","","","","","","","","","","","","","","","","","","","","","","","","","",95.5,1000,100,"","","","","","","","","","","","","",0
1057,"X",7,25,2023,94312,41.11987,-71.23281,182,491,2,"2","7",5,"3","1",2,2,"H","","","","","","","","","","","","","","","","","","","","","","","","","","","","","",95.6,1000,100,"","","","","","","","","","","","","",0.132625361
1058,"X",7,25,2023,94317,41.11765667,-71.2329,182,490,2,"2","7",5,"3","1",2,2,"H","","","","","","","","","","","","","","","","","","","","","","","","","","","","","",95.4,1000,100,"","","","","","","","","","","","","",0.132951882
1059,"X",7,25,2023,94322,41.11544667,-71.23304667,183,491,2,"2","7",5,"3","1",2,2,"H","","","","","","","","","","","","","","","","","","","","","","","","","","","","","",95.1,1000,100,"","","","","","","","","","","","","",0.132855153
1060,"X",7,25,2023,94327,41.113255,-71.233255,184,490,2,"2","7",5,"3","1",2,2,"H","","","","","","","","","","","","","","","","","","","","","","","","","","","","","",94.8,1000,100,"","","","","","","","","","","","","",0.131925685
1061,"X",7,25,2023,94332,41.11106333,-71.23345833,184,490,2,"2","7",5,"3","1",2,2,"H","","","","","","","","","","","","","","","","","","","","","","","","","","","","","",94.8,1000,100,"","","","","","","","","","","","","",0.131909743
1062,"X",7,25,2023,94337,41.10887167,-71.23354333,181,490,2,"2","7",5,"3","1",2,2,"H","","","","","","","","","","","","","","","","","","","","","","","","","","","","","",94.8,1000,100,"","","","","","","","","","","","","",0.131644837
1063,"X",7,25,2023,94342,41.10668,-71.23348833,178,490,2,"2","7",5,"3","1",2,2,"H","","","","","","","","","","","","","","","","","","","","","","","","","","","","","",94.9,1000,100,"","","","","","","","","","","","","",0.13161219
1064,"X",7,25,2023,94347,41.10447,-71.23341,179,489,2,"2","7",5,"3","1",2,2,"H","","","","","","","","","","","","","","","","","","","","","","","","","","","","","",95.5,1000,100,"","","","","","","","","","","","","",0.132736726
1065,"X",7,25,2023,94352,41.10224667,-71.233345,179,488,2,"2","7",5,"3","1",2,2,"H","","","","","","","","","","","","","","","","","","","","","","","","","","","","","",96.1,1000,100,"","","","","","","","","","","","","",0.133522337
1066,"X",7,25,2023,94357,41.10001333,-71.23326167,178,490,2,"2","7",5,"3","1",2,2,"H","","","","","","","","","","","","","","","","","","","","","","","","","","","","","",96.2,1000,100,"","","","","","","","","","","","","",0.13414335
1067,"X",7,25,2023,94402,41.09779833,-71.23323667,180,492,2,"2","7",5,"3","1",2,2,"H","","","","","","","","","","","","","","","","","","","","","","","","","","","","","",95.8,1000,100,"","","","","","","","","","","","","",0.132994423
1068,"X",7,25,2023,94407,41.09558167,-71.23320333,179,491,2,"2","7",5,"3","1",2,2,"H","","","","","","","","","","","","","","","","","","","","","","","","","","","","","",96.1,1000,100,"","","","","","","","","","","","","",0.133098226
1069,"X",7,25,2023,94412,41.09334,-71.23319333,180,488,2,"2","7",5,"3","1",2,2,"H","","","","","","","","","","","","","","","","","","","","","","","","","","","","","",97.3,1000,100,"","","","","","","","","","","","","",0.134591452
1070,"X",7,25,2023,94417,41.09108667,-71.23320833,180,485,2,"2","7",5,"3","1",2,2,"H","","","","","","","","","","","","","","","","","","","","","","","","","","","","","",97.4,1000,100,"","","","","","","","","","","","","",0.135292866
1071,"X",7,25,2023,94422,41.08883667,-71.23325,181,485,2,"2","7",5,"3","1",2,2,"H","","","","","","","","","","","","","","","","","","","","","","","","","","","","","",97.3,1000,100,"","","","","","","","","","","","","",0.135104186
1072,"X",7,25,2023,94427,41.08657333,-71.23325167,179,481,2,"2","7",5,"3","1",2,2,"H","","","","","","","","","","","","","","","","","","","","","","","","","","","","","",98.1,1000,100,"","","","","","","","","","","","","",0.135891589
1073,"X",7,25,2023,94432,41.08429,-71.23314167,177,480,2,"2","7",5,"3","1",2,2,"H","","","","","","","","","","","","","","","","","","","","","","","","","","","","","",99.2,1000,100,"","","","","","","","","","","","","",0.137182725
1074,"X",7,25,2023,94437,41.082,-71.233005,178,477,2,"2","7",5,"3","1",2,2,"H","","","","","","","","","","","","","","","","","","","","","","","","","","","","","",98.9,1000,100,"","","","","","","","","","","","","",0.137631689
1075,"X",7,25,2023,94437,41.082,-71.233005,178,477,2,"2","7",5,"3","1",2,2,"H","","","","","","","","","","","","","","","","","","","","","","","","","","","","","",98.9,1000,100,"","","","","","","","","","","","","",0
1076,"X",7,25,2023,94442,41.079705,-71.232905,178,473,2,"2","7",5,"3","1",2,2,"H","","","","","","","","","","","","","","","","","","","","","","","","","","","","","",99.5,1000,100,"","","","","","","","","","","","","",0.137867152
1077,"X",7,25,2023,94447,41.07740333,-71.23281333,179,473,2,"2","7",5,"3","1",2,2,"H","","","","","","","","","","","","","","","","","","","","","","","","","","","","","",99.4,1000,100,"","","","","","","","","","","","","",0.13825538
1078,"X",7,25,2023,94452,41.07512167,-71.23273833,178,474,2,"2","7",5,"3","1",2,2,"H","","","","","","","","","","","","","","","","","","","","","","","","","","","","","",98.5,1000,100,"","","","","","","","","","","","","",0.13703436
1079,"X",7,25,2023,94457,41.072855,-71.23268167,179,475,2,"2","7",5,"3","1",2,2,"H","","","","","","","","","","","","","","","","","","","","","","","","","","","","","",97.9,1000,100,"","","","","","","","","","","","","",0.13611587
1080,"X",7,25,2023,94502,41.07059167,-71.23262667,179,474,2,"2","7",5,"3","1",2,2,"H","","","","","","","","","","","","","","","","","","","","","","","","","","","","","",97.9,1000,100,"","","","","","","","","","","","","",0.13591437
1081,"X",7,25,2023,94507,41.06832167,-71.23261833,180,472,2,"2","7",5,"3","1",2,2,"H","","","","","","","","","","","","","","","","","","","","","","","","","","","","","",98.2,1000,100,"","","","","","","","","","","","","",0.13629236
1082,"X",7,25,2023,94512,41.06604,-71.23267167,181,471,2,"2","7",5,"3","1",2,2,"H","","","","","","","","","","","","","","","","","","","","","","","","","","","","","",98.4,1000,100,"","","","","","","","","","","","","",0.137013581
1083,"X",7,25,2023,94517,41.063765,-71.23277333,182,472,2,"2","7",5,"3","1",2,2,"H","","","","","","","","","","","","","","","","","","","","","","","","","","","","","",98,1000,100,"","","","","","","","","","","","","",0.136669552
1084,"X",7,25,2023,94522,41.061515,-71.23292833,183,475,2,"2","7",5,"3","1",2,2,"H","","","","","","","","","","","","","","","","","","","","","","","","","","","","","",96.7,1000,100,"","","","","","","","","","","","","",0.135273139
1085,"X",7,25,2023,94527,41.05929333,-71.23303667,181,480,2,"2","7",5,"3","1",2,2,"H","","","","","","","","","","","","","","","","","","","","","","","","","","","","","",95.9,1000,100,"","","","","","","","","","","","","",0.133480014
1086,"X",7,25,2023,94532,41.05708333,-71.23304333,180,481,2,"2","7",5,"3","1",2,2,"H","","","","","","","","","","","","","","","","","","","","","","","","","","","","","",95.5,1000,100,"","","","","","","","","","","","","",0.132689754
1087,"X",7,25,2023,94537,41.05488,-71.232995,179,484,2,"2","7",5,"3","1",2,2,"H","","","","","","","","","","","","","","","","","","","","","","","","","","","","","",94.9,1000,100,"","","","","","","","","","","","","",0.132307238
1088,"X",7,25,2023,94542,41.052685,-71.23290167,178,484,2,"2","7",5,"3","1",2,2,"H","","","","","","","","","","","","","","","","","","","","","","","","","","","","","",94.8,1000,100,"","","","","","","","","","","","","",0.131856535
1089,"X",7,25,2023,94547,41.05048667,-71.23278167,178,483,2,"2","7",5,"3","1",2,2,"H","","","","","","","","","","","","","","","","","","","","","","","","","","","","","",95.2,1000,100,"","","","","","","","","","","","","",0.132100722
1090,"X",7,25,2023,94552,41.048285,-71.23272667,179,481,2,"2","7",5,"3","1",2,2,"H","","","","","","","","","","","","","","","","","","","","","","","","","","","","","",95,1000,100,"","","","","","","","","","","","","",0.132212529
1091,"X",7,25,2023,94557,41.046085,-71.23269667,180,481,2,"2","7",5,"3","1",2,2,"H","","","","","","","","","","","","","","","","","","","","","","","","","","","","","",94.9,1000,100,"","","","","","","","","","","","","",0.132095991
1092,"X",7,25,2023,94602,41.043895,-71.232755,181,481,2,"2","7",5,"3","1",2,2,"H","","","","","","","","","","","","","","","","","","","","","","","","","","","","","",94.5,1000,100,"","","","","","","","","","","","","",0.131515131
1093,"X",7,25,2023,94607,41.04172,-71.23283,181,482,2,"2","7",5,"3","1",2,2,"H","","","","","","","","","","","","","","","","","","","","","","","","","","","","","",94.4,1000,100,"","","","","","","","","","","","","",0.130632151
1094,"X",7,25,2023,94607,41.04172,-71.23283,181,482,2,"2","7",5,"3","1",2,2,"H","","","","","","","","","","","","","","","","","","","","","","","","","","","","","",94.4,1000,100,"","","","","","","","","","","","","",0
1095,"P",7,25,2023,94612,41.03969446,-71.23289985,181,484,2,"2","7",5,"3","1",2,2,"H","10","42","","FG-U","1","","","1","9","0","","","","","","","","","","","","","","","","","","","",94,1000,100,"","","","","","","","","","","","","",0.1216556
1096,"X",7,25,2023,94612,41.039545,-71.232905,181,484,2,"2","7",5,"3","1",2,2,"H","","","","","","","","","","","","","","","","","","","","","","","","","","","","","",93.9,1000,100,"","","","","","","","","","","","","",0.130632154
1097,"X",7,25,2023,94617,41.03738167,-71.23295167,181,484,2,"2","7",5,"3","1",2,2,"H","","","","","","","","","","","","","","","","","","","","","","","","","","","","","",93.5,1000,100,"","","","","","","","","","","","","",0.129904714
1098,"X",7,25,2023,94622,41.03522,-71.23297833,181,484,2,"2","7",5,"3","1",2,2,"H","","","","","","","","","","","","","","","","","","","","","","","","","","","","","",93.9,1000,100,"","","","","","","","","","","","","",0.129793074
1099,"X",7,25,2023,94627,41.03304333,-71.23300167,181,483,2,"2","7",5,"3","1",2,2,"H","","","","","","","","","","","","","","","","","","","","","","","","","","","","","",94.1,1000,100,"","","","","","","","","","","","","",0.130692334
1100,"X",7,25,2023,94632,41.03086,-71.23303333,181,483,2,"2","7",5,"3","1",2,2,"H","","","","","","","","","","","","","","","","","","","","","","","","","","","","","",94.2,1000,100,"","","","","","","","","","","","","",0.131096177
1101,"X",7,25,2023,94637,41.02869333,-71.23309667,181,485,2,"2","7",5,"3","1",2,2,"H","","","","","","","","","","","","","","","","","","","","","","","","","","","","","",93.6,1000,100,"","","","","","","","","","","","","",0.13011928
1102,"X",7,25,2023,94642,41.02652833,-71.23318333,182,485,2,"2","7",5,"3","1",2,2,"H","","","","","","","","","","","","","","","","","","","","","","","","","","","","","",93.5,1000,100,"","","","","","","","","","","","","",0.130046849
1103,"X",7,25,2023,94647,41.02436333,-71.23331167,183,484,2,"2","7",5,"3","1",2,2,"H","","","","","","","","","","","","","","","","","","","","","","","","","","","","","",93.6,1000,100,"","","","","","","","","","","","","",0.1301175
1104,"X",7,25,2023,94652,41.02219333,-71.23346833,183,482,2,"2","7",5,"3","1",2,2,"H","","","","","","","","","","","","","","","","","","","","","","","","","","","","","",93.8,1000,100,"","","","","","","","","","","","","",0.130480917
1105,"X",7,25,2023,94657,41.02001333,-71.23359167,182,481,2,"2","7",5,"3","1",2,2,"H","","","","","","","","","","","","","","","","","","","","","","","","","","","","","",94,1000,100,"","","","","","","","","","","","","",0.131007376
1106,"X",7,25,2023,94702,41.01783167,-71.23364333,181,481,2,"2","7",5,"3","1",2,2,"H","","","","","","","","","","","","","","","","","","","","","","","","","","","","","",94.2,1000,100,"","","","","","","","","","","","","",0.131009173
1107,"P",7,25,2023,94706,41.01597288,-71.23367614,181,481,2,"2","7",5,"3","1",2,2,"H","11","","","RECV","1","","","1","9","0","","","","","","","","","","","","","","","","","","","",94,1000,100,"","","","","","","","","","","","","",0.111612329
1108,"X",7,25,2023,94707,41.01566,-71.23368167,181,481,2,"2","7",5,"3","1",2,2,"H","","","","","","","","","","","","","","","","","","","","","","","","","","","","","",94,1000,100,"","","","","","","","","","","","","",0.130399423
1109,"X",7,25,2023,94707,41.01566,-71.23368167,181,481,2,"2","7",5,"3","1",2,2,"H","","","","","","","","","","","","","","","","","","","","","","","","","","","","","",94,1000,100,"","","","","","","","","","","","","",0
1110,"X",7,25,2023,94712,41.01348667,-71.23370667,180,482,2,"2","7",5,"3","1",2,2,"H","","","","","","","","","","","","","","","","","","","","","","","","","","","","","",94,1000,100,"","","","","","","","","","","","","",0.130492842
1111,"X",7,25,2023,94717,41.01130833,-71.23368333,179,481,2,"2","7",5,"3","1",2,2,"H","","","","","","","","","","","","","","","","","","","","","","","","","","","","","",94.2,1000,100,"","","","","","","","","","","","","",0.130792401
1112,"X",7,25,2023,94722,41.00913333,-71.23364,179,482,2,"2","7",5,"3","1",2,2,"H","","","","","","","","","","","","","","","","","","","","","","","","","","","","","",94.1,1000,100,"","","","","","","","","","","","","",0.130602751
1113,"X",7,25,2023,94727,41.00695333,-71.23361,180,481,2,"2","7",5,"3","1",2,2,"H","","","","","","","","","","","","","","","","","","","","","","","","","","","","","",93.8,1000,100,"","","","","","","","","","","","","",0.130895254
1114,"X",7,25,2023,94732,41.00477,-71.23357833,179,480,2,"2","7",5,"3","1",2,2,"H","","","","","","","","","","","","","","","","","","","","","","","","","","","","","",93.9,1000,100,"","","","","","","","","","","","","",0.131096183
1115,"X",7,25,2023,94737,41.00258833,-71.23354333,179,480,2,"2","7",5,"3","1",2,2,"H","","","","","","","","","","","","","","","","","","","","","","","","","","","","","",94.1,1000,100,"","","","","","","","","","","","","",0.130997864
1116,"X",7,25,2023,94742,41.00041167,-71.23353167,180,480,2,"2","7",5,"3","1",2,2,"H","","","","","","","","","","","","","","","","","","","","","","","","","","","","","",94.1,1000,100,"","","","","","","","","","","","","",0.130689131
1117,"P",7,25,2023,94744,40.99939465,-71.23354721,180,479,2,"2","7",5,"3","1",2,2,"H","12","","","SPFV","1","","","1","9","0","","","","","","","","","","","","","","","","","","","",94.2,1000,100,"","","","","","","","","","","","","",0.061066276
1118,"X",7,25,2023,94747,40.99823,-71.233565,181,479,2,"2","7",5,"3","1",2,2,"H","","","","","","","","","","","","","","","","","","","","","","","","","","","","","",94.3,1000,100,"","","","","","","","","","","","","",0.130996972
1119,"X",7,25,2023,94752,40.99604333,-71.233605,181,479,2,"2","7",5,"3","1",2,2,"H","","","","","","","","","","","","","","","","","","","","","","","","","","","","","",94.3,1000,100,"","","","","","","","","","","","","",0.131300978
1120,"X",7,25,2023,94757,40.99385333,-71.23366167,181,480,2,"2","7",5,"3","1",2,2,"H","","","","","","","","","","","","","","","","","","","","","","","","","","","","","",94.3,1000,100,"","","","","","","","","","","","","",0.131513674
1121,"X",7,25,2023,94802,40.99167167,-71.233675,180,481,2,"2","7",5,"3","1",2,2,"H","","","","","","","","","","","","","","","","","","","","","","","","","","","","","",94.1,1000,100,"","","","","","","","","","","","","",0.130989658
1122,"X",7,25,2023,94807,40.98950167,-71.23365167,179,481,2,"2","7",5,"3","1",2,2,"H","","","","","","","","","","","","","","","","","","","","","","","","","","","","","",93.5,1000,100,"","","","","","","","","","","","","",0.130292083
1123,"X",7,25,2023,94807,40.98950167,-71.23365167,179,481,2,"2","7",5,"3","1",2,2,"H","","","","","","","","","","","","","","","","","","","","","","","","","","","","","",93.5,1000,100,"","","","","","","","","","","","","",0
1124,"X",7,25,2023,94812,40.98732167,-71.23357833,178,480,2,"2","7",5,"3","1",2,2,"H","","","","","","","","","","","","","","","","","","","","","","","","","","","","","",94.4,1000,100,"","","","","","","","","","","","","",0.130930386
1125,"X",7,25,2023,94817,40.98513,-71.233505,179,479,2,"2","7",5,"3","1",2,2,"H","","","","","","","","","","","","","","","","","","","","","","","","","","","","","",94.8,1000,100,"","","","","","","","","","","","","",0.131630636
1126,"X",7,25,2023,94822,40.98293167,-71.233445,179,478,2,"2","7",5,"3","1",2,2,"H","","","","","","","","","","","","","","","","","","","","","","","","","","","","","",94.6,1000,100,"","","","","","","","","","","","","",0.132016951
1127,"X",7,25,2023,94827,40.98073667,-71.23339833,179,478,2,"2","7",5,"3","1",2,2,"H","","","","","","","","","","","","","","","","","","","","","","","","","","","","","",94.7,1000,100,"","","","","","","","","","","","","",0.131805777
1128,"X",7,25,2023,94832,40.978545,-71.23336833,179,479,2,"2","7",5,"3","1",2,2,"H","","","","","","","","","","","","","","","","","","","","","","","","","","","","","",94.4,1000,100,"","","","","","","","","","","","","",0.131595694
1129,"X",7,25,2023,94837,40.976355,-71.233335,179,480,2,"2","7",5,"3","1",2,2,"H","","","","","","","","","","","","","","","","","","","","","","","","","","","","","",94.8,1000,100,"","","","","","","","","","","","","",0.131497282
1130,"X",7,25,2023,94842,40.97417167,-71.23331333,180,481,2,"2","7",5,"3","1",2,2,"H","","","","","","","","","","","","","","","","","","","","","","","","","","","","","",94.2,1000,100,"","","","","","","","","","","","","",0.131092011
1131,"X",7,25,2023,94847,40.97198833,-71.23333333,181,482,2,"2","7",5,"3","1",2,2,"H","","","","","","","","","","","","","","","","","","","","","","","","","","","","","",94.2,1000,100,"","","","","","","","","","","","","",0.131091467
1132,"X",7,25,2023,94852,40.96980333,-71.23341,182,482,2,"2","7",5,"3","1",2,2,"H","","","","","","","","","","","","","","","","","","","","","","","","","","","","","",94.2,1000,100,"","","","","","","","","","","","","",0.131234429
1133,"P",7,25,2023,94854,40.96915326,-71.23344231,182,482,2,"2","7",5,"3","1",2,2,"H","13","","","RECV","1","","","1","9","0","","","","","","","","","","","","","","","","","","","",94.1,1000,100,"","","","","","","","","","","","","",0.039058394
1134,"X",7,25,2023,94857,40.96762333,-71.23351833,182,483,2,"2","7",5,"3","1",2,2,"H","","","","","","","","","","","","","","","","","","","","","","","","","","","","","",93.8,1000,100,"","","","","","","","","","","","","",0.130980305
1135,"X",7,25,2023,94902,40.96546167,-71.233625,182,486,2,"2","7",5,"3","1",2,2,"H","","","","","","","","","","","","","","","","","","","","","","","","","","","","","",92.8,1000,100,"","","","","","","","","","","","","",0.129877515
1136,"S",7,25,2023,94905,40.96430477,-71.23368078,182,487,2,"2","7",5,"2","1",1,2,"H","14","","","","","","","","","","","","","","","","","","","","","","","","","","","","",92.7,1000,100,"","","","","","","","","","","","","",0.069506337
1137,"X",7,25,2023,94907,40.96331833,-71.23372833,182,488,2,"2","7",5,"2","1",1,2,"H","","","","","","","","","","","","","","","","","","","","","","","","","","","","","",92.6,1000,100,"","","","","","","","","","","","","",0.128771962
1138,"X",7,25,2023,94912,40.96116833,-71.233795,181,487,2,"2","7",5,"2","1",1,2,"H","","","","","","","","","","","","","","","","","","","","","","","","","","","","","",93.1,1000,100,"","","","","","","","","","","","","",0.129122366
1139,"X",7,25,2023,94917,40.959,-71.233805,180,486,2,"2","7",5,"2","1",1,2,"H","","","","","","","","","","","","","","","","","","","","","","","","","","","","","",94,1000,100,"","","","","","","","","","","","","",0.130188514
1140,"X",7,25,2023,94922,40.95681,-71.23379167,180,485,2,"2","7",5,"2","1",1,2,"H","","","","","","","","","","","","","","","","","","","","","","","","","","","","","",94.6,1000,100,"","","","","","","","","","","","","",0.131489991
1141,"X",7,25,2023,94927,40.954625,-71.23380833,181,484,2,"2","7",5,"2","1",1,2,"H","","","","","","","","","","","","","","","","","","","","","","","","","","","","","",94.6,1000,100,"","","","","","","","","","","","","",0.131190576
1142,"X",7,25,2023,94932,40.95243833,-71.23384833,181,485,2,"2","7",5,"2","1",1,2,"H","","","","","","","","","","","","","","","","","","","","","","","","","","","","","",94,1000,100,"","","","","","","","","","","","","",0.131300995
1143,"X",7,25,2023,94937,40.95026667,-71.23385167,179,487,2,"2","7",5,"2","1",1,2,"H","","","","","","","","","","","","","","","","","","","","","","","","","","","","","",93.9,1000,100,"","","","","","","","","","","","","",0.130387947
1144,"X",7,25,2023,94942,40.94810333,-71.233785,178,488,2,"2","7",5,"2","1",1,2,"H","","","","","","","","","","","","","","","","","","","","","","","","","","","","","",93.6,1000,100,"","","","","","","","","","","","","",0.129922701
1145,"X",7,25,2023,94947,40.94593833,-71.23374167,180,486,2,"2","7",5,"2","1",1,2,"H","","","","","","","","","","","","","","","","","","","","","","","","","","","","","",94.1,1000,100,"","","","","","","","","","","","","",0.130002443
1146,"X",7,25,2023,94952,40.94374833,-71.23373833,180,484,2,"2","7",5,"2","1",1,2,"H","","","","","","","","","","","","","","","","","","","","","","","","","","","","","",94.8,1000,100,"","","","","","","","","","","","","",0.131488688
1147,"X",7,25,2023,94957,40.94155333,-71.23373167,180,482,2,"2","7",5,"2","1",1,2,"H","","","","","","","","","","","","","","","","","","","","","","","","","","","","","",94.8,1000,100,"","","","","","","","","","","","","",0.13178915
1148,"X",7,25,2023,95002,40.93934667,-71.23370833,180,483,2,"2","7",5,"2","1",1,2,"H","","","","","","","","","","","","","","","","","","","","","","","","","","","","","",95.4,1000,100,"","","","","","","","","","","","","",0.132493502
1149,"X",7,25,2023,95007,40.937155,-71.23367333,179,484,2,"2","7",5,"2","1",1,2,"H","","","","","","","","","","","","","","","","","","","","","","","","","","","","","",94.7,1000,100,"","","","","","","","","","","","","",0.131598243
1150,"X",7,25,2023,95007,40.937155,-71.23367333,179,484,2,"2","7",5,"2","1",1,2,"H","","","","","","","","","","","","","","","","","","","","","","","","","","","","","",94.7,1000,100,"","","","","","","","","","","","","",0
1151,"X",7,25,2023,95012,40.93497333,-71.23365167,180,485,2,"2","7",5,"2","1",1,2,"H","","","","","","","","","","","","","","","","","","","","","","","","","","","","","",93.8,1000,100,"","","","","","","","","","","","","",0.13099195
1152,"X",7,25,2023,95017,40.93280167,-71.23367667,182,487,2,"2","7",5,"2","1",1,2,"H","","","","","","","","","","","","","","","","","","","","","","","","","","","","","",93.7,1000,100,"","","","","","","","","","","","","",0.13039279
1153,"X",7,25,2023,95022,40.930635,-71.23376167,180,486,2,"2","7",5,"2","1",1,2,"H","","","","","","","","","","","","","","","","","","","","","","","","","","","","","",94,1000,100,"","","","","","","","","","","","","",0.130144782
1154,"P",7,25,2023,95024,40.92962528,-71.23375155,180,486,2,"2","7",5,"2","1",1,2,"H","15","30","","HUWH","2","","","1","3","0","","","","","","","","","","","","","","","","","","","",93.7,1000,100,"","","","","","","","","","","","","",0.060626077
1155,"X",7,25,2023,95027,40.92847333,-71.23374,179,486,2,"2","7",5,"2","1",1,2,"H","","","","","","","","","","","","","","","","","","","","","","","","","","","","","",93.5,1000,100,"","","","","","","","","","","","","",0.129791176
1156,"X",7,25,2023,95032,40.92630167,-71.23380167,186,487,2,"2","7",5,"2","1",1,2,"H","","","","","","","","","","","","","","","","","","","","","","","","","","","","","",92.8,1000,100,"","","","","","","","","","","","","",0.130417864
1157,"X",7,25,2023,95037,40.92433167,-71.234785,212,488,2,"2","7",5,"2","1",1,2,"H","","","","","","","","","","","","","","","","","","","","","","","","","","","","","",91.6,1000,100,"","","","","","","","","","","","","",0.126411991
