"rectype","month","day","year","eventno","time","lat","long","heading","alt","legtype","legstage","legno","visiblty","glarel","glarer","beaufort","cloud","wx","sightno","anglel","angler","speccode","number","numcalf","anhead","photos","idrel","confidnc","b1","b2","b3","b4","b5","b6","b7","b8","b9","b10","b11","b12","b13","b14","b15","refno","stratum","utc","radalt","gpsspeed","setalt","setvel","lensfl","ggf","int","gpsq","gpssats","roll","pitch","yaw","maghead","notes","edits","glarev","ph_qual","TrackDist"
"X","","","","",1104,41.3806716666667,-71.179815,215,486,"","","","","","","","","","","","","","","","","","","","","","","","","","","","","","","","","","","","","","",113.2,1500,100,"","","","","","","","","","","","","",0.157792174
"X","","","","",1104,41.3785516666667,-71.1818433333333,216,485,"","","","","","","","","","","","","","","","","","","","","","","","","","","","","","","","","","","","","","",112.3,1500,100,"","","","","","","","","","","","","",0.156689943
"X","","","","",1104,41.376475,-71.18388,217,483,"","","","","","","","","","","","","","","","","","","","","","","","","","","","","","","","","","","","","","",111.7,1500,100,"","","","","","","","","","","","","",0.1548078525
"X","","","","",1104,41.3744066666667,-71.1859333333333,217,480,"","","","","","","","","","","","","","","","","","","","","","","","","","","","","","","","","","","","","","",111.5,1500,100,"","","","","","","","","","","","","",0.1548543159
"X","","","","",1104,41.3723333333333,-71.187995,217,478,"","","","","","","","","","","","","","","","","","","","","","","","","","","","","","","","","","","","","","",111.7,1500,100,"","","","","","","","","","","","","",0.1553211723
"X","","","","",1104,41.3702616666667,-71.1900566666667,217,474,"","","","","","","","","","","","","","","","","","","","","","","","","","","","","","","","","","","","","","",111.6,1500,100,"","","","","","","","","","","","","",0.1552427544
"X","","","","",1104,41.3682,-71.192075,216,473,"","","","","","","","","","","","","","","","","","","","","","","","","","","","","","","","","","","","","","",110.4,1500,100,"","","","","","","","","","","","","",0.1535998424
"X","","","","",1104,41.3661766666667,-71.194085,217,476,"","","","","","","","","","","","","","","","","","","","","","","","","","","","","","","","","","","","","","",108.2,1500,100,"","","","","","","","","","","","","",0.1515281547
"X","","","","",1104,41.36424,-71.1961683333333,220,476,"","","","","","","","","","","","","","","","","","","","","","","","","","","","","","","","","","","","","","",106.6,1500,100,"","","","","","","","","","","","","",0.1494443252
"X","","","","",1104,41.3623733333333,-71.1982833333333,221,476,"","","","","","","","","","","","","","","","","","","","","","","","","","","","","","","","","","","","","","",104.8,1500,100,"","","","","","","","","","","","","",0.147120203
"X","","","","",1104,41.3605616666667,-71.2003883333333,221,478,"","","","","","","","","","","","","","","","","","","","","","","","","","","","","","","","","","","","","","",103,1500,100,"","","","","","","","","","","","","",0.144325597
"S","","","","",1104,41.3590907636499,-71.2021124696517,221,478,"1","-","","5","","","3","1","C","","","","","","","","","","","","","","","","","","","","","","","","","","","","","",101.6,1500,100,"","","","","","","","","","","","","",0.1176277
"X","","","","",1104,41.35879,-71.202465,221,479,"1","-","","5","","","3","1","C","","","","","","","","","","","","","","","","","","","","","","","","","","","","","",101.3,1500,100,"","","","","","","","","","","","","",0.141679431
"X","","","","",1105,41.3570383333333,-71.204545,222,473,"1","-","","5","","","3","1","C","","","","","","","","","","","","","","","","","","","","","","","","","","","","","",100.9,1500,100,"","","","","","","","","","","","","",0.1408816992
"X","","","","",1105,41.35531,-71.2066666666667,223,468,"1","-","","5","","","3","1","C","","","","","","","","","","","","","","","","","","","","","","","","","","","","","",101.7,1500,100,"","","","","","","","","","","","","",0.1411062951
"X","","","","",1105,41.35359,-71.2087833333333,221,470,"1","-","","5","","","3","1","C","","","","","","","","","","","","","","","","","","","","","","","","","","","","","",100.3,1500,100,"","","","","","","","","","","","","",0.1405874722
"X","","","","",1105,41.35359,-71.2087833333333,221,470,"1","-","","5","","","3","1","C","","","","","","","","","","","","","","","","","","","","","","","","","","","","","",100.3,1500,100,"","","","","","","","","","","","","",0
"X","","","","",1105,41.3517516666667,-71.2106566666667,213,472,"1","-","","5","","","3","1","C","","","","","","","","","","","","","","","","","","","","","","","","","","","","","",100.5,1500,100,"","","","","","","","","","","","","",0.1389642175
"X","","","","",1105,41.34967,-71.2120683333333,202,469,"1","-","","5","","","3","1","C","","","","","","","","","","","","","","","","","","","","","","","","","","","","","",101.5,1500,100,"","","","","","","","","","","","","",0.1402471097
"X","","","","",1105,41.347435,-71.21317,200,460,"1","-","","5","","","3","1","C","","","","","","","","","","","","","","","","","","","","","","","","","","","","","",104.7,1500,100,"","","","","","","","","","","","","",0.1430828133
"X","","","","",1105,41.34512,-71.214115,195,453,"1","-","","5","","","3","1","C","","","","","","","","","","","","","","","","","","","","","","","","","","","","","",105.3,1500,100,"","","","","","","","","","","","","",0.1453739416
"S","","","","",1105,41.3427448218481,-71.2147578312727,189,452,"1","-","","5","","","3","1","C","S2358","","","MV-L","1","","","1","9","0","","","","","","","","","","","","","","","","","","","",105.3,1500,100,"","","","","","","","","","CRANE SHIP - ","","","",0.1455208311
"X","","","","",1105,41.3427183333333,-71.214765,189,452,"1","-","","5","","","3","1","C","","","","","","","","","","","","","","","","","","","","","","","","","","","","","",105.3,1500,100,"","","","","","","","","","","","","",0.1471437105
"X","","","","",1105,41.3402966666667,-71.2152,187,450,"1","-","","5","","","3","1","C","","","","","","","","","","","","","","","","","","","","","","","","","","","","","",104.9,1500,100,"","","","","","","","","","","","","",0.1467142555
"X","","","","",1105,41.3402966666667,-71.2152,187,450,"1","-","","5","","","3","1","C","","","","","","","","","","","","","","","","","","","","","","","","","","","","","",104.9,1500,100,"","","","","","","","","","","","","",0
"X","","","","",1105,41.3378483333333,-71.21553,186,448,"1","-","","5","","","3","1","C","","","","","","","","","","","","","","","","","","","","","","","","","","","","","",106.4,1500,100,"","","","","","","","","","","","","",0.1477498594
"X","","","","",1105,41.335405,-71.215805,184,455,"1","-","","5","","","3","1","C","","","","","","","","","","","","","","","","","","","","","","","","","","","","","",103.9,1500,100,"","","","","","","","","","","","","",0.1472217526
"S","","","","",1105,41.3332579196272,-71.2159510199167,182,457,"2","1","8","5","3","1","3","1","C","","","","","","","","","","","","","","","","","","","","","","","","","","","","","",103,1500,100,"","","","","","","","","","","","","",0.1290796583
"X","","","","",1105,41.3330033333333,-71.2159683333333,182,457,"2","1","8","5","3","1","3","1","C","","","","","","","","","","","","","","","","","","","","","","","","","","","","","",102.8,1500,100,"","","","","","","","","","","","","",0.144385052
"X","","","","",1106,41.3306266666667,-71.2160316666667,181,456,"2","1","8","5","3","1","3","1","C","","","","","","","","","","","","","","","","","","","","","","","","","","","","","",102.3,1500,100,"","","","","","","","","","","","","",0.1427247178
"X","","","","",1106,41.3294100463612,-71.2160426961987,181,455,"2","2","8","5","3","1","3","1","C","","","","","","","","","","","","","","","","","","","","","","","","","","","","","",102.8,1500,100,"","","","","","","","","","","","","",0.0730481319
"X","","","","",1106,41.3282366666667,-71.2160533333333,181,454,"2","2","8","5","3","1","3","1","C","","","","","","","","","","","","","","","","","","","","","","","","","","","","","",103.2,1500,100,"","","","","","","","","","","","","",0.1435000176
"P","","","","",1106,41.3274385952682,-71.2160655945057,181,454,"2","2","8","5","3","1","3","1","C","S2359","","","SV-S","1","","","1","9","0","","","","","","","","","","","","","","","","","","","",103.1,1500,100,"","","","","","","","","","","","","",0.0479197605
"X","","","","",1106,41.32585,-71.21609,181,455,"2","2","8","5","3","1","3","1","C","","","","","","","","","","","","","","","","","","","","","","","","","","","","","",102.9,1500,100,"","","","","","","","","","","","","",0.1433060939
"X","","","","",1106,41.323475,-71.2161566666667,182,459,"2","2","8","5","3","1","3","1","C","","","","","","","","","","","","","","","","","","","","","","","","","","","","","",101.8,1500,100,"","","","","","","","","","","","","",0.1426277651
"S","","","","",1106,41.3226098567481,-71.2161929199429,181,460,"2","2","8","5","3","1","3","1","C","S2360","","","RECV","5","","","1","9","0","","","","","","","","","","","","","","","","","","","",101.6,1500,100,"","","","","","","","","","","","","",0.0519693116
"X","","","","",1106,41.3211283333333,-71.216255,181,462,"2","2","8","5","3","1","3","1","C","","","","","","","","","","","","","","","","","","","","","","","","","","","","","",101.3,1500,100,"","","","","","","","","","","","","",0.1409646895
"X","","","","",1106,41.3187816666667,-71.2162983333333,180,462,"2","2","8","5","3","1","3","1","C","","","","","","","","","","","","","","","","","","","","","","","","","","","","","",101.9,1500,100,"","","","","","","","","","","","","",0.1409084884
"X","","","","",1106,41.316415,-71.2163316666667,180,460,"2","2","8","5","3","1","3","1","C","","","","","","","","","","","","","","","","","","","","","","","","","","","","","",102.6,1500,100,"","","","","","","","","","","","","",0.1421036987
"X","","","","",1106,41.31404,-71.2163333333333,179,459,"2","2","8","5","3","1","3","1","C","","","","","","","","","","","","","","","","","","","","","","","","","","","","","",102.9,1500,100,"","","","","","","","","","","","","",0.1425961055
"X","","","","",1106,41.311645,-71.2163016666667,179,462,"2","2","8","5","3","1","3","1","C","","","","","","","","","","","","","","","","","","","","","","","","","","","","","",103.2,1500,100,"","","","","","","","","","","","","",0.143803986
"X","","","","",1106,41.311645,-71.2163016666667,179,462,"2","2","8","5","3","1","3","1","C","","","","","","","","","","","","","","","","","","","","","","","","","","","","","",103.2,1500,100,"","","","","","","","","","","","","",0
"X","","","","",1106,41.3092783333333,-71.216255,179,465,"2","2","8","5","3","1","3","1","C","","","","","","","","","","","","","","","","","","","","","","","","","","","","","",102,1500,100,"","","","","","","","","","","","","",0.1421113338
"X","","","","",1106,41.3069433333333,-71.2161983333333,180,466,"2","2","8","5","3","1","3","1","C","","","","","","","","","","","","","","","","","","","","","","","","","","","","","",101.4,1500,100,"","","","","","","","","","","","","",0.1402177604
"X","","","","",1106,41.3046,-71.2161833333333,180,466,"2","2","8","5","3","1","3","1","C","","","","","","","","","","","","","","","","","","","","","","","","","","","","","",100.7,1500,100,"","","","","","","","","","","","","",0.1406964311
"X","","","","",1107,41.302255,-71.216175,180,465,"2","2","8","5","3","1","3","1","C","","","","","","","","","","","","","","","","","","","","","","","","","","","","","",102.1,1500,100,"","","","","","","","","","","","","",0.1407953737
"X","","","","",1107,41.2998866666667,-71.2161866666667,180,464,"2","2","8","5","3","1","3","1","C","","","","","","","","","","","","","","","","","","","","","","","","","","","","","",102.9,1500,100,"","","","","","","","","","","","","",0.1421967897
"X","","","","",1107,41.2975216666667,-71.2161866666667,180,467,"2","2","8","5","3","1","3","1","C","","","","","","","","","","","","","","","","","","","","","","","","","","","","","",100.7,1500,100,"","","","","","","","","","","","","",0.1419956812
"X","","","","",1107,41.2952016666667,-71.2161733333333,179,471,"2","2","8","5","3","1","3","1","C","","","","","","","","","","","","","","","","","","","","","","","","","","","","","",99.5,1500,100,"","","","","","","","","","","","","",0.1392951591
"X","","","","",1107,41.2929066666667,-71.2161533333333,180,475,"2","2","8","5","3","1","3","1","C","","","","","","","","","","","","","","","","","","","","","","","","","","","","","",98.4,1500,100,"","","","","","","","","","","","","",0.1377958028
"X","","","","",1107,41.2906233333333,-71.2161666666667,180,474,"2","2","8","5","3","1","3","1","C","","","","","","","","","","","","","","","","","","","","","","","","","","","","","",99,1500,100,"","","","","","","","","","","","","",0.1370936967
"X","","","","",1107,41.2883016666667,-71.2161533333333,179,470,"2","2","8","5","3","1","3","1","C","","","","","","","","","","","","","","","","","","","","","","","","","","","","","",99.5,1500,100,"","","","","","","","","","","","","",0.1393952258
"X","","","","",1107,41.285965,-71.216105,179,472,"2","2","8","5","3","1","3","1","C","","","","","","","","","","","","","","","","","","","","","","","","","","","","","",101,1500,100,"","","","","","","","","","","","","",0.1403114799
"S","","","","",1107,41.2852722440938,-71.2160871091564,179,473,"2","2","8","5","3","1","3","1","C","S2361","","31","FG-U","1","","","1","9","0","","","","","","","","","","","","","","","","","","","",100.6,1500,100,"","","","","","","","","","","","","",0.0416012126
"X","","","","",1107,41.2836416666667,-71.216045,179,476,"2","2","8","5","3","1","3","1","C","","","","","","","","","","","","","","","","","","","","","","","","","","","","","",99.8,1500,100,"","","","","","","","","","","","","",0.1395202589
"X","","","","",1107,41.2836416666667,-71.216045,179,476,"2","2","8","5","3","1","3","1","C","","","","","","","","","","","","","","","","","","","","","","","","","","","","","",99.8,1500,100,"","","","","","","","","","","","","",0
"X","","","","",1107,41.28132,-71.2160233333333,180,477,"2","2","8","5","3","1","3","1","C","","","","","","","","","","","","","","","","","","","","","","","","","","","","","",101.1,1500,100,"","","","","","","","","","","","","",0.1393973558
"X","","","","",1107,41.2789733333333,-71.21604,180,476,"2","2","8","5","3","1","3","1","C","","","","","","","","","","","","","","","","","","","","","","","","","","","","","",103.9,1500,100,"","","","","","","","","","","","","",0.1408969463
"X","","","","",1107,41.276615,-71.2160583333333,180,476,"2","2","8","5","3","1","3","1","C","","","","","","","","","","","","","","","","","","","","","","","","","","","","","",101.3,1500,100,"","","","","","","","","","","","","",0.1415978278
"X","","","","",1108,41.274255,-71.216035,180,476,"2","2","8","5","3","1","3","1","C","","","","","","","","","","","","","","","","","","","","","","","","","","","","","",102,1500,100,"","","","","","","","","","","","","",0.1416993905
"X","","","","",1108,41.2718966666667,-71.2160316666667,180,473,"2","2","8","5","3","1","3","1","C","","","","","","","","","","","","","","","","","","","","","","","","","","","","","",102,1500,100,"","","","","","","","","","","","","",0.1415954913
"S","","","","",1108,41.269615057822,-71.216053833622,181,470,"2","2","8","5","3","1","3","1","C","S2362","","43","FG-U","1","","","1","9","0","","","","","","","","","","","","","","","","","","","",104.3,1500,100,"","","","","","","","","","","","","",0.1369924903
"X","","","","",1108,41.269495,-71.216055,181,470,"2","2","8","5","3","1","3","1","C","","","","","","","","","","","","","","","","","","","","","","","","","","","","","",104.4,1500,100,"","","","","","","","","","","","","",0.144201009
"X","","","","",1108,41.269495,-71.216055,181,470,"2","2","8","5","3","1","3","1","C","","","","","","","","","","","","","","","","","","","","","","","","","","","","","",104.4,1500,100,"","","","","","","","","","","","","",0
"X","","","","",1108,41.2670583333333,-71.2160916666667,180,470,"2","2","8","5","3","1","3","1","C","","","","","","","","","","","","","","","","","","","","","","","","","","","","","",105.3,1500,100,"","","","","","","","","","","","","",0.146307938
"X","","","","",1108,41.26465,-71.2161083333333,180,475,"2","2","8","5","3","1","3","1","C","","","","","","","","","","","","","","","","","","","","","","","","","","","","","",102.3,1500,100,"","","","","","","","","","","","","",0.1445993906
"X","","","","",1108,41.2622666666667,-71.2161166666667,180,481,"2","2","8","5","3","1","3","1","C","","","","","","","","","","","","","","","","","","","","","","","","","","","","","",102,1500,100,"","","","","","","","","","","","","",0.1430969171
"X","","","","",1108,41.2599116666667,-71.2161116666667,180,483,"2","2","8","5","3","1","3","1","C","","","","","","","","","","","","","","","","","","","","","","","","","","","","","",101.2,1500,100,"","","","","","","","","","","","","",0.1413954567
"X","","","","",1108,41.2575666666667,-71.2161483333333,181,486,"2","2","8","5","3","1","3","1","C","","","","","","","","","","","","","","","","","","","","","","","","","","","","","",100.8,1500,100,"","","","","","","","","","","","","",0.140804598
"X","","","","",1108,41.25524,-71.216155,180,487,"2","2","8","5","3","1","3","1","C","","","","","","","","","","","","","","","","","","","","","","","","","","","","","",100.5,1500,100,"","","","","","","","","","","","","",0.1396944544
"X","","","","",1108,41.25524,-71.216155,180,487,"2","2","8","5","3","1","3","1","C","","","","","","","","","","","","","","","","","","","","","","","","","","","","","",100.5,1500,100,"","","","","","","","","","","","","",0
"X","","","","",1108,41.252905,-71.2161633333333,180,487,"2","2","8","5","3","1","3","1","C","","","","","","","","","","","","","","","","","","","","","","","","","","","","","",101.4,1500,100,"","","","","","","","","","","","","",0.1401949721
"X","","","","",1108,41.2505516666667,-71.2161816666667,180,487,"2","2","8","5","3","1","3","1","C","","","","","","","","","","","","","","","","","","","","","","","","","","","","","",102,1500,100,"","","","","","","","","","","","","",0.1412976326
"X","","","","",1108,41.2481916666667,-71.216215,181,487,"2","2","8","5","3","1","3","1","C","","","","","","","","","","","","","","","","","","","","","","","","","","","","","",102.3,1500,100,"","","","","","","","","","","","","",0.1417034681
"X","","","","",1109,41.2458283333333,-71.2162666666667,181,488,"2","2","8","5","3","1","3","1","C","","","","","","","","","","","","","","","","","","","","","","","","","","","","","",101.9,1500,100,"","","","","","","","","","","","","",0.1419147815
"X","","","","",1109,41.2434733333333,-71.2163266666667,181,490,"2","2","8","5","3","1","3","1","C","","","","","","","","","","","","","","","","","","","","","","","","","","","","","",101.5,1500,100,"","","","","","","","","","","","","",0.1414212188
"X","","","","",1109,41.24111,-71.2163833333333,181,487,"2","2","8","5","3","1","3","1","C","","","","","","","","","","","","","","","","","","","","","","","","","","","","","",101.8,1500,100,"","","","","","","","","","","","","",0.1419186739
"X","","","","",1109,41.2387183333333,-71.2164216666667,180,484,"2","2","8","5","3","1","3","1","C","","","","","","","","","","","","","","","","","","","","","","","","","","","","","",103.8,1500,100,"","","","","","","","","","","","","",0.1436071888
"X","","","","",1109,41.2363166666667,-71.21644,180,484,"2","2","8","5","3","1","3","1","C","","","","","","","","","","","","","","","","","","","","","","","","","","","","","",102.4,1500,100,"","","","","","","","","","","","","",0.1441995403
"X","","","","",1109,41.2339166666667,-71.2164,179,484,"2","2","8","5","3","1","3","1","C","","","","","","","","","","","","","","","","","","","","","","","","","","","","","",103.7,1500,100,"","","","","","","","","","","","","",0.1441084148
"X","","","","",1109,41.2315183333333,-71.2163666666667,180,484,"2","2","8","5","3","1","3","1","C","","","","","","","","","","","","","","","","","","","","","","","","","","","","","",103.5,1500,100,"","","","","","","","","","","","","",0.1440048953
"X","","","","",1109,41.2291066666667,-71.21636,180,485,"2","2","8","5","3","1","3","1","C","","","","","","","","","","","","","","","","","","","","","","","","","","","","","",104.3,1500,100,"","","","","","","","","","","","","",0.1447978821
"X","","","","",1109,41.2266866666667,-71.21634,180,486,"2","2","8","5","3","1","3","1","C","","","","","","","","","","","","","","","","","","","","","","","","","","","","","",103.8,1500,100,"","","","","","","","","","","","","",0.145300713
"X","","","","",1109,41.2266866666667,-71.21634,180,486,"2","2","8","5","3","1","3","1","C","","","","","","","","","","","","","","","","","","","","","","","","","","","","","",103.8,1500,100,"","","","","","","","","","","","","",0
"X","","","","",1109,41.2242716666667,-71.2163083333333,179,486,"2","2","8","5","3","1","3","1","C","","","","","","","","","","","","","","","","","","","","","","","","","","","","","",105,1500,100,"","","","","","","","","","","","","",0.1450047553
"X","","","","",1109,41.2218533333333,-71.2162933333333,180,489,"2","2","8","5","3","1","3","1","C","","","","","","","","","","","","","","","","","","","","","","","","","","","","","",104.3,1500,100,"","","","","","","","","","","","","",0.145199419
"X","","","","",1109,41.2194483333333,-71.2162866666667,180,492,"2","2","8","5","3","1","3","1","C","","","","","","","","","","","","","","","","","","","","","","","","","","","","","",104.2,1500,100,"","","","","","","","","","","","","",0.1443976133
"X","","","","",1110,41.2170383333333,-71.216305,181,494,"2","2","8","5","3","1","3","1","C","","","","","","","","","","","","","","","","","","","","","","","","","","","","","",104.2,1500,100,"","","","","","","","","","","","","",0.1446998706
"X","","","","",1110,41.21464,-71.2163683333333,181,493,"2","2","8","5","3","1","3","1","C","","","","","","","","","","","","","","","","","","","","","","","","","","","","","",103.5,1500,100,"","","","","","","","","","","","","",0.1440254371
"X","","","","",1110,41.2122316666667,-71.2164283333333,181,493,"2","2","8","5","3","1","3","1","C","","","","","","","","","","","","","","","","","","","","","","","","","","","","","",105.8,1500,100,"","","","","","","","","","","","","",0.1446228264
"X","","","","",1110,41.2122316666667,-71.2164283333333,181,493,"2","2","8","5","3","1","3","1","C","","","","","","","","","","","","","","","","","","","","","","","","","","","","","",105.8,1500,100,"","","","","","","","","","","","","",0
"X","","","","",1110,41.2098216666667,-71.216495,181,494,"2","2","8","5","3","1","3","1","C","","","","","","","","","","","","","","","","","","","","","","","","","","","","","",103.9,1500,100,"","","","","","","","","","","","","",0.14472883
"X","","","","",1110,41.2074233333333,-71.2165483333333,180,497,"2","2","8","5","3","1","3","1","C","","","","","","","","","","","","","","","","","","","","","","","","","","","","","",103.3,1500,100,"","","","","","","","","","","","","",0.1440171796
"X","","","","",1110,41.2050266666667,-71.2165283333333,179,500,"2","2","8","5","3","1","3","1","C","","","","","","","","","","","","","","","","","","","","","","","","","","","","","",102.4,1500,100,"","","","","","","","","","","","","",0.1438997982
"X","","","","",1110,41.20265,-71.2164566666667,178,499,"2","2","8","5","3","1","3","1","C","","","","","","","","","","","","","","","","","","","","","","","","","","","","","",103.1,1500,100,"","","","","","","","","","","","","",0.1427328719
"X","","","","",1110,41.2002483333333,-71.216355,178,495,"2","2","8","5","3","1","3","1","C","","","","","","","","","","","","","","","","","","","","","","","","","","","","","",104.7,1500,100,"","","","","","","","","","","","","",0.1442702859
"X","","","","",1110,41.1978233333333,-71.21629,179,495,"2","2","8","5","3","1","3","1","C","","","","","","","","","","","","","","","","","","","","","","","","","","","","","",105,1500,100,"","","","","","","","","","","","","",0.1456277168
"X","","","","",1110,41.1954166666667,-71.21627,180,497,"2","2","8","5","3","1","3","1","C","","","","","","","","","","","","","","","","","","","","","","","","","","","","","",103.6,1500,100,"","","","","","","","","","","","","",0.1445001918
"X","","","","",1110,41.1930166666667,-71.2162733333333,180,496,"2","2","8","5","3","1","3","1","C","","","","","","","","","","","","","","","","","","","","","","","","","","","","","",104,1500,100,"","","","","","","","","","","","","",0.1440971759
"S","","","","",1110,41.1906503471216,-71.2163026275486,181,494,"2","2","8","5","3","1","3","1","C","S2363","","","FG-U","1","","","1","9","0","","","","","","","","","","","","","","","","","","","",104.2,1500,100,"","","","","","","","","","","","","",0.142081072
"X","","","","",1110,41.1905933333333,-71.2163033333333,181,494,"2","2","8","5","3","1","3","1","C","","","","","","","","","","","","","","","","","","","","","","","","","","","","","",104.2,1500,100,"","","","","","","","","","","","","",0.1455043545
"X","","","","",1111,41.1881583333333,-71.2163516666667,181,491,"2","2","8","5","3","1","3","1","C","","","","","","","","","","","","","","","","","","","","","","","","","","","","","",105,1500,100,"","","","","","","","","","","","","",0.1462148226
"X","","","","",1111,41.1857183333333,-71.216405,181,491,"2","2","8","5","3","1","3","1","C","","","","","","","","","","","","","","","","","","","","","","","","","","","","","",105.3,1500,100,"","","","","","","","","","","","","",0.1465185344
"X","","","","",1111,41.1833,-71.2164383333333,180,492,"2","2","8","5","3","1","3","1","C","","","","","","","","","","","","","","","","","","","","","","","","","","","","","",104.7,1500,100,"","","","","","","","","","","","","",0.1452056509
"X","","","","",1111,41.1833,-71.2164383333333,180,492,"2","2","8","5","3","1","3","1","C","","","","","","","","","","","","","","","","","","","","","","","","","","","","","",104.7,1500,100,"","","","","","","","","","","","","",0
"X","","","","",1111,41.1808833333333,-71.2164533333333,180,492,"2","2","8","5","3","1","3","1","C","","","","","","","","","","","","","","","","","","","","","","","","","","","","","",103.6,1500,100,"","","","","","","","","","","","","",0.1450993546
"X","","","","",1111,41.1784766666667,-71.216475,181,490,"2","2","8","5","3","1","3","1","C","","","","","","","","","","","","","","","","","","","","","","","","","","","","","",103.3,1500,100,"","","","","","","","","","","","","",0.144500684
"X","","","","",1111,41.1760633333333,-71.216495,180,488,"2","2","8","5","3","1","3","1","C","","","","","","","","","","","","","","","","","","","","","","","","","","","","","",104.9,1500,100,"","","","","","","","","","","","","",0.1449004554
"X","","","","",1111,41.1736316666667,-71.216505,180,487,"2","2","8","5","3","1","3","1","C","","","","","","","","","","","","","","","","","","","","","","","","","","","","","",104.8,1500,100,"","","","","","","","","","","","","",0.1459990778
"X","","","","",1111,41.1711933333333,-71.2165116666667,180,489,"2","2","8","5","3","1","3","1","C","","","","","","","","","","","","","","","","","","","","","","","","","","","","","",105.2,1500,100,"","","","","","","","","","","","","",0.1463989581
"X","","","","",1111,41.168755,-71.2165333333333,181,494,"2","2","8","5","3","1","3","1","C","","","","","","","","","","","","","","","","","","","","","","","","","","","","","",104.7,1500,100,"","","","","","","","","","","","","",0.146401923
"X","","","","",1111,41.168755,-71.2165333333333,181,494,"2","2","8","5","3","1","3","1","C","","","","","","","","","","","","","","","","","","","","","","","","","","","","","",104.7,1500,100,"","","","","","","","","","","","","",0
"X","","","","",1111,41.1663516666667,-71.216585,181,494,"2","2","8","5","3","1","3","1","C","","","","","","","","","","","","","","","","","","","","","","","","","","","","","",103.2,1500,100,"","","","","","","","","","","","","",0.1443161266
"X","","","","",1111,41.1639483333333,-71.2166316666667,181,492,"2","2","8","5","3","1","3","1","C","","","","","","","","","","","","","","","","","","","","","","","","","","","","","",104,1500,100,"","","","","","","","","","","","","",0.1443126479
"X","","","","",1111,41.1615316666667,-71.216675,181,489,"2","2","8","5","3","1","3","1","C","","","","","","","","","","","","","","","","","","","","","","","","","","","","","",104.7,1500,100,"","","","","","","","","","","","","",0.1451109914
"X","","","","",1112,41.1591016666667,-71.216725,181,488,"2","2","8","5","3","1","3","1","C","","","","","","","","","","","","","","","","","","","","","","","","","","","","","",105,1500,100,"","","","","","","","","","","","","",0.1459158159
"X","","","","",1112,41.1566616666667,-71.2167483333333,180,489,"2","2","8","5","3","1","3","1","C","","","","","","","","","","","","","","","","","","","","","","","","","","","","","",105.1,1500,100,"","","","","","","","","","","","","",0.1465025125
"X","","","","",1112,41.1542283333333,-71.2167183333333,179,491,"2","2","8","5","3","1","3","1","C","","","","","","","","","","","","","","","","","","","","","","","","","","","","","",105.1,1500,100,"","","","","","","","","","","","","",0.1461047401
"X","","","","",1112,41.1518166666667,-71.216685,179,491,"2","2","8","5","3","1","3","1","C","","","","","","","","","","","","","","","","","","","","","","","","","","","","","",104.6,1500,100,"","","","","","","","","","","","","",0.1448054103
"X","","","","",1112,41.1493933333333,-71.2166333333333,179,490,"2","2","8","5","3","1","3","1","C","","","","","","","","","","","","","","","","","","","","","","","","","","","","","",104.6,1500,100,"","","","","","","","","","","","","",0.1455167895
"X","","","","",1112,41.1469683333333,-71.2165833333333,179,490,"2","2","8","5","3","1","3","1","C","","","","","","","","","","","","","","","","","","","","","","","","","","","","","",105.4,1500,100,"","","","","","","","","","","","","",0.1456156562
"X","","","","",1112,41.144535,-71.2165716666667,180,491,"2","2","8","5","3","1","3","1","C","","","","","","","","","","","","","","","","","","","","","","","","","","","","","",104.3,1500,100,"","","","","","","","","","","","","",0.146099398
"X","","","","",1112,41.1421166666667,-71.216585,180,490,"2","2","8","5","3","1","3","1","C","","","","","","","","","","","","","","","","","","","","","","","","","","","","","",104.6,1500,100,"","","","","","","","","","","","","",0.1451990904
"S","","","","",1112,41.1401021450911,-71.2166072140205,181,489,"2","2","8","5","3","1","3","1","C","S2364","","","FV-C","1","","","1","9","0","","","","","","","","","","","","","","","","","","","",104.3,1500,100,"","","","","","","","","","","","","",0.1209569668
"X","","","","",1112,41.1396983333333,-71.2166116666667,181,488,"2","2","8","5","3","1","3","1","C","","","","","","","","","","","","","","","","","","","","","","","","","","","","","",104.2,1500,100,"","","","","","","","","","","","","",0.1452028453
"X","","","","",1112,41.1396983333333,-71.2166116666667,181,488,"2","2","8","5","3","1","3","1","C","","","","","","","","","","","","","","","","","","","","","","","","","","","","","",104.2,1500,100,"","","","","","","","","","","","","",0
"X","","","","",1112,41.1372733333333,-71.2166616666667,181,489,"2","2","8","5","3","1","3","1","C","","","","","","","","","","","","","","","","","","","","","","","","","","","","","",104,1500,100,"","","","","","","","","","","","","",0.1456156614
"S","","","","",1112,41.1361982464103,-71.2166720901587,180,489,"2","2","8","5","3","1","3","1","C","S2365","","","FV-T","1","","","1","9","0","","","","","","","","","","","","","","","","","","","",104.1,1500,100,"","","","","","","","","","","","","",0.0645504312
"X","","","","",1112,41.1348666666667,-71.216685,180,489,"2","2","8","5","3","1","3","1","C","","","","","","","","","","","","","","","","","","","","","","","","","","","","","",104.3,1500,100,"","","","","","","","","","","","","",0.1445012191
"X","","","","",1112,41.132435,-71.2166683333333,180,487,"2","2","8","5","3","1","3","1","C","","","","","","","","","","","","","","","","","","","","","","","","","","","","","",105.2,1500,100,"","","","","","","","","","","","","",0.1460003237
"X","","","","",1113,41.129995,-71.2166716666667,180,488,"2","2","8","5","3","1","3","1","C","","","","","","","","","","","","","","","","","","","","","","","","","","","","","",104.7,1500,100,"","","","","","","","","","","","","",0.146498793
"X","","","","",1113,41.1275616666667,-71.2166583333333,180,488,"2","2","8","5","3","1","3","1","C","","","","","","","","","","","","","","","","","","","","","","","","","","","","","",105,1500,100,"","","","","","","","","","","","","",0.1460996901
"S","","","","",1113,41.1254684894922,-71.2166238302375,179,489,"2","2","8","5","3","1","3","1","C","S2366","","","RECV","1","","","1","9","0","","","","","","","","","","","","","","","","","","","",104.6,1500,100,"","","","","","","","","","","","","",0.1256850016
"X","","","","",1113,41.125135,-71.2166183333333,179,490,"2","2","8","5","3","1","3","1","C","","","","","","","","","","","","","","","","","","","","","","","","","","","","","",104.5,1500,100,"","","","","","","","","","","","","",0.1457094065
"X","","","","",1113,41.125135,-71.2166183333333,179,490,"2","2","8","5","3","1","3","1","C","","","","","","","","","","","","","","","","","","","","","","","","","","","","","",104.5,1500,100,"","","","","","","","","","","","","",0
"X","","","","",1113,41.1227016666667,-71.216555,179,490,"2","2","8","5","3","1","3","1","C","","","","","","","","","","","","","","","","","","","","","","","","","","","","","",104.8,1500,100,"","","","","","","","","","","","","",0.1461265232
"X","","","","",1113,41.120265,-71.21653,180,490,"2","2","8","5","3","1","3","1","C","","","","","","","","","","","","","","","","","","","","","","","","","","","","","",105.4,1500,100,"","","","","","","","","","","","","",0.1463029502
"X","","","","",1113,41.117825,-71.216545,180,490,"2","2","8","5","3","1","3","1","C","","","","","","","","","","","","","","","","","","","","","","","","","","","","","",105.1,1500,100,"","","","","","","","","","","","","",0.1465002865
"X","","","","",1113,41.1153866666667,-71.2165316666667,180,490,"2","2","8","5","3","1","3","1","C","","","","","","","","","","","","","","","","","","","","","","","","","","","","","",104.7,1500,100,"","","","","","","","","","","","","",0.1463998903
"X","","","","",1113,41.1129566666667,-71.216515,179,490,"2","2","8","5","3","1","3","1","C","","","","","","","","","","","","","","","","","","","","","","","","","","","","","",104.7,1500,100,"","","","","","","","","","","","","",0.1459002587
"X","","","","",1113,41.1105266666667,-71.216505,180,489,"2","2","8","5","3","1","3","1","C","","","","","","","","","","","","","","","","","","","","","","","","","","","","","",104.4,1500,100,"","","","","","","","","","","","","",0.1458990122
"X","","","","",1113,41.10808,-71.216505,180,489,"2","2","8","5","3","1","3","1","C","","","","","","","","","","","","","","","","","","","","","","","","","","","","","",104.8,1500,100,"","","","","","","","","","","","","",0.1468989852
"X","","","","",1113,41.1056433333333,-71.2164883333333,179,488,"2","2","8","5","3","1","3","1","C","","","","","","","","","","","","","","","","","","","","","","","","","","","","","",105.8,1500,100,"","","","","","","","","","","","","",0.1463005235
"X","","","","",1113,41.1031816666667,-71.216455,180,488,"2","2","8","5","3","1","3","1","C","","","","","","","","","","","","","","","","","","","","","","","","","","","","","",105.8,1500,100,"","","","","","","","","","","","","",0.1478072853
"X","","","","",1114,41.1007166666667,-71.216435,179,490,"2","2","8","5","3","1","3","1","C","","","","","","","","","","","","","","","","","","","","","","","","","","","","","",106.5,1500,100,"","","","","","","","","","","","","",0.148002493
"X","","","","",1114,41.0982733333333,-71.2164066666667,179,491,"2","2","8","5","3","1","3","1","C","","","","","","","","","","","","","","","","","","","","","","","","","","","","","",105,1500,100,"","","","","","","","","","","","","",0.1467044513
"X","","","","",1114,41.0958283333333,-71.216375,180,491,"2","2","8","5","3","1","3","1","C","","","","","","","","","","","","","","","","","","","","","","","","","","","","","",105.1,1500,100,"","","","","","","","","","","","","",0.1468059098
"X","","","","",1114,41.0933833333333,-71.2163666666667,180,492,"2","2","8","5","3","1","3","1","C","","","","","","","","","","","","","","","","","","","","","","","","","","","","","",105.2,1500,100,"","","","","","","","","","","","","",0.146799402
"X","","","","",1114,41.09095,-71.2163816666667,180,493,"2","2","8","5","3","1","3","1","C","","","","","","","","","","","","","","","","","","","","","","","","","","","","","",105.2,1500,100,"","","","","","","","","","","","","",0.1461000224
"S","","","","",1114,41.0895997733507,-71.2163761062735,180,493,"2","2","8","5","3","1","3","1","C","S2367","","","RECV","1","","","1","9","0","","","","","","","","","","","","","","","","","","","",105.2,1500,100,"","","","","","","","","","","","","",0.0810686158
"X","","","","",1114,41.0885216666667,-71.2163716666667,179,493,"2","2","8","5","3","1","3","1","C","","","","","","","","","","","","","","","","","","","","","","","","","","","","","",105.2,1500,100,"","","","","","","","","","","","","",0.1457989457
"P","","","","",1114,41.0863686348007,-71.2163303471685,179,493,"2","2","8","5","3","1","3","1","C","S2368","","","FV-C","1","","","1","9","0","","","","","","","","","","","","","","","","","","","",104.5,1500,100,"","","","","","","","","","","","","",0.12928254
"X","","","","",1114,41.08609,-71.216325,179,493,"2","2","8","5","3","1","3","1","C","","","","","","","","","","","","","","","","","","","","","","","","","","","","","",104.4,1500,100,"","","","","","","","","","","","","",0.1460136507
"X","","","","",1114,41.0836733333333,-71.2162766666667,179,493,"2","2","8","5","3","1","3","1","C","","","","","","","","","","","","","","","","","","","","","","","","","","","","","",105,1500,100,"","","","","","","","","","","","","",0.1451142571
"X","","","","",1114,41.08124,-71.2162183333333,179,494,"2","2","8","5","3","1","3","1","C","","","","","","","","","","","","","","","","","","","","","","","","","","","","","",106.4,1500,100,"","","","","","","","","","","","","",0.1461222954
"X","","","","",1114,41.08124,-71.2162183333333,179,494,"2","2","8","5","3","1","3","1","C","","","","","","","","","","","","","","","","","","","","","","","","","","","","","",106.4,1500,100,"","","","","","","","","","","","","",0
"X","","","","",1114,41.0788116666667,-71.21616,179,495,"2","2","8","5","3","1","3","1","C","","","","","","","","","","","","","","","","","","","","","","","","","","","","","",103.9,1500,100,"","","","","","","","","","","","","",0.145822144
"X","","","","",1114,41.0763816666667,-71.216115,180,495,"2","2","8","5","3","1","3","1","C","","","","","","","","","","","","","","","","","","","","","","","","","","","","","",104.4,1500,100,"","","","","","","","","","","","","",0.1459125259
"P","","","","",1114,41.0740718066276,-71.2160959233533,180,495,"2","2","8","5","3","1","3","1","C","S2369","","","MV-L","6","","","1","9","0","","","","","","","","","","","","","","","","","","","",104,1500,100,"","","","","","","","","","","","","",0.1386877405
"X","","","","",1114,41.07396,-71.216095,180,495,"2","2","8","5","3","1","3","1","C","","","","","","","","","","","","","","","","","","","","","","","","","","","","","",104,1500,100,"","","","","","","","","","","","","",0.1454007916
"X","","","","",1115,41.0715233333333,-71.216075,180,496,"2","2","8","5","3","1","3","1","C","","","","","","","","","","","","","","","","","","","","","","","","","","","","","",104.9,1500,100,"","","","","","","","","","","","","",0.1463013813
"P","","","","",1115,41.0698472109451,-71.2160990923864,181,497,"2","2","8","5","3","1","3","1","C","S2370","28","","METT","1","","","1","9","0","","","","","","","","","","","","","","","","","","","",105.4,1500,100,"","","","","","","","","","","","","",0.100641063
"X","","","","",1115,41.0690883333333,-71.21611,181,497,"2","2","8","5","3","1","3","1","C","","","","","","","","","","","","","","","","","","","","","","","","","","","","","",105.6,1500,100,"","","","","","","","","","","","","",0.1462070968
"X","","","","",1115,41.0666516666667,-71.2161933333333,181,496,"2","2","8","5","3","1","3","1","C","","","","","","","","","","","","","","","","","","","","","","","","","","","","","",104.4,1500,100,"","","","","","","","","","","","","",0.1463472042
"X","","","","",1115,41.0642216666667,-71.2162566666667,181,497,"2","2","8","5","3","1","3","1","C","","","","","","","","","","","","","","","","","","","","","","","","","","","","","",104.3,1500,100,"","","","","","","","","","","","","",0.145926477
"X","","","","",1115,41.061785,-71.216295,180,496,"2","2","8","5","3","1","3","1","C","","","","","","","","","","","","","","","","","","","","","","","","","","","","","",105.2,1500,100,"","","","","","","","","","","","","",0.1463088722
"X","","","","",1115,41.0593316666667,-71.21633,180,495,"2","2","8","5","3","1","3","1","C","","","","","","","","","","","","","","","","","","","","","","","","","","","","","",106.2,1500,100,"","","","","","","","","","","","","",0.1473077769
"P","","","","",1115,41.0585713490156,-71.2163412946811,180,495,"2","2","8","5","3","1","3","1","C","S2371","","","FV-T","1","","","1","9","0","","","","","","","","","","","","","","","","","","","",106.1,1500,100,"","","","","","","","","","","","","",0.0456526831
"X","","","","",1115,41.0568633333333,-71.2163666666667,181,495,"2","2","8","5","3","1","3","1","C","","","","","","","","","","","","","","","","","","","","","","","","","","","","","",105.9,1500,100,"","","","","","","","","","","","","",0.1482091585
"X","","","","",1115,41.0543816666667,-71.2164183333333,181,495,"2","2","8","5","3","1","3","1","C","","","","","","","","","","","","","","","","","","","","","","","","","","","","","",106.8,1500,100,"","","","","","","","","","","","","",0.1490187619
"X","","","","",1115,41.051905,-71.2164883333333,182,496,"2","2","8","5","3","1","3","1","C","","","","","","","","","","","","","","","","","","","","","","","","","","","","","",106,1500,100,"","","","","","","","","","","","","",0.1487339705
"X","","","","",1115,41.0494383333333,-71.216565,181,498,"2","2","8","5","3","1","3","1","C","","","","","","","","","","","","","","","","","","","","","","","","","","","","","",105.9,1500,100,"","","","","","","","","","","","","",0.1481404713
"P","","","","",1115,41.0479537158369,-71.2165781027238,180,497,"2","2","8","5","3","1","3","1","C","S2372","","","FV-T","2","","","1","9","0","","","","","","","","","","","","","","","","","","","",106,1500,100,"","","","","","","","","","","","","",0.0891390876
"X","","","","",1115,41.0469833333333,-71.2165866666667,180,496,"2","2","8","5","3","1","3","1","C","","","","","","","","","","","","","","","","","","","","","","","","","","","","","",106,1500,100,"","","","","","","","","","","","","",0.1474025872
"X","","","","",1115,41.0445183333333,-71.2165866666667,180,493,"2","2","8","5","3","1","3","1","C","","","","","","","","","","","","","","","","","","","","","","","","","","","","","",106.7,1500,100,"","","","","","","","","","","","","",0.1479997269
"X","","","","",1116,41.042045,-71.2165383333333,178,489,"2","2","8","5","3","1","3","1","C","","","","","","","","","","","","","","","","","","","","","","","","","","","","","",106.7,1500,100,"","","","","","","","","","","","","",0.1485161924
"S","","","","",1116,41.0420439152591,-71.2165382880733,178,489,"2","2","8","5","3","1","3","1","C","S2373","","41","FG-U","1","","","1","9","0","","","","","","","","","","","","","","","","","","","",106.7,1500,100,"","","","","","","","","","","","","",6.51606e-05
"X","","","","",1116,41.0395683333333,-71.216435,178,485,"2","2","8","5","3","1","3","1","C","","","","","","","","","","","","","","","","","","","","","","","","","","","","","",106.6,1500,100,"","","","","","","","","","","","","",0.1487738097
"X","","","","",1116,41.037095,-71.2163483333333,179,483,"2","2","8","5","3","1","3","1","C","","","","","","","","","","","","","","","","","","","","","","","","","","","","","",106.4,1500,100,"","","","","","","","","","","","","",0.1485519218
"X","","","","",1116,41.037095,-71.2163483333333,179,483,"2","2","8","5","3","1","3","1","C","","","","","","","","","","","","","","","","","","","","","","","","","","","","","",106.4,1500,100,"","","","","","","","","","","","","",0
"X","","","","",1116,41.0346233333333,-71.21624,178,482,"2","2","8","5","3","1","3","1","C","","","","","","","","","","","","","","","","","","","","","","","","","","","","","",106,1500,100,"","","","","","","","","","","","","",0.1484810771
"X","","","","",1116,41.03216,-71.2161183333333,178,478,"2","2","8","5","3","1","3","1","C","","","","","","","","","","","","","","","","","","","","","","","","","","","","","",106.3,1500,100,"","","","","","","","","","","","","",0.1480022726
"X","","","","",1116,41.0296933333333,-71.2160533333333,180,474,"2","2","8","5","3","1","3","1","C","","","","","","","","","","","","","","","","","","","","","","","","","","","","","",106.8,1500,100,"","","","","","","","","","","","","",0.1481290519
"X","","","","",1116,41.0272133333333,-71.2160316666667,180,473,"2","2","8","5","3","1","3","1","C","","","","","","","","","","","","","","","","","","","","","","","","","","","","","",107.1,1500,100,"","","","","","","","","","","","","",0.1489035676
"X","","","","",1116,41.024735,-71.21604,180,472,"2","2","8","5","3","1","3","1","C","","","","","","","","","","","","","","","","","","","","","","","","","","","","","",106.4,1500,100,"","","","","","","","","","","","","",0.1488007451
"X","","","","",1116,41.022275,-71.2160266666667,180,471,"2","2","8","5","3","1","3","1","C","","","","","","","","","","","","","","","","","","","","","","","","","","","","","",105.4,1500,100,"","","","","","","","","","","","","",0.1477007594
"X","","","","",1116,41.022275,-71.2160266666667,180,471,"2","2","8","5","3","1","3","1","C","","","","","","","","","","","","","","","","","","","","","","","","","","","","","",105.4,1500,100,"","","","","","","","","","","","","",0
"X","","","","",1116,41.019835,-71.2160033333333,180,470,"2","2","8","5","3","1","3","1","C","","","","","","","","","","","","","","","","","","","","","","","","","","","","","",105,1500,100,"","","","","","","","","","","","","",0.1465025283
"X","","","","",1116,41.0174016666667,-71.2159766666667,179,469,"2","2","8","5","3","1","3","1","C","","","","","","","","","","","","","","","","","","","","","","","","","","","","","",104.7,1500,100,"","","","","","","","","","","","","",0.1461034398
"X","","","","",1116,41.01499,-71.215935,179,469,"2","2","8","5","3","1","3","1","C","","","","","","","","","","","","","","","","","","","","","","","","","","","","","",103.6,1500,100,"","","","","","","","","","","","","",0.1448098719
"X","","","","",1117,41.012595,-71.215875,179,468,"2","2","8","5","3","1","3","1","C","","","","","","","","","","","","","","","","","","","","","","","","","","","","","",102.7,1500,100,"","","","","","","","","","","","","",0.1438225841
"X","","","","",1117,41.0101933333333,-71.2158133333333,179,463,"2","2","8","5","3","1","3","1","C","","","","","","","","","","","","","","","","","","","","","","","","","","","","","",103.8,1500,100,"","","","","","","","","","","","","",0.1442242273
"X","","","","",1117,41.0077683333333,-71.2157533333333,179,461,"2","2","8","5","3","1","3","1","C","","","","","","","","","","","","","","","","","","","","","","","","","","","","","",104.5,1500,100,"","","","","","","","","","","","","",0.1456234837
"X","","","","",1117,41.005345,-71.2156583333334,178,460,"2","2","8","5","3","1","3","1","C","","","","","","","","","","","","","","","","","","","","","","","","","","","","","",104.7,1500,100,"","","","","","","","","","","","","",0.1455616953
"X","","","","",1117,41.0029333333333,-71.2156,179,460,"2","2","8","5","3","1","3","1","C","","","","","","","","","","","","","","","","","","","","","","","","","","","","","",103.7,1500,100,"","","","","","","","","","","","","",0.1448216904
"X","","","","",1117,41.0005266666667,-71.215605,181,462,"2","2","8","5","3","1","3","1","C","","","","","","","","","","","","","","","","","","","","","","","","","","","","","",103.2,1500,100,"","","","","","","","","","","","","",0.1444975445
"X","","","","",1117,40.9981333333333,-71.215685,182,463,"2","2","8","5","3","1","3","1","C","","","","","","","","","","","","","","","","","","","","","","","","","","","","","",103.1,1500,100,"","","","","","","","","","","","","",0.1437425458
"X","","","","",1117,40.99575,-71.2158066666667,182,460,"2","2","8","5","3","1","3","1","C","","","","","","","","","","","","","","","","","","","","","","","","","","","","","",103.1,1500,100,"","","","","","","","","","","","","",0.1432025952
"S","","","","",1117,40.9937725667726,-71.2158904916823,181,457,"2","2","8","5","3","1","3","1","C","S2374","","","RECV","1","","","1","9","0","","","","","","","","","","","","","","","","","","","",103.7,1500,100,"","","","","","","","","","","","","",0.1187867493
"X","","","","",1117,40.9933516666667,-71.2159083333333,181,456,"2","2","8","5","3","1","3","1","C","","","","","","","","","","","","","","","","","","","","","","","","","","","","","",103.8,1500,100,"","","","","","","","","","","","","",0.1440707152
"X","","","","",1117,40.9933516666667,-71.2159083333333,181,456,"2","2","8","5","3","1","3","1","C","","","","","","","","","","","","","","","","","","","","","","","","","","","","","",103.8,1500,100,"","","","","","","","","","","","","",0
"X","","","","",1117,40.9909466666667,-71.2159633333333,181,456,"2","2","8","5","3","1","3","1","C","","","","","","","","","","","","","","","","","","","","","","","","","","","","","",103.4,1500,100,"","","","","","","","","","","","","",0.1444188102
"X","","","","",1117,40.988545,-71.2160166666667,181,457,"2","2","8","5","3","1","3","1","C","","","","","","","","","","","","","","","","","","","","","","","","","","","","","",103.5,1500,100,"","","","","","","","","","","","","",0.144217421
"X","","","","",1117,40.986155,-71.2160616666667,181,457,"2","2","8","5","3","1","3","1","C","","","","","","","","","","","","","","","","","","","","","","","","","","","","","",102.7,1500,100,"","","","","","","","","","","","","",0.1435111852
"X","","","","",1118,40.9837833333333,-71.2161183333333,181,457,"2","2","8","5","3","1","3","1","C","","","","","","","","","","","","","","","","","","","","","","","","","","","","","",102.4,1500,100,"","","","","","","","","","","","","",0.1424191109
"X","","","","",1118,40.9814166666667,-71.2161566666667,180,456,"2","2","8","5","3","1","3","1","C","","","","","","","","","","","","","","","","","","","","","","","","","","","","","",102.7,1500,100,"","","","","","","","","","","","","",0.1421063705
"X","","","","",1118,40.9790366666667,-71.21614,179,456,"2","2","8","5","3","1","3","1","C","","","","","","","","","","","","","","","","","","","","","","","","","","","","","",102.5,1500,100,"","","","","","","","","","","","","",0.1428982849
"X","","","","",1118,40.9790366666667,-71.21614,179,456,"2","2","8","5","3","1","3","1","C","","","","","","","","","","","","","","","","","","","","","","","","","","","","","",102.5,1500,100,"","","","","","","","","","","","","",0
"S","","","","",1118,40.9770531395466,-71.2161078722614,179,456,"2","2","8","5","3","1","3","1","C","S2375","","","RECV","1","","","1","9","0","","","","","","","","","","","","","","","","","","","",102,1500,100,"","","","","","","","","","","","","",0.1191007787
"X","","","","",1118,40.97667,-71.2161016666667,179,456,"2","2","8","5","3","1","3","1","C","","","","","","","","","","","","","","","","","","","","","","","","","","","","","",101.9,1500,100,"","","","","","","","","","","","","",0.142106372
"S","","","","",1118,40.9744940449471,-71.2160677395663,179,456,"2","2","8","5","3","1","3","1","C","S2376","","","RECV","25","","","1","9","0","","","","","","","","","","","","","","","","","","","",100.9,1500,100,"","","","","","","","","","AT LEAST - FAR OUT 5 DEGREES - ","","","",0.1306543877
"X","","","","",1118,40.9743183333333,-71.216065,179,456,"2","2","8","5","3","1","3","1","C","","","","","","","","","","","","","","","","","","","","","","","","","","","","","",100.8,1500,100,"","","","","","","","","","","","","",0.1412049242
"X","","","","",1118,40.9719766666667,-71.216015,179,454,"2","2","8","5","3","1","3","1","C","","","","","","","","","","","","","","","","","","","","","","","","","","","","","",101.1,1500,100,"","","","","","","","","","","","","",0.1406130061
"X","","","","",1118,40.9696283333333,-71.2159716666667,179,453,"2","2","8","5","3","1","3","1","C","","","","","","","","","","","","","","","","","","","","","","","","","","","","","",101.3,1500,100,"","","","","","","","","","","","","",0.1410086911
"X","","","","",1118,40.9672833333333,-71.215925,179,455,"2","2","8","5","3","1","3","1","C","","","","","","","","","","","","","","","","","","","","","","","","","","","","","",101.4,1500,100,"","","","","","","","","","","","","",0.1408107661
"X","","","","",1118,40.964945,-71.2158916666667,180,453,"2","2","8","5","3","1","3","1","C","","","","","","","","","","","","","","","","","","","","","","","","","","","","","",100.5,1500,100,"","","","","","","","","","","","","",0.1404027355
"P","","","","",1118,40.964649477581,-71.2158864304578,180,452,"2","2","8","5","3","1","3","1","C","S2377","","","RECV","1","","","1","9","0","","","","","","","","","","","","","","","","","","","",100.6,1500,100,"","","","","","","","","","","","","",0.0177448892
"X","","","","",1118,40.9625933333333,-71.21585,179,449,"2","2","8","5","3","1","3","1","C","","","","","","","","","","","","","","","","","","","","","","","","","","","","","",101.8,1500,100,"","","","","","","","","","","","","",0.1412077784
"X","","","","",1118,40.9602283333333,-71.2158266666667,180,448,"2","2","8","5","3","1","3","1","C","","","","","","","","","","","","","","","","","","","","","","","","","","","","","",101.9,1500,100,"","","","","","","","","","","","","",0.1419996221
"X","","","","",1118,40.9578583333333,-71.2158716666667,181,451,"2","2","8","5","3","1","3","1","C","","","","","","","","","","","","","","","","","","","","","","","","","","","","","",101.7,1500,100,"","","","","","","","","","","","","",0.1423105109
"X","","","","",1119,40.9555,-71.2159316666667,181,450,"2","2","8","5","3","1","3","1","C","","","","","","","","","","","","","","","","","","","","","","","","","","","","","",101.6,1500,100,"","","","","","","","","","","","","",0.1416215452
"X","","","","",1119,40.95313,-71.215995,182,452,"2","2","8","5","3","1","3","1","C","","","","","","","","","","","","","","","","","","","","","","","","","","","","","",102,1500,100,"","","","","","","","","","","","","",0.14232486
"X","","","","",1119,40.9507683333333,-71.216095,182,454,"2","2","8","5","3","1","3","1","C","","","","","","","","","","","","","","","","","","","","","","","","","","","","","",101.4,1500,100,"","","","","","","","","","","","","",0.1418680361
"X","","","","",1119,40.9484266666667,-71.2162033333333,182,460,"2","2","8","5","3","1","3","1","C","","","","","","","","","","","","","","","","","","","","","","","","","","","","","",100.2,1500,100,"","","","","","","","","","","","","",0.1406805405
"X","","","","",1119,40.9461066666667,-71.21633,183,464,"2","2","8","5","3","1","3","1","C","","","","","","","","","","","","","","","","","","","","","","","","","","","","","",100.3,1500,100,"","","","","","","","","","","","","",0.139412252
"X","","","","",1119,40.9438,-71.216465,183,465,"2","2","8","5","3","1","3","1","C","","","","","","","","","","","","","","","","","","","","","","","","","","","","","",99.5,1500,100,"","","","","","","","","","","","","",0.1386285811
"X","","","","",1119,40.9414766666667,-71.2165983333333,183,464,"2","2","8","5","3","1","3","1","C","","","","","","","","","","","","","","","","","","","","","","","","","","","","","",101.1,1500,100,"","","","","","","","","","","","","",0.1396250014
"S","","","","",1119,40.9393644302535,-71.2167104482051,182,462,"2","2","8","5","3","1","3","1","C","S2378","","","RECV","1","","","1","9","0","","","","","","","","","","","","","","","","","","","",102.1,1500,100,"","","","","","","","","","","","","",0.1269215383
"X","","","","",1119,40.9391216666667,-71.2167233333333,181,462,"2","2","8","5","3","1","3","1","C","","","","","","","","","","","","","","","","","","","","","","","","","","","","","",102.2,1500,100,"","","","","","","","","","","","","",0.141508886
"X","","","","",1119,40.9367433333333,-71.2167933333333,181,460,"2","2","8","5","3","1","3","1","C","","","","","","","","","","","","","","","","","","","","","","","","","","","","","",103.1,1500,100,"","","","","","","","","","","","","",0.1428315113
"X","","","","",1119,40.9367433333333,-71.2167933333333,181,460,"2","2","8","5","3","1","3","1","C","","","","","","","","","","","","","","","","","","","","","","","","","","","","","",103.1,1500,100,"","","","","","","","","","","","","",0
"X","","","","",1119,40.934345,-71.2168233333333,180,458,"2","2","8","5","3","1","3","1","C","","","","","","","","","","","","","","","","","","","","","","","","","","","","","",104.4,1500,100,"","","","","","","","","","","","","",0.1440034588
"P","","","","",1119,40.9321143620153,-71.2168294953338,180,459,"2","2","8","5","3","1","3","1","C","S2379","","","RECV","1","","","1","9","0","","","","","","","","","","","","","","","","","","","",103.7,1500,100,"","","","","","","","","","","","","",0.133928816
"X","","","","",1119,40.9319316666667,-71.21683,180,459,"2","2","8","5","3","1","3","1","C","","","","","","","","","","","","","","","","","","","","","","","","","","","","","",103.7,1500,100,"","","","","","","","","","","","","",0.1448979521
"X","","","","",1119,40.9295266666667,-71.2168116666667,179,459,"2","2","8","5","3","1","3","1","C","","","","","","","","","","","","","","","","","","","","","","","","","","","","","",104,1500,100,"","","","","","","","","","","","","",0.1443996941
"X","","","","",1120,40.9271166666667,-71.2167483333333,178,459,"2","2","8","5","3","1","3","1","C","","","","","","","","","","","","","","","","","","","","","","","","","","","","","",104.2,1500,100,"","","","","","","","","","","","","",0.1447260199
"X","","","","",1120,40.924705,-71.21664,178,458,"2","2","8","5","3","1","3","1","C","","","","","","","","","","","","","","","","","","","","","","","","","","","","","",104,1500,100,"","","","","","","","","","","","","",0.1448809432
"X","","","","",1120,40.9222883333333,-71.2165016666667,177,458,"2","2","8","5","3","1","3","1","C","","","","","","","","","","","","","","","","","","","","","","","","","","","","","",104.3,1500,100,"","","","","","","","","","","","","",0.1452334198
