rectype,month,day,year,eventno,time,lat,long,heading,alt,legtype,legstage,legno,visiblty,glarel,glarer,beaufort,cloud,wx,sightno,anglel,angler,speccode,number,numcalf,anhead,photos,idrel,confidnc,b1,b2,b3,b4,b5,b6,b7,b8,b9,b10,b11,b12,b13,b14,b15,refno,stratum,utc,radalt,gpsspeed,setalt,setvel,lensfl,ggf,int,gpsq,gpssats,roll,pitch,yaw,maghead,notes,edits,glarev,ph_qual,TrackDist
S,2,12,2023,679,81134,41.3813142,-71.24163896,222,334,1,-,,5,,,4,4,C,1,,,,,,,,,,,,,,,,,,,,,,,,,,,,,88.4,1000,100,,,,,,,,,,ON WATCH BEGIN SURVEY - ,ON WATCH BEGIN SURVEY - ,,,0.12156403
X,2,12,2023,680,81134,41.38131333,-71.24164,222,334,1,-,,5,,,4,4,C,,,,,,,,,,,,,,,,,,,,,,,,,,,,,,88.4,1000,100,,,,,,,,,,,,,,0.12163411
X,2,12,2023,681,81139,41.379765,-71.24352667,223,328,1,-,,5,,,4,4,C,,,,,,,,,,,,,,,,,,,,,,,,,,,,,,90.7,1000,100,,,,,,,,,,,,,,0.125961296
X,2,12,2023,682,81144,41.37817667,-71.24537333,221,327,1,-,,5,,,4,4,C,,,,,,,,,,,,,,,,,,,,,,,,,,,,,,90.8,1000,100,,,,,,,,,,,,,,0.126553515
X,2,12,2023,683,81149,41.37657167,-71.24717167,220,332,1,-,,5,,,4,4,C,,,,,,,,,,,,,,,,,,,,,,,,,,,,,,90.4,1000,100,,,,,,,,,,,,,,0.125898373
X,2,12,2023,684,81154,41.37494333,-71.248935,219,335,1,-,,5,,,4,4,C,,,,,,,,,,,,,,,,,,,,,,,,,,,,,,90.7,1000,100,,,,,,,,,,,,,,0.125974822
X,2,12,2023,685,81159,41.373285,-71.25068167,218,337,1,-,,5,,,4,4,C,,,,,,,,,,,,,,,,,,,,,,,,,,,,,,91.3,1000,100,,,,,,,,,,,,,,0.126912023
X,2,12,2023,686,81204,41.37156333,-71.25238333,216,341,1,-,,5,,,4,4,C,,,,,,,,,,,,,,,,,,,,,,,,,,,,,,92.8,1000,100,,,,,,,,,,,,,,0.128699843
X,2,12,2023,687,81209,41.36978167,-71.25402667,215,348,1,-,,5,,,4,4,C,,,,,,,,,,,,,,,,,,,,,,,,,,,,,,93.4,1000,100,,,,,,,,,,,,,,0.130098314
X,2,12,2023,688,81214,41.36795333,-71.255665,214,345,1,-,,5,,,4,4,C,,,,,,,,,,,,,,,,,,,,,,,,,,,,,,96.1,1000,100,,,,,,,,,,,,,,0.132287038
X,2,12,2023,689,81219,41.36607833,-71.25733333,214,342,1,-,,5,,,4,4,C,,,,,,,,,,,,,,,,,,,,,,,,,,,,,,97.8,1000,100,,,,,,,,,,,,,,0.135368329
X,2,12,2023,690,81219,41.36607833,-71.25733333,214,342,1,-,,5,,,4,4,C,,,,,,,,,,,,,,,,,,,,,,,,,,,,,,97.8,1000,100,,,,,,,,,,,,,,0
X,2,12,2023,691,81224,41.3642,-71.259005,214,343,1,-,,5,,,4,4,C,,,,,,,,,,,,,,,,,,,,,,,,,,,,,,97.8,1000,100,,,,,,,,,,,,,,0.135619385
X,2,12,2023,692,81229,41.36231333,-71.26067667,214,341,1,-,,5,,,4,4,C,,,,,,,,,,,,,,,,,,,,,,,,,,,,,,98.1,1000,100,,,,,,,,,,,,,,0.136036938
X,2,12,2023,693,81234,41.36039,-71.26239667,214,331,1,-,,5,,,4,4,C,,,,,,,,,,,,,,,,,,,,,,,,,,,,,,100.8,1000,100,,,,,,,,,,,,,,0.139078683
X,2,12,2023,694,81239,41.358455,-71.264185,215,326,1,-,,5,,,4,4,C,,,,,,,,,,,,,,,,,,,,,,,,,,,,,,102,1000,100,,,,,,,,,,,,,,0.141394401
X,2,12,2023,695,81244,41.35653167,-71.265995,215,328,1,-,,5,,,4,4,C,,,,,,,,,,,,,,,,,,,,,,,,,,,,,,101.4,1000,100,,,,,,,,,,,,,,0.141381882
X,2,12,2023,696,81249,41.35464,-71.26779,216,333,1,-,,5,,,4,4,C,,,,,,,,,,,,,,,,,,,,,,,,,,,,,,99.1,1000,100,,,,,,,,,,,,,,0.139441378
X,2,12,2023,697,81254,41.35277,-71.26957667,216,330,1,-,,5,,,4,4,C,,,,,,,,,,,,,,,,,,,,,,,,,,,,,,99.6,1000,100,,,,,,,,,,,,,,0.138166002
X,2,12,2023,698,81259,41.35088833,-71.27136333,216,324,1,-,,5,,,4,4,C,,,,,,,,,,,,,,,,,,,,,,,,,,,,,,99.7,1000,100,,,,,,,,,,,,,,0.138737163
X,2,12,2023,699,81304,41.348995,-71.273145,215,321,1,-,,5,,,4,4,C,,,,,,,,,,,,,,,,,,,,,,,,,,,,,,100.5,1000,100,,,,,,,,,,,,,,0.139179365
X,2,12,2023,700,81309,41.34708,-71.27492,215,319,1,-,,5,,,4,4,C,,,,,,,,,,,,,,,,,,,,,,,,,,,,,,100.9,1000,100,,,,,,,,,,,,,,0.140073383
X,2,12,2023,701,81314,41.34516,-71.27669333,215,312,1,-,,5,,,4,4,C,,,,,,,,,,,,,,,,,,,,,,,,,,,,,,101.5,1000,100,,,,,,,,,,,,,,0.140278429
X,2,12,2023,702,81319,41.3432,-71.27845667,214,312,1,-,,5,,,4,4,C,,,,,,,,,,,,,,,,,,,,,,,,,,,,,,102,1000,100,,,,,,,,,,,,,,0.14200716
X,2,12,2023,703,81324,41.341195,-71.28007,209,318,1,-,,5,,,4,4,C,,,,,,,,,,,,,,,,,,,,,,,,,,,,,,101.3,1000,100,,,,,,,,,,,,,,0.140642942
S,2,12,2023,704,81328,41.33929908,-71.28108779,200,319,1,-,,5,,,4,4,C,2,,,MV-O,1,,,1,9,0,,,,,,,,,,,,,,,,,,,,102.8,1000,100,,,,,,,,,,,,,,0.122730402
X,2,12,2023,705,81329,41.339,-71.28124833,199,320,1,-,,5,,,4,4,C,,,,,,,,,,,,,,,,,,,,,,,,,,,,,,103,1000,100,,,,,,,,,,,,,,0.142090666
X,2,12,2023,706,81334,41.336635,-71.282015,192,307,1,-,,5,,,4,4,C,,,,,,,,,,,,,,,,,,,,,,,,,,,,,,106.3,1000,100,,,,,,,,,,,,,,0.146141244
S,2,12,2023,707,81339,41.33412167,-71.28258833,189,303,2,1,4,5,2,2,4,4,C,3,,,,,,,,,,,,,,,,,,,,,,,,,,,,,109.8,1000,100,,,,,,,,,,ON TRACK - ,,,,0.153099245
X,2,12,2023,708,81344,41.33159667,-71.28300833,186,312,2,2,4,5,2,2,4,4,C,,,,,,,,,,,,,,,,,,,,,,,,,,,,,,108.3,1000,100,,,,,,,,,,,,,,0.152780071
X,2,12,2023,709,81349,41.32913833,-71.28322333,183,322,2,2,4,5,2,2,4,4,C,,,,,,,,,,,,,,,,,,,,,,,,,,,,,,105.5,1000,100,,,,,,,,,,,,,,0.14791741
X,2,12,2023,710,81349,41.32913833,-71.28322333,183,322,2,2,4,5,2,2,4,4,C,,,,,,,,,,,,,,,,,,,,,,,,,,,,,,105.5,1000,100,,,,,,,,,,,,,,0
X,2,12,2023,711,81354,41.32671333,-71.283275,180,326,2,2,4,5,2,2,4,4,C,,,,,,,,,,,,,,,,,,,,,,,,,,,,,,104.8,1000,100,,,,,,,,,,,,,,0.145616743
X,2,12,2023,712,81355,41.32612802,-71.28327179,180,327,2,2,4,5,2,2,4,4,C,,,,,,,,,,,,,,,,,,,,,,,,,,,,,,104.7,1000,100,,,,,,,,,,,,,,0.035142871
X,2,12,2023,713,81357,41.32496385,-71.28326539,180,328,2,2,4,5,2,2,4,4,C,,,,,,,,,,,,,,,,,,,,,,,,,,,,,,104.5,1000,100,,,,,,,,,,,,,,0.105040391
X,2,12,2023,714,81359,41.324285,-71.28326167,180,328,2,2,4,5,2,2,4,4,C,,,,,,,,,,,,,,,,,,,,,,,,,,,,,,104.4,1000,100,,,,,,,,,,,,,,0.145799483
X,2,12,2023,715,81404,41.32187,-71.28327833,181,329,2,2,4,5,2,2,4,4,C,,,,,,,,,,,,,,,,,,,,,,,,,,,,,,104.2,1000,100,,,,,,,,,,,,,,0.144999652
X,2,12,2023,716,81409,41.31945,-71.28326,179,330,2,2,4,5,2,2,4,4,C,,,,,,,,,,,,,,,,,,,,,,,,,,,,,,104.6,1000,100,,,,,,,,,,,,,,0.145300258
X,2,12,2023,717,81414,41.317025,-71.283215,179,330,2,2,4,5,2,2,4,4,C,,,,,,,,,,,,,,,,,,,,,,,,,,,,,,105,1000,100,,,,,,,,,,,,,,0.145612249
X,2,12,2023,718,81419,41.314575,-71.28320333,180,326,2,2,4,5,2,2,4,4,C,,,,,,,,,,,,,,,,,,,,,,,,,,,,,,106.1,1000,100,,,,,,,,,,,,,,0.147100061
X,2,12,2023,719,81419,41.314575,-71.28320333,180,326,2,2,4,5,2,2,4,4,C,,,,,,,,,,,,,,,,,,,,,,,,,,,,,,106.1,1000,100,,,,,,,,,,,,,,0
X,2,12,2023,720,81424,41.31212167,-71.28321667,180,324,2,2,4,5,2,2,4,4,C,,,,,,,,,,,,,,,,,,,,,,,,,,,,,,105.6,1000,100,,,,,,,,,,,,,,0.147300482
X,2,12,2023,721,81429,41.30967167,-71.28321,180,322,2,2,4,5,2,2,4,4,C,,,,,,,,,,,,,,,,,,,,,,,,,,,,,,105.7,1000,100,,,,,,,,,,,,,,0.147099427
X,2,12,2023,722,81434,41.30723167,-71.283215,180,317,2,2,4,5,2,2,4,4,C,,,,,,,,,,,,,,,,,,,,,,,,,,,,,,105.4,1000,100,,,,,,,,,,,,,,0.146498889
X,2,12,2023,723,81439,41.30477,-71.283235,180,314,2,2,4,5,2,2,4,4,C,,,,,,,,,,,,,,,,,,,,,,,,,,,,,,105.6,1000,100,,,,,,,,,,,,,,0.147802345
X,2,12,2023,724,81444,41.30233667,-71.28323167,180,313,2,2,4,5,2,2,4,4,C,,,,,,,,,,,,,,,,,,,,,,,,,,,,,,104.7,1000,100,,,,,,,,,,,,,,0.146098523
S,2,12,2023,725,81447,41.30059979,-71.28319941,179,313,2,2,4,5,2,2,4,4,C,4,,,MV-B,1,,,1,9,0,,,,,,,,,,,,,,,,,,,,104.3,1000,100,,,,,,,,,,,,,,0.104293057
X,2,12,2023,726,81449,41.29991333,-71.28318667,179,313,2,2,4,5,2,2,4,4,C,,,,,,,,,,,,,,,,,,,,,,,,,,,,,,104.2,1000,100,,,,,,,,,,,,,,0.145512198
X,2,12,2023,727,81454,41.29754667,-71.28319167,181,312,2,2,4,5,2,2,4,4,C,,,,,,,,,,,,,,,,,,,,,,,,,,,,,,101.8,1000,100,,,,,,,,,,,,,,0.142095928
X,2,12,2023,728,81459,41.29522333,-71.28322667,180,312,2,2,4,5,2,2,4,4,C,,,,,,,,,,,,,,,,,,,,,,,,,,,,,,100.4,1000,100,,,,,,,,,,,,,,0.13950293
X,2,12,2023,729,81504,41.29290167,-71.28324167,180,308,2,2,4,5,2,2,4,4,C,,,,,,,,,,,,,,,,,,,,,,,,,,,,,,100.2,1000,100,,,,,,,,,,,,,,0.13939557
X,2,12,2023,730,81509,41.29059,-71.28325,180,306,2,2,4,5,2,2,4,4,C,,,,,,,,,,,,,,,,,,,,,,,,,,,,,,99.4,1000,100,,,,,,,,,,,,,,0.138794033
X,2,12,2023,731,81514,41.28832833,-71.28325667,180,307,2,2,4,5,2,2,4,4,C,,,,,,,,,,,,,,,,,,,,,,,,,,,,,,97.6,1000,100,,,,,,,,,,,,,,0.135791834
X,2,12,2023,732,81519,41.28608,-71.283265,180,305,2,2,4,5,2,2,4,4,C,,,,,,,,,,,,,,,,,,,,,,,,,,,,,,97,1000,100,,,,,,,,,,,,,,0.134991485
X,2,12,2023,733,81519,41.28608,-71.283265,180,305,2,2,4,5,2,2,4,4,C,,,,,,,,,,,,,,,,,,,,,,,,,,,,,,97,1000,100,,,,,,,,,,,,,,0
X,2,12,2023,734,81524,41.28384167,-71.28326333,180,303,2,2,4,5,2,2,4,4,C,,,,,,,,,,,,,,,,,,,,,,,,,,,,,,96.2,1000,100,,,,,,,,,,,,,,0.134390578
X,2,12,2023,735,81529,41.28161,-71.28331167,181,301,2,2,4,5,2,2,4,4,C,,,,,,,,,,,,,,,,,,,,,,,,,,,,,,96.2,1000,100,,,,,,,,,,,,,,0.134008031
X,2,12,2023,736,81534,41.27941833,-71.28335667,181,301,2,2,4,5,2,2,4,4,C,,,,,,,,,,,,,,,,,,,,,,,,,,,,,,93.8,1000,100,,,,,,,,,,,,,,0.131604332
X,2,12,2023,737,81539,41.27723167,-71.283355,180,301,2,2,4,5,2,2,4,4,C,,,,,,,,,,,,,,,,,,,,,,,,,,,,,,94.4,1000,100,,,,,,,,,,,,,,0.131288488
X,2,12,2023,738,81544,41.27505333,-71.28337833,181,294,2,2,4,5,2,2,4,4,C,,,,,,,,,,,,,,,,,,,,,,,,,,,,,,94.2,1000,100,,,,,,,,,,,,,,0.130792367
X,2,12,2023,739,81549,41.27285,-71.283395,180,294,2,2,4,5,2,2,4,4,C,,,,,,,,,,,,,,,,,,,,,,,,,,,,,,93.9,1000,100,,,,,,,,,,,,,,0.132291278
X,2,12,2023,740,81554,41.27068333,-71.28335,179,298,2,2,4,5,2,2,4,4,C,,,,,,,,,,,,,,,,,,,,,,,,,,,,,,92.8,1000,100,,,,,,,,,,,,,,0.130103505
X,2,12,2023,741,81559,41.268545,-71.28333167,180,301,2,2,4,5,2,2,4,4,C,,,,,,,,,,,,,,,,,,,,,,,,,,,,,,91.5,1000,100,,,,,,,,,,,,,,0.128389177
X,2,12,2023,742,81604,41.26643333,-71.28333833,180,304,2,2,4,5,2,2,4,4,C,,,,,,,,,,,,,,,,,,,,,,,,,,,,,,91.2,1000,100,,,,,,,,,,,,,,0.126785789
X,2,12,2023,743,81609,41.26431833,-71.28333667,180,304,2,2,4,5,2,2,4,4,C,,,,,,,,,,,,,,,,,,,,,,,,,,,,,,91.2,1000,100,,,,,,,,,,,,,,0.126985589
P,2,12,2023,744,81611,41.26338011,-71.28334178,180,302,2,2,4,5,2,2,4,4,C,5,,,FV-T,1,,,1,9,0,,,,,,,,,,,,,,,,,,,,91.6,1000,100,,,,,,,,,,,,,,0.056332014
X,2,12,2023,745,81614,41.26217833,-71.28334833,180,300,2,2,4,5,2,2,4,4,C,,,,,,,,,,,,,,,,,,,,,,,,,,,,,,92.1,1000,100,,,,,,,,,,,,,,0.128487657
X,2,12,2023,746,81619,41.26000833,-71.28335167,180,296,2,2,4,5,2,2,4,4,C,,,,,,,,,,,,,,,,,,,,,,,,,,,,,,93.2,1000,100,,,,,,,,,,,,,,0.130287879
X,2,12,2023,747,81619,41.26000833,-71.28335167,180,296,2,2,4,5,2,2,4,4,C,,,,,,,,,,,,,,,,,,,,,,,,,,,,,,93.2,1000,100,,,,,,,,,,,,,,0
X,2,12,2023,748,81624,41.25782833,-71.28334667,180,298,2,2,4,5,2,2,4,4,C,,,,,,,,,,,,,,,,,,,,,,,,,,,,,,93.4,1000,100,,,,,,,,,,,,,,0.130888391
X,2,12,2023,749,81629,41.25565833,-71.28334,180,302,2,2,4,5,2,2,4,4,C,,,,,,,,,,,,,,,,,,,,,,,,,,,,,,93.8,1000,100,,,,,,,,,,,,,,0.13028814
X,2,12,2023,750,81634,41.25349,-71.28332667,180,303,2,2,4,5,2,2,4,4,C,,,,,,,,,,,,,,,,,,,,,,,,,,,,,,93.7,1000,100,,,,,,,,,,,,,,0.130189116
X,2,12,2023,751,81639,41.25131167,-71.28334333,181,302,2,2,4,5,2,2,4,4,C,,,,,,,,,,,,,,,,,,,,,,,,,,,,,,93.9,1000,100,,,,,,,,,,,,,,0.130790293
X,2,12,2023,752,81644,41.24912667,-71.28335333,180,305,2,2,4,5,2,2,4,4,C,,,,,,,,,,,,,,,,,,,,,,,,,,,,,,94,1000,100,,,,,,,,,,,,,,0.131189176
X,2,12,2023,753,81649,41.24696667,-71.28335833,180,310,2,2,4,5,2,2,4,4,C,,,,,,,,,,,,,,,,,,,,,,,,,,,,,,92.7,1000,100,,,,,,,,,,,,,,0.129687584
X,2,12,2023,754,81654,41.24481667,-71.28339,181,309,2,2,4,5,2,2,4,4,C,,,,,,,,,,,,,,,,,,,,,,,,,,,,,,93.3,1000,100,,,,,,,,,,,,,,0.129094898
X,2,12,2023,755,81659,41.24265833,-71.283435,181,309,2,2,4,5,2,2,4,4,C,,,,,,,,,,,,,,,,,,,,,,,,,,,,,,93.2,1000,100,,,,,,,,,,,,,,0.129603243
X,2,12,2023,756,81704,41.24050333,-71.28347167,181,309,2,2,4,5,2,2,4,4,C,,,,,,,,,,,,,,,,,,,,,,,,,,,,,,92.9,1000,100,,,,,,,,,,,,,,0.129397774
X,2,12,2023,757,81709,41.23834167,-71.28346167,179,312,2,2,4,5,2,2,4,4,C,,,,,,,,,,,,,,,,,,,,,,,,,,,,,,93.9,1000,100,,,,,,,,,,,,,,0.12978824
X,2,12,2023,758,81714,41.236185,-71.28347333,180,311,2,2,4,5,2,2,4,4,C,,,,,,,,,,,,,,,,,,,,,,,,,,,,,,93.2,1000,100,,,,,,,,,,,,,,0.129488324
X,2,12,2023,759,81719,41.23402667,-71.28349167,180,313,2,2,4,5,2,2,4,4,C,,,,,,,,,,,,,,,,,,,,,,,,,,,,,,93.1,1000,100,,,,,,,,,,,,,,0.129589964
X,2,12,2023,760,81724,41.23186833,-71.283505,180,314,2,2,4,5,2,2,4,4,C,,,,,,,,,,,,,,,,,,,,,,,,,,,,,,93.2,1000,100,,,,,,,,,,,,,,0.129588719
X,2,12,2023,761,81729,41.22969167,-71.28351,180,316,2,2,4,5,2,2,4,4,C,,,,,,,,,,,,,,,,,,,,,,,,,,,,,,94,1000,100,,,,,,,,,,,,,,0.130688257
X,2,12,2023,762,81734,41.22750333,-71.28352333,180,318,2,2,4,5,2,2,4,4,C,,,,,,,,,,,,,,,,,,,,,,,,,,,,,,94.4,1000,100,,,,,,,,,,,,,,0.131389913
X,2,12,2023,763,81739,41.225315,-71.28349667,179,317,2,2,4,5,2,2,4,4,C,,,,,,,,,,,,,,,,,,,,,,,,,,,,,,94.7,1000,100,,,,,,,,,,,,,,0.131394052
P,2,12,2023,764,81742,41.22369139,-71.28349911,180,315,2,2,4,5,2,2,4,4,C,6,,,MV-B,1,,,1,9,0,,,,,,,,,,,,,,,,,,,,95.5,1000,100,,,,,,,,,,,,,,0.097482413
X,2,12,2023,765,81744,41.2231,-71.2835,180,315,2,2,4,5,2,2,4,4,C,,,,,,,,,,,,,,,,,,,,,,,,,,,,,,95.8,1000,100,,,,,,,,,,,,,,0.132989698
X,2,12,2023,766,81749,41.22086167,-71.28349833,180,314,2,2,4,5,2,2,4,4,C,,,,,,,,,,,,,,,,,,,,,,,,,,,,,,97,1000,100,,,,,,,,,,,,,,0.134390578
X,2,12,2023,767,81749,41.22086167,-71.28349833,180,314,2,2,4,5,2,2,4,4,C,,,,,,,,,,,,,,,,,,,,,,,,,,,,,,97,1000,100,,,,,,,,,,,,,,0
X,2,12,2023,768,81754,41.21860333,-71.28349833,180,312,2,2,4,5,2,2,4,4,C,,,,,,,,,,,,,,,,,,,,,,,,,,,,,,97.5,1000,100,,,,,,,,,,,,,,0.135591366
X,2,12,2023,769,81759,41.21633667,-71.28351833,180,310,2,2,4,5,2,2,4,4,C,,,,,,,,,,,,,,,,,,,,,,,,,,,,,,97.7,1000,100,,,,,,,,,,,,,,0.1360947
X,2,12,2023,770,81804,41.21406167,-71.28352167,180,311,2,2,4,5,2,2,4,4,C,,,,,,,,,,,,,,,,,,,,,,,,,,,,,,98.2,1000,100,,,,,,,,,,,,,,0.136592123
X,2,12,2023,771,81809,41.21179,-71.28350333,180,307,2,2,4,5,2,2,4,4,C,,,,,,,,,,,,,,,,,,,,,,,,,,,,,,98.7,1000,100,,,,,,,,,,,,,,0.136394419
X,2,12,2023,772,81814,41.20950333,-71.28348667,180,304,2,2,4,5,2,2,4,4,C,,,,,,,,,,,,,,,,,,,,,,,,,,,,,,98.5,1000,100,,,,,,,,,,,,,,0.137294576
X,2,12,2023,773,81819,41.20721,-71.28349333,180,304,2,2,4,5,2,2,4,4,C,,,,,,,,,,,,,,,,,,,,,,,,,,,,,,98.9,1000,100,,,,,,,,,,,,,,0.137693111
X,2,12,2023,774,81819,41.20721,-71.28349333,180,304,2,2,4,5,2,2,4,4,C,,,,,,,,,,,,,,,,,,,,,,,,,,,,,,98.9,1000,100,,,,,,,,,,,,,,0
X,2,12,2023,775,81824,41.20492167,-71.28345333,179,302,2,2,4,5,2,2,4,4,C,,,,,,,,,,,,,,,,,,,,,,,,,,,,,,98.8,1000,100,,,,,,,,,,,,,,0.13740446
X,2,12,2023,776,81829,41.20261333,-71.28342667,179,302,2,2,4,5,2,2,4,4,C,,,,,,,,,,,,,,,,,,,,,,,,,,,,,,99.8,1000,100,,,,,,,,,,,,,,0.138598624
X,2,12,2023,777,81834,41.20029,-71.28339833,180,302,2,2,4,5,2,2,4,4,C,,,,,,,,,,,,,,,,,,,,,,,,,,,,,,100.2,1000,100,,,,,,,,,,,,,,0.139499867
X,2,12,2023,778,81839,41.19796833,-71.28337667,179,308,2,2,4,5,2,2,4,4,C,,,,,,,,,,,,,,,,,,,,,,,,,,,,,,99.7,1000,100,,,,,,,,,,,,,,0.139397365
X,2,12,2023,779,81844,41.19567667,-71.283355,179,312,2,2,4,5,2,2,4,4,C,,,,,,,,,,,,,,,,,,,,,,,,,,,,,,98.6,1000,100,,,,,,,,,,,,,,0.137596196
X,2,12,2023,780,81849,41.19339667,-71.28332333,179,311,2,2,4,5,2,2,4,4,C,,,,,,,,,,,,,,,,,,,,,,,,,,,,,,98.9,1000,100,,,,,,,,,,,,,,0.136899718
X,2,12,2023,781,81854,41.19109333,-71.28332667,180,312,2,2,4,5,2,2,4,4,C,,,,,,,,,,,,,,,,,,,,,,,,,,,,,,100.2,1000,100,,,,,,,,,,,,,,0.138293268
X,2,12,2023,782,81859,41.18880167,-71.28336,181,313,2,2,4,5,2,2,4,4,C,,,,,,,,,,,,,,,,,,,,,,,,,,,,,,98.9,1000,100,,,,,,,,,,,,,,0.137600957
X,2,12,2023,783,81904,41.18650833,-71.28338333,180,317,2,2,4,5,2,2,4,4,C,,,,,,,,,,,,,,,,,,,,,,,,,,,,,,98.7,1000,100,,,,,,,,,,,,,,0.137696818
X,2,12,2023,784,81909,41.184245,-71.28341667,181,320,2,2,4,5,2,2,4,4,C,,,,,,,,,,,,,,,,,,,,,,,,,,,,,,97.1,1000,100,,,,,,,,,,,,,,0.135899915
X,2,12,2023,785,81914,41.181985,-71.28341667,180,322,2,2,4,5,2,2,4,4,C,,,,,,,,,,,,,,,,,,,,,,,,,,,,,,97.4,1000,100,,,,,,,,,,,,,,0.135691433
X,2,12,2023,786,81919,41.179715,-71.28339,180,322,2,2,4,5,2,2,4,4,C,,,,,,,,,,,,,,,,,,,,,,,,,,,,,,98,1000,100,,,,,,,,,,,,,,0.136297165
X,2,12,2023,787,81924,41.17745,-71.28335333,179,325,2,2,4,5,2,2,4,4,C,,,,,,,,,,,,,,,,,,,,,,,,,,,,,,97.9,1000,100,,,,,,,,,,,,,,0.13600173
X,2,12,2023,788,81929,41.175185,-71.28332167,180,324,2,2,4,5,2,2,4,4,C,,,,,,,,,,,,,,,,,,,,,,,,,,,,,,97.4,1000,100,,,,,,,,,,,,,,0.135999165
X,2,12,2023,789,81934,41.17291,-71.28330833,180,324,2,2,4,5,2,2,4,4,C,,,,,,,,,,,,,,,,,,,,,,,,,,,,,,98,1000,100,,,,,,,,,,,,,,0.136593369
X,2,12,2023,790,81939,41.17063833,-71.283285,180,325,2,2,4,5,2,2,4,4,C,,,,,,,,,,,,,,,,,,,,,,,,,,,,,,98,1000,100,,,,,,,,,,,,,,0.136395982
X,2,12,2023,791,81944,41.16835333,-71.28329167,181,323,2,2,4,5,2,2,4,4,C,,,,,,,,,,,,,,,,,,,,,,,,,,,,,,99,1000,100,,,,,,,,,,,,,,0.137192776
X,2,12,2023,792,81949,41.16604667,-71.28332833,180,321,2,2,4,5,2,2,4,4,C,,,,,,,,,,,,,,,,,,,,,,,,,,,,,,99.7,1000,100,,,,,,,,,,,,,,0.138503237
X,2,12,2023,793,81949,41.16604667,-71.28332833,180,321,2,2,4,5,2,2,4,4,C,,,,,,,,,,,,,,,,,,,,,,,,,,,,,,99.7,1000,100,,,,,,,,,,,,,,0
X,2,12,2023,794,81954,41.16372167,-71.28333,180,317,2,2,4,5,2,2,4,4,C,,,,,,,,,,,,,,,,,,,,,,,,,,,,,,100.9,1000,100,,,,,,,,,,,,,,0.139594083
X,2,12,2023,795,81959,41.16136833,-71.283355,181,314,2,2,4,5,2,2,4,4,C,,,,,,,,,,,,,,,,,,,,,,,,,,,,,,101.8,1000,100,,,,,,,,,,,,,,0.141299728
X,2,12,2023,796,82004,41.15902167,-71.28342167,181,317,2,2,4,5,2,2,4,4,C,,,,,,,,,,,,,,,,,,,,,,,,,,,,,,101.2,1000,100,,,,,,,,,,,,,,0.140927163
X,2,12,2023,797,82009,41.15669167,-71.28341833,180,320,2,2,4,5,2,2,4,4,C,,,,,,,,,,,,,,,,,,,,,,,,,,,,,,100.2,1000,100,,,,,,,,,,,,,,0.139894346
X,2,12,2023,798,82014,41.15437667,-71.283415,180,321,2,2,4,5,2,2,4,4,C,,,,,,,,,,,,,,,,,,,,,,,,,,,,,,99,1000,100,,,,,,,,,,,,,,0.13899374
X,2,12,2023,799,82019,41.15207167,-71.28339667,180,328,2,2,4,5,2,2,4,4,C,,,,,,,,,,,,,,,,,,,,,,,,,,,,,,99,1000,100,,,,,,,,,,,,,,0.138395736
X,2,12,2023,800,82024,41.14979833,-71.28338667,180,332,2,2,4,5,2,2,4,4,C,,,,,,,,,,,,,,,,,,,,,,,,,,,,,,97.8,1000,100,,,,,,,,,,,,,,0.136492721
X,2,12,2023,801,82029,41.147535,-71.28336833,180,333,2,2,4,5,2,2,4,4,C,,,,,,,,,,,,,,,,,,,,,,,,,,,,,,98,1000,100,,,,,,,,,,,,,,0.135894096
X,2,12,2023,802,82034,41.14526833,-71.283345,180,329,2,2,4,5,2,2,4,4,C,,,,,,,,,,,,,,,,,,,,,,,,,,,,,,97.4,1000,100,,,,,,,,,,,,,,0.136095792
X,2,12,2023,803,82039,41.14297833,-71.28333667,180,327,2,2,4,5,2,2,4,4,C,,,,,,,,,,,,,,,,,,,,,,,,,,,,,,99.1,1000,100,,,,,,,,,,,,,,0.137493163
X,2,12,2023,804,82044,41.140695,-71.28333167,180,327,2,2,4,5,2,2,4,4,C,,,,,,,,,,,,,,,,,,,,,,,,,,,,,,98.8,1000,100,,,,,,,,,,,,,,0.137092564
X,2,12,2023,805,82049,41.13841333,-71.28333,180,327,2,2,4,5,2,2,4,4,C,,,,,,,,,,,,,,,,,,,,,,,,,,,,,,98.6,1000,100,,,,,,,,,,,,,,0.136992331
X,2,12,2023,806,82054,41.13611333,-71.28332167,180,327,2,2,4,5,2,2,4,4,C,,,,,,,,,,,,,,,,,,,,,,,,,,,,,,99.2,1000,100,,,,,,,,,,,,,,0.138093566
X,2,12,2023,807,82059,41.13379667,-71.28332667,180,323,2,2,4,5,2,2,4,4,C,,,,,,,,,,,,,,,,,,,,,,,,,,,,,,100.4,1000,100,,,,,,,,,,,,,,0.13909391
X,2,12,2023,808,82104,41.13146333,-71.28334333,180,321,2,2,4,5,2,2,4,4,C,,,,,,,,,,,,,,,,,,,,,,,,,,,,,,100.8,1000,100,,,,,,,,,,,,,,0.140096427
X,2,12,2023,809,82109,41.12912667,-71.28336,180,323,2,2,4,5,2,2,4,4,C,,,,,,,,,,,,,,,,,,,,,,,,,,,,,,100.5,1000,100,,,,,,,,,,,,,,0.14029656
X,2,12,2023,810,82114,41.12680667,-71.28338167,180,322,2,2,4,5,2,2,4,4,C,,,,,,,,,,,,,,,,,,,,,,,,,,,,,,99.8,1000,100,,,,,,,,,,,,,,0.139297307
X,2,12,2023,811,82119,41.12446833,-71.28337833,180,319,2,2,4,5,2,2,4,4,C,,,,,,,,,,,,,,,,,,,,,,,,,,,,,,101.5,1000,100,,,,,,,,,,,,,,0.140394683
X,2,12,2023,812,82119,41.12446833,-71.28337833,180,319,2,2,4,5,2,2,4,4,C,,,,,,,,,,,,,,,,,,,,,,,,,,,,,,101.5,1000,100,,,,,,,,,,,,,,0
X,2,12,2023,813,82124,41.12210667,-71.28336667,180,319,2,2,4,5,2,2,4,4,C,,,,,,,,,,,,,,,,,,,,,,,,,,,,,,101.9,1000,100,,,,,,,,,,,,,,0.141796528
X,2,12,2023,814,82129,41.11976167,-71.28337167,180,320,2,2,4,5,2,2,4,4,C,,,,,,,,,,,,,,,,,,,,,,,,,,,,,,101.5,1000,100,,,,,,,,,,,,,,0.140795054
X,2,12,2023,815,82134,41.11743833,-71.28337167,180,322,2,2,4,5,2,2,4,4,C,,,,,,,,,,,,,,,,,,,,,,,,,,,,,,100.1,1000,100,,,,,,,,,,,,,,0.139493995
X,2,12,2023,816,82139,41.11512833,-71.28340333,181,319,2,2,4,5,2,2,4,4,C,,,,,,,,,,,,,,,,,,,,,,,,,,,,,,99.5,1000,100,,,,,,,,,,,,,,0.138700852
X,2,12,2023,817,82144,41.11280833,-71.28342,180,317,2,2,4,5,2,2,4,4,C,,,,,,,,,,,,,,,,,,,,,,,,,,,,,,100.2,1000,100,,,,,,,,,,,,,,0.139295901
X,2,12,2023,818,82149,41.110495,-71.283455,181,317,2,2,4,5,2,2,4,4,C,,,,,,,,,,,,,,,,,,,,,,,,,,,,,,99.4,1000,100,,,,,,,,,,,,,,0.138902615
X,2,12,2023,819,82154,41.108205,-71.2835,181,319,2,2,4,5,2,2,4,4,C,,,,,,,,,,,,,,,,,,,,,,,,,,,,,,98.3,1000,100,,,,,,,,,,,,,,0.137507716
X,2,12,2023,820,82159,41.10593333,-71.28352667,181,314,2,2,4,5,2,2,4,4,C,,,,,,,,,,,,,,,,,,,,,,,,,,,,,,98,1000,100,,,,,,,,,,,,,,0.13639724
X,2,12,2023,821,82204,41.10363,-71.28357167,181,309,2,2,4,5,2,2,4,4,C,,,,,,,,,,,,,,,,,,,,,,,,,,,,,,99.5,1000,100,,,,,,,,,,,,,,0.138308171
X,2,12,2023,822,82209,41.10132167,-71.28357167,180,308,2,2,4,5,2,2,4,4,C,,,,,,,,,,,,,,,,,,,,,,,,,,,,,,99.8,1000,100,,,,,,,,,,,,,,0.138593389
X,2,12,2023,823,82214,41.09902,-71.28355667,180,307,2,2,4,5,2,2,4,4,C,,,,,,,,,,,,,,,,,,,,,,,,,,,,,,99.3,1000,100,,,,,,,,,,,,,,0.138194785
X,2,12,2023,824,82219,41.09671667,-71.28353167,180,305,2,2,4,5,2,2,4,4,C,,,,,,,,,,,,,,,,,,,,,,,,,,,,,,99.3,1000,100,,,,,,,,,,,,,,0.138297812
X,2,12,2023,825,82219,41.09671667,-71.28353167,180,305,2,2,4,5,2,2,4,4,C,,,,,,,,,,,,,,,,,,,,,,,,,,,,,,99.3,1000,100,,,,,,,,,,,,,,0
X,2,12,2023,826,82224,41.09439667,-71.28352167,180,306,2,2,4,5,2,2,4,4,C,,,,,,,,,,,,,,,,,,,,,,,,,,,,,,99.9,1000,100,,,,,,,,,,,,,,0.139294596
X,2,12,2023,827,82229,41.09210833,-71.28349833,180,308,2,2,4,5,2,2,4,4,C,,,,,,,,,,,,,,,,,,,,,,,,,,,,,,98.7,1000,100,,,,,,,,,,,,,,0.137396636
S,2,12,2023,828,82233,41.09009143,-71.28348506,180,306,2,2,4,5,2,2,4,4,C,7,,,SPFV,1,,,1,9,0,,,,,,,,,,,,,,,,,,,,98.6,1000,100,,,,,,,,,,,,,,0.121097408
X,2,12,2023,829,82234,41.08982833,-71.28348333,180,305,2,2,4,5,2,2,4,4,C,,,,,,,,,,,,,,,,,,,,,,,,,,,,,,98.6,1000,100,,,,,,,,,,,,,,0.136893925
X,2,12,2023,830,82239,41.08752667,-71.283475,180,302,2,2,4,5,2,2,4,4,C,,,,,,,,,,,,,,,,,,,,,,,,,,,,,,99.5,1000,100,,,,,,,,,,,,,,0.138193633
X,2,12,2023,831,82244,41.08523333,-71.28346,180,306,2,2,4,5,2,2,4,4,C,,,,,,,,,,,,,,,,,,,,,,,,,,,,,,98.5,1000,100,,,,,,,,,,,,,,0.137694455
X,2,12,2023,832,82249,41.08298167,-71.283465,180,308,2,2,4,5,2,2,4,4,C,,,,,,,,,,,,,,,,,,,,,,,,,,,,,,97.1,1000,100,,,,,,,,,,,,,,0.135191285
X,2,12,2023,833,82254,41.08072667,-71.28348167,180,305,2,2,4,5,2,2,4,4,C,,,,,,,,,,,,,,,,,,,,,,,,,,,,,,98,1000,100,,,,,,,,,,,,,,0.135393332
X,2,12,2023,834,82259,41.078435,-71.283465,180,299,2,2,4,5,2,2,4,4,C,,,,,,,,,,,,,,,,,,,,,,,,,,,,,,99.2,1000,100,,,,,,,,,,,,,,0.137594782
X,2,12,2023,835,82304,41.07613,-71.28343833,179,299,2,2,4,5,2,2,4,4,C,,,,,,,,,,,,,,,,,,,,,,,,,,,,,,99.3,1000,100,,,,,,,,,,,,,,0.138398517
X,2,12,2023,836,82309,41.07384833,-71.28341833,180,302,2,2,4,5,2,2,4,4,C,,,,,,,,,,,,,,,,,,,,,,,,,,,,,,98.3,1000,100,,,,,,,,,,,,,,0.136995301
X,2,12,2023,837,82314,41.071575,-71.28340833,180,299,2,2,4,5,2,2,4,4,C,,,,,,,,,,,,,,,,,,,,,,,,,,,,,,98.1,1000,100,,,,,,,,,,,,,,0.136492723
X,2,12,2023,838,82319,41.06927833,-71.28341333,180,295,2,2,4,5,2,2,4,4,C,,,,,,,,,,,,,,,,,,,,,,,,,,,,,,98.8,1000,100,,,,,,,,,,,,,,0.137893102
X,2,12,2023,839,82319,41.06927833,-71.28341333,180,295,2,2,4,5,2,2,4,4,C,,,,,,,,,,,,,,,,,,,,,,,,,,,,,,98.8,1000,100,,,,,,,,,,,,,,0
X,2,12,2023,840,82324,41.06698,-71.28344333,181,298,2,2,4,5,2,2,4,4,C,,,,,,,,,,,,,,,,,,,,,,,,,,,,,,98.6,1000,100,,,,,,,,,,,,,,0.137999666
X,2,12,2023,841,82329,41.06471833,-71.28346333,180,301,2,2,4,5,2,2,4,4,C,,,,,,,,,,,,,,,,,,,,,,,,,,,,,,97.2,1000,100,,,,,,,,,,,,,,0.135794519
X,2,12,2023,842,82334,41.062465,-71.283425,179,301,2,2,4,5,2,2,4,4,C,,,,,,,,,,,,,,,,,,,,,,,,,,,,,,97.2,1000,100,,,,,,,,,,,,,,0.135302292
X,2,12,2023,843,82339,41.06022667,-71.28339333,179,301,2,2,4,5,2,2,4,4,C,,,,,,,,,,,,,,,,,,,,,,,,,,,,,,96.4,1000,100,,,,,,,,,,,,,,0.134398203
X,2,12,2023,844,82344,41.05802167,-71.28338167,180,303,2,2,4,5,2,2,4,4,C,,,,,,,,,,,,,,,,,,,,,,,,,,,,,,95.1,1000,100,,,,,,,,,,,,,,0.132390262
X,2,12,2023,845,82349,41.05583167,-71.28336667,180,306,2,2,4,5,2,2,4,4,C,,,,,,,,,,,,,,,,,,,,,,,,,,,,,,94.1,1000,100,,,,,,,,,,,,,,0.131490355
X,2,12,2023,846,82354,41.05365833,-71.28335333,180,308,2,2,4,5,2,2,4,4,C,,,,,,,,,,,,,,,,,,,,,,,,,,,,,,93.8,1000,100,,,,,,,,,,,,,,0.130489323
X,2,12,2023,847,82359,41.05149167,-71.28337,181,309,2,2,4,5,2,2,4,4,C,,,,,,,,,,,,,,,,,,,,,,,,,,,,,,93.5,1000,100,,,,,,,,,,,,,,0.130089846
X,2,12,2023,848,82404,41.04932,-71.28341833,181,308,2,2,4,5,2,2,4,4,C,,,,,,,,,,,,,,,,,,,,,,,,,,,,,,93.8,1000,100,,,,,,,,,,,,,,0.130406224
X,2,12,2023,849,82409,41.047135,-71.28348167,181,307,2,2,4,5,2,2,4,4,C,,,,,,,,,,,,,,,,,,,,,,,,,,,,,,94.6,1000,100,,,,,,,,,,,,,,0.131219739
X,2,12,2023,850,82414,41.04492,-71.28349,180,306,2,2,4,5,2,2,4,4,C,,,,,,,,,,,,,,,,,,,,,,,,,,,,,,95.8,1000,100,,,,,,,,,,,,,,0.132990148
X,2,12,2023,851,82419,41.04268833,-71.283455,179,306,2,2,4,5,2,2,4,4,C,,,,,,,,,,,,,,,,,,,,,,,,,,,,,,95.7,1000,100,,,,,,,,,,,,,,0.13399966
X,2,12,2023,852,82419,41.04268833,-71.283455,179,306,2,2,4,5,2,2,4,4,C,,,,,,,,,,,,,,,,,,,,,,,,,,,,,,95.7,1000,100,,,,,,,,,,,,,,0
X,2,12,2023,853,82424,41.040465,-71.28344167,180,306,2,2,4,5,2,2,4,4,C,,,,,,,,,,,,,,,,,,,,,,,,,,,,,,95.7,1000,100,,,,,,,,,,,,,,0.133491315
X,2,12,2023,854,82429,41.038255,-71.28345167,180,307,2,2,4,5,2,2,4,4,C,,,,,,,,,,,,,,,,,,,,,,,,,,,,,,95.4,1000,100,,,,,,,,,,,,,,0.132690183
X,2,12,2023,855,82434,41.03607,-71.28344333,180,310,2,2,4,5,2,2,4,4,C,,,,,,,,,,,,,,,,,,,,,,,,,,,,,,93.9,1000,100,,,,,,,,,,,,,,0.131188942
X,2,12,2023,856,82439,41.03389,-71.28343,180,308,2,2,4,5,2,2,4,4,C,,,,,,,,,,,,,,,,,,,,,,,,,,,,,,94.2,1000,100,,,,,,,,,,,,,,0.13088959
X,2,12,2023,857,82444,41.03169333,-71.28339667,179,305,2,2,4,5,2,2,4,4,C,,,,,,,,,,,,,,,,,,,,,,,,,,,,,,94.4,1000,100,,,,,,,,,,,,,,0.131897511
X,2,12,2023,858,82449,41.02946833,-71.283325,178,305,2,2,4,5,2,2,4,4,C,,,,,,,,,,,,,,,,,,,,,,,,,,,,,,96.3,1000,100,,,,,,,,,,,,,,0.133629446
X,2,12,2023,859,82454,41.027225,-71.28324333,179,306,2,2,4,5,2,2,4,4,C,,,,,,,,,,,,,,,,,,,,,,,,,,,,,,96.9,1000,100,,,,,,,,,,,,,,0.134741541
X,2,12,2023,860,82459,41.02498,-71.28323167,181,308,2,2,4,5,2,2,4,4,C,,,,,,,,,,,,,,,,,,,,,,,,,,,,,,96.8,1000,100,,,,,,,,,,,,,,0.134791862
X,2,12,2023,861,82504,41.02277333,-71.28330833,182,313,2,2,4,5,2,2,4,4,C,,,,,,,,,,,,,,,,,,,,,,,,,,,,,,94.9,1000,100,,,,,,,,,,,,,,0.132534781
X,2,12,2023,862,82509,41.02059,-71.28334167,180,315,2,2,4,5,2,2,4,4,C,,,,,,,,,,,,,,,,,,,,,,,,,,,,,,94.4,1000,100,,,,,,,,,,,,,,0.131097027
X,2,12,2023,863,82514,41.01839333,-71.28335,180,313,2,2,4,5,2,2,4,4,C,,,,,,,,,,,,,,,,,,,,,,,,,,,,,,95,1000,100,,,,,,,,,,,,,,0.131889411
X,2,12,2023,864,82519,41.01618833,-71.28339667,182,312,2,2,4,5,2,2,4,4,C,,,,,,,,,,,,,,,,,,,,,,,,,,,,,,95.3,1000,100,,,,,,,,,,,,,,0.132406086
X,2,12,2023,865,82524,41.01397667,-71.28344,180,313,2,2,4,5,2,2,4,4,C,,,,,,,,,,,,,,,,,,,,,,,,,,,,,,95.4,1000,100,,,,,,,,,,,,,,0.132803988
X,2,12,2023,866,82529,41.01175667,-71.28343667,180,308,2,2,4,5,2,2,4,4,C,,,,,,,,,,,,,,,,,,,,,,,,,,,,,,95.6,1000,100,,,,,,,,,,,,,,0.1332899
X,2,12,2023,867,82534,41.0095,-71.283405,179,304,2,2,4,5,2,2,4,4,C,,,,,,,,,,,,,,,,,,,,,,,,,,,,,,97.8,1000,100,,,,,,,,,,,,,,0.135498894
X,2,12,2023,868,82539,41.00723667,-71.28337167,179,306,2,2,4,5,2,2,4,4,C,,,,,,,,,,,,,,,,,,,,,,,,,,,,,,97.7,1000,100,,,,,,,,,,,,,,0.13589996
X,2,12,2023,869,82544,41.00498,-71.28335667,180,305,2,2,4,5,2,2,4,4,C,,,,,,,,,,,,,,,,,,,,,,,,,,,,,,97.1,1000,100,,,,,,,,,,,,,,0.135493003
X,2,12,2023,870,82549,41.00273167,-71.28335167,180,307,2,2,4,5,2,2,4,4,C,,,,,,,,,,,,,,,,,,,,,,,,,,,,,,96.9,1000,100,,,,,,,,,,,,,,0.134991151
X,2,12,2023,871,82549,41.00273167,-71.28335167,180,307,2,2,4,5,2,2,4,4,C,,,,,,,,,,,,,,,,,,,,,,,,,,,,,,96.9,1000,100,,,,,,,,,,,,,,0
X,2,12,2023,872,82554,41.00049167,-71.283355,180,305,2,2,4,5,2,2,4,4,C,,,,,,,,,,,,,,,,,,,,,,,,,,,,,,96.7,1000,100,,,,,,,,,,,,,,0.134490709
X,2,12,2023,873,82559,40.99824667,-71.28335,180,304,2,2,4,5,2,2,4,4,C,,,,,,,,,,,,,,,,,,,,,,,,,,,,,,96.9,1000,100,,,,,,,,,,,,,,0.134791017
X,2,12,2023,874,82604,40.99600167,-71.28333,179,302,2,2,4,5,2,2,4,4,C,,,,,,,,,,,,,,,,,,,,,,,,,,,,,,97.2,1000,100,,,,,,,,,,,,,,0.134793873
X,2,12,2023,875,82609,40.99374833,-71.28332,180,299,2,2,4,5,2,2,4,4,C,,,,,,,,,,,,,,,,,,,,,,,,,,,,,,97.2,1000,100,,,,,,,,,,,,,,0.135291922
X,2,12,2023,876,82614,40.991485,-71.28334,180,298,2,2,4,5,2,2,4,4,C,,,,,,,,,,,,,,,,,,,,,,,,,,,,,,97.6,1000,100,,,,,,,,,,,,,,0.135894591
X,2,12,2023,877,82619,40.98923333,-71.28334333,180,304,2,2,4,5,2,2,4,4,C,,,,,,,,,,,,,,,,,,,,,,,,,,,,,,97.2,1000,100,,,,,,,,,,,,,,0.13519118
X,2,12,2023,878,82624,40.98699833,-71.28334333,180,307,2,2,4,5,2,2,4,4,C,,,,,,,,,,,,,,,,,,,,,,,,,,,,,,96.3,1000,100,,,,,,,,,,,,,,0.134190422
X,2,12,2023,879,82629,40.98475667,-71.283305,179,306,2,2,4,5,2,2,4,4,C,,,,,,,,,,,,,,,,,,,,,,,,,,,,,,96.8,1000,100,,,,,,,,,,,,,,0.134601905
X,2,12,2023,880,82634,40.98251833,-71.28328167,180,309,2,2,4,5,2,2,4,4,C,,,,,,,,,,,,,,,,,,,,,,,,,,,,,,96.4,1000,100,,,,,,,,,,,,,,0.134394718
X,2,12,2023,881,82639,40.98030667,-71.28327333,180,311,2,2,4,5,2,2,4,4,C,,,,,,,,,,,,,,,,,,,,,,,,,,,,,,95.4,1000,100,,,,,,,,,,,,,,0.132790015
S,2,12,2023,882,82642,40.97911529,-71.28327244,180,310,2,2,4,5,2,2,3,4,C,8,,,,,,,,,,,,,,,,,,,,,,,,,,,,,95.6,1000,100,,,,,,,,,,,BSS - ,,,0.071530956
X,2,12,2023,883,82644,40.97809,-71.28327167,180,308,2,2,4,5,2,2,3,4,C,,,,,,,,,,,,,,,,,,,,,,,,,,,,,,95.8,1000,100,,,,,,,,,,,,,,0.133089702
X,2,12,2023,884,82649,40.97584667,-71.28324333,179,306,2,2,4,5,2,2,3,4,C,,,,,,,,,,,,,,,,,,,,,,,,,,,,,,97.4,1000,100,,,,,,,,,,,,,,0.134696882
X,2,12,2023,885,82654,40.973575,-71.283235,180,304,2,2,4,5,2,2,3,4,C,,,,,,,,,,,,,,,,,,,,,,,,,,,,,,98.2,1000,100,,,,,,,,,,,,,,0.136392428
X,2,12,2023,886,82659,40.97128333,-71.28323667,180,306,2,2,4,5,2,2,3,4,C,,,,,,,,,,,,,,,,,,,,,,,,,,,,,,99.1,1000,100,,,,,,,,,,,,,,0.137592735
X,2,12,2023,887,82704,40.96898167,-71.28321667,179,307,2,2,4,5,2,2,3,4,C,,,,,,,,,,,,,,,,,,,,,,,,,,,,,,99.4,1000,100,,,,,,,,,,,,,,0.138196093
X,2,12,2023,888,82709,40.966675,-71.28318333,179,308,2,2,4,5,2,2,3,4,C,,,,,,,,,,,,,,,,,,,,,,,,,,,,,,99.7,1000,100,,,,,,,,,,,,,,0.138501566
X,2,12,2023,889,82714,40.96437,-71.28316333,180,307,2,2,4,5,2,2,3,4,C,,,,,,,,,,,,,,,,,,,,,,,,,,,,,,99.5,1000,100,,,,,,,,,,,,,,0.138396224
X,2,12,2023,890,82719,40.96206833,-71.283185,181,308,2,2,4,5,2,2,3,4,C,,,,,,,,,,,,,,,,,,,,,,,,,,,,,,99,1000,100,,,,,,,,,,,,,,0.13819661
X,2,12,2023,891,82719,40.96206833,-71.283185,181,308,2,2,4,5,2,2,3,4,C,,,,,,,,,,,,,,,,,,,,,,,,,,,,,,99,1000,100,,,,,,,,,,,,,,0
X,2,12,2023,892,82724,40.95979333,-71.28322167,181,310,2,2,4,5,2,2,3,4,C,,,,,,,,,,,,,,,,,,,,,,,,,,,,,,97.9,1000,100,,,,,,,,,,,,,,0.136602157
X,2,12,2023,893,82729,40.95754333,-71.28324333,180,310,2,2,4,5,2,2,3,4,C,,,,,,,,,,,,,,,,,,,,,,,,,,,,,,97,1000,100,,,,,,,,,,,,,,0.135094601
X,2,12,2023,894,82734,40.955295,-71.283255,180,308,2,2,4,5,2,2,3,4,C,,,,,,,,,,,,,,,,,,,,,,,,,,,,,,97.3,1000,100,,,,,,,,,,,,,,0.134991998
X,2,12,2023,895,82739,40.95301667,-71.28326167,180,304,2,2,4,5,2,2,3,4,C,,,,,,,,,,,,,,,,,,,,,,,,,,,,,,98.5,1000,100,,,,,,,,,,,,,,0.136792509
X,2,12,2023,896,82744,40.95074,-71.28326667,180,305,2,2,4,5,2,2,3,4,C,,,,,,,,,,,,,,,,,,,,,,,,,,,,,,97.7,1000,100,,,,,,,,,,,,,,0.136692296
X,2,12,2023,897,82749,40.9485,-71.283245,179,311,2,2,4,5,2,2,3,4,C,,,,,,,,,,,,,,,,,,,,,,,,,,,,,,96.5,1000,100,,,,,,,,,,,,,,0.134494213
X,2,12,2023,898,82754,40.94628667,-71.28323333,180,314,2,2,4,5,2,2,3,4,C,,,,,,,,,,,,,,,,,,,,,,,,,,,,,,95.7,1000,100,,,,,,,,,,,,,,0.132890598
X,2,12,2023,899,82759,40.944055,-71.28325833,181,312,2,2,4,5,2,2,3,4,C,,,,,,,,,,,,,,,,,,,,,,,,,,,,,,96.1,1000,100,,,,,,,,,,,,,,0.133995084
X,2,12,2023,900,82804,40.94179833,-71.28328167,180,311,2,2,4,5,2,2,3,4,C,,,,,,,,,,,,,,,,,,,,,,,,,,,,,,97.6,1000,100,,,,,,,,,,,,,,0.135495431
X,2,12,2023,901,82809,40.93953833,-71.28328167,180,314,2,2,4,5,2,2,3,4,C,,,,,,,,,,,,,,,,,,,,,,,,,,,,,,97.2,1000,100,,,,,,,,,,,,,,0.135691433
X,2,12,2023,902,82814,40.93729833,-71.28329833,180,315,2,2,4,5,2,2,3,4,C,,,,,,,,,,,,,,,,,,,,,,,,,,,,,,96.6,1000,100,,,,,,,,,,,,,,0.134492748
X,2,12,2023,903,82819,40.935075,-71.28329333,180,316,2,2,4,5,2,2,3,4,C,,,,,,,,,,,,,,,,,,,,,,,,,,,,,,96,1000,100,,,,,,,,,,,,,,0.133490142
X,2,12,2023,904,82819,40.935075,-71.28329333,180,316,2,2,4,5,2,2,3,4,C,,,,,,,,,,,,,,,,,,,,,,,,,,,,,,96,1000,100,,,,,,,,,,,,,,0
X,2,12,2023,905,82824,40.93285,-71.28325167,179,314,2,2,4,5,2,2,3,4,C,,,,,,,,,,,,,,,,,,,,,,,,,,,,,,95.9,1000,100,,,,,,,,,,,,,,0.133603385
X,2,12,2023,906,82829,40.93059333,-71.28322833,180,308,2,2,4,5,2,2,3,4,C,,,,,,,,,,,,,,,,,,,,,,,,,,,,,,98.1,1000,100,,,,,,,,,,,,,,0.135495432
X,2,12,2023,907,82834,40.928305,-71.283245,180,305,2,2,4,5,2,2,3,4,C,,,,,,,,,,,,,,,,,,,,,,,,,,,,,,99.2,1000,100,,,,,,,,,,,,,,0.13739466
X,2,12,2023,908,82839,40.926015,-71.28325333,180,307,2,2,4,5,2,2,3,4,C,,,,,,,,,,,,,,,,,,,,,,,,,,,,,,98.6,1000,100,,,,,,,,,,,,,,0.137493167
X,2,12,2023,909,82844,40.92376667,-71.28328167,181,312,2,2,4,5,2,2,3,4,C,,,,,,,,,,,,,,,,,,,,,,,,,,,,,,97,1000,100,,,,,,,,,,,,,,0.13499708
X,2,12,2023,910,82849,40.92152333,-71.28331667,181,311,2,2,4,5,2,2,3,4,C,,,,,,,,,,,,,,,,,,,,,,,,,,,,,,97.2,1000,100,,,,,,,,,,,,,,0.134700118
X,2,12,2023,911,82854,40.91926167,-71.28334333,180,308,2,2,4,5,2,2,3,4,C,,,,,,,,,,,,,,,,,,,,,,,,,,,,,,97.9,1000,100,,,,,,,,,,,,,,0.13579689
X,2,12,2023,912,82859,40.916995,-71.28339833,181,310,2,2,4,5,2,2,3,4,C,,,,,,,,,,,,,,,,,,,,,,,,,,,,,,97.5,1000,100,,,,,,,,,,,,,,0.136114577
X,2,12,2023,913,82904,40.91474667,-71.283455,181,314,2,2,4,5,2,2,3,4,C,,,,,,,,,,,,,,,,,,,,,,,,,,,,,,96.6,1000,100,,,,,,,,,,,,,,0.135015443
S,2,12,2023,914,82906,40.91364494,-71.28344014,179,317,2,5,4,5,2,2,3,4,C,9,,,,,,,,,,,,,,,,,,,,,,,,,,,,,96.4,1000,100,,,,,,,,,,OFF TRACK - ,,,,0.066151839
X,2,12,2023,915,82909,40.91252167,-71.283425,178,319,3,-,,5,,,3,4,C,,,,,,,,,,,,,,,,,,,,,,,,,,,,,,96.2,1000,100,,,,,,,,,,,,,,0.133596952
X,2,12,2023,916,82910,40.91209504,-71.2833129,175,318,3,-,,5,,,3,4,C,,,,,,,,,,,,,,,,,,,,,,,,,,,,,,96.7,1000,100,,,,,,,,,,,,,,0.026115072
X,2,12,2023,917,82914,40.91030167,-71.28284167,165,317,3,-,,5,,,3,4,C,,,,,,,,,,,,,,,,,,,,,,,,,,,,,,98.6,1000,100,,,,,,,,,,,,,,0.135892374
X,2,12,2023,918,82919,40.90820833,-71.28142333,148,321,3,-,,5,,,3,4,C,,,,,,,,,,,,,,,,,,,,,,,,,,,,,,102.6,1000,100,,,,,,,,,,,,,,0.141203855
X,2,12,2023,919,82924,40.90645,-71.2792,132,322,3,-,,5,,,3,4,C,,,,,,,,,,,,,,,,,,,,,,,,,,,,,,106,1000,100,,,,,,,,,,,,,,0.146025974
X,2,12,2023,920,82929,40.90516333,-71.2763,116,316,3,-,,5,,,3,4,C,,,,,,,,,,,,,,,,,,,,,,,,,,,,,,111.5,1000,100,,,,,,,,,,,,,,0.152595183
X,2,12,2023,921,82934,40.90452833,-71.27288,99,310,3,-,,5,,,3,4,C,,,,,,,,,,,,,,,,,,,,,,,,,,,,,,115.7,1000,100,,,,,,,,,,,,,,0.1598088
X,2,12,2023,922,82939,40.904555,-71.269315,87,319,3,-,,5,,,3,4,C,,,,,,,,,,,,,,,,,,,,,,,,,,,,,,115.2,1000,100,,,,,,,,,,,,,,0.161782887
X,2,12,2023,923,82944,40.90465667,-71.26580833,88,322,3,-,,5,,,3,4,C,,,,,,,,,,,,,,,,,,,,,,,,,,,,,,114.6,1000,100,,,,,,,,,,,,,,0.159244754
X,2,12,2023,924,82949,40.90466667,-71.26233167,90,323,3,-,,5,,,3,4,C,,,,,,,,,,,,,,,,,,,,,,,,,,,,,,112.9,1000,100,,,,,,,,,,,,,,0.157767371
X,2,12,2023,925,82949,40.90466667,-71.26233167,90,323,3,-,,5,,,3,4,C,,,,,,,,,,,,,,,,,,,,,,,,,,,,,,112.9,1000,100,,,,,,,,,,,,,,0
X,2,12,2023,926,82954,40.904655,-71.25885667,91,321,3,-,,5,,,3,4,C,,,,,,,,,,,,,,,,,,,,,,,,,,,,,,113.7,1000,100,,,,,,,,,,,,,,0.157692156
X,2,12,2023,927,82959,40.904615,-71.25536167,91,319,3,-,,5,,,3,4,C,,,,,,,,,,,,,,,,,,,,,,,,,,,,,,114.3,1000,100,,,,,,,,,,,,,,0.158616416
X,2,12,2023,928,83004,40.904565,-71.25185167,91,316,3,-,,5,,,3,4,C,,,,,,,,,,,,,,,,,,,,,,,,,,,,,,114.6,1000,100,,,,,,,,,,,,,,0.159307309
X,2,12,2023,929,83009,40.90450833,-71.248325,91,318,3,-,,5,,,3,4,C,,,,,,,,,,,,,,,,,,,,,,,,,,,,,,114.7,1000,100,,,,,,,,,,,,,,0.160071622
X,2,12,2023,930,83014,40.904445,-71.244825,91,318,3,-,,5,,,3,4,C,,,,,,,,,,,,,,,,,,,,,,,,,,,,,,114.2,1000,100,,,,,,,,,,,,,,0.15887102
X,2,12,2023,931,83019,40.90438167,-71.24135,91,318,3,-,,5,,,3,4,C,,,,,,,,,,,,,,,,,,,,,,,,,,,,,,112.9,1000,100,,,,,,,,,,,,,,0.157737031
X,2,12,2023,932,83024,40.90431833,-71.237895,91,316,3,-,,5,,,3,4,C,,,,,,,,,,,,,,,,,,,,,,,,,,,,,,113.6,1000,100,,,,,,,,,,,,,,0.156829871
X,2,12,2023,933,83029,40.90424,-71.234435,92,316,3,-,,5,,,3,4,C,,,,,,,,,,,,,,,,,,,,,,,,,,,,,,113.5,1000,100,,,,,,,,,,,,,,0.157081252
X,2,12,2023,934,83034,40.90415667,-71.23096667,92,319,3,-,,5,,,3,4,C,,,,,,,,,,,,,,,,,,,,,,,,,,,,,,113.3,1000,100,,,,,,,,,,,,,,0.157468685
X,2,12,2023,935,83039,40.90405167,-71.22751167,92,318,3,-,,5,,,3,4,C,,,,,,,,,,,,,,,,,,,,,,,,,,,,,,113.4,1000,100,,,,,,,,,,,,,,0.156911042
X,2,12,2023,936,83044,40.90394667,-71.22403833,92,316,3,-,,5,,,3,4,C,,,,,,,,,,,,,,,,,,,,,,,,,,,,,,114.4,1000,100,,,,,,,,,,,,,,0.157742572
X,2,12,2023,937,83049,40.90389333,-71.22054,91,314,3,-,,5,,,3,4,C,,,,,,,,,,,,,,,,,,,,,,,,,,,,,,114.5,1000,100,,,,,,,,,,,,,,0.158783504
X,2,12,2023,938,83049,40.90389333,-71.22054,91,314,3,-,,5,,,3,4,C,,,,,,,,,,,,,,,,,,,,,,,,,,,,,,114.5,1000,100,,,,,,,,,,,,,,0
X,2,12,2023,939,83054,40.90387,-71.21704167,90,317,3,-,,5,,,3,4,C,,,,,,,,,,,,,,,,,,,,,,,,,,,,,,114.3,1000,100,,,,,,,,,,,,,,0.158757485
X,2,12,2023,940,83059,40.90385,-71.21355833,90,318,3,-,,5,,,3,4,C,,,,,,,,,,,,,,,,,,,,,,,,,,,,,,114.1,1000,100,,,,,,,,,,,,,,0.15807523
X,2,12,2023,941,83104,40.90383167,-71.21008333,90,316,3,-,,5,,,3,4,C,,,,,,,,,,,,,,,,,,,,,,,,,,,,,,114.1,1000,100,,,,,,,,,,,,,,0.157696397
X,2,12,2023,942,83109,40.90382167,-71.20659833,90,311,3,-,,5,,,3,4,C,,,,,,,,,,,,,,,,,,,,,,,,,,,,,,114.6,1000,100,,,,,,,,,,,,,,0.15814752
X,2,12,2023,943,83114,40.90382667,-71.20308333,90,308,3,-,,5,,,3,4,C,,,,,,,,,,,,,,,,,,,,,,,,,,,,,,114.4,1000,100,,,,,,,,,,,,,,0.159508044
X,2,12,2023,944,83119,40.90387,-71.199555,89,311,3,-,,5,,,3,4,C,,,,,,,,,,,,,,,,,,,,,,,,,,,,,,115,1000,100,,,,,,,,,,,,,,0.160133896
X,2,12,2023,945,83124,40.90391167,-71.19607167,89,316,3,-,,5,,,3,4,C,,,,,,,,,,,,,,,,,,,,,,,,,,,,,,112.9,1000,100,,,,,,,,,,,,,,0.15809039
X,2,12,2023,946,83129,40.90396167,-71.19263667,89,316,3,-,,5,,,3,4,C,,,,,,,,,,,,,,,,,,,,,,,,,,,,,,113,1000,100,,,,,,,,,,,,,,0.155906068
X,2,12,2023,947,83134,40.90400833,-71.18917833,89,313,3,-,,5,,,3,4,C,,,,,,,,,,,,,,,,,,,,,,,,,,,,,,113.3,1000,100,,,,,,,,,,,,,,0.156960904
X,2,12,2023,948,83139,40.90404333,-71.185705,89,312,3,-,,5,,,3,4,C,,,,,,,,,,,,,,,,,,,,,,,,,,,,,,114.3,1000,100,,,,,,,,,,,,,,0.15763049
X,2,12,2023,949,83144,40.904075,-71.18223833,89,315,3,-,,5,,,3,4,C,,,,,,,,,,,,,,,,,,,,,,,,,,,,,,112.6,1000,100,,,,,,,,,,,,,,0.157325365
X,2,12,2023,950,83149,40.90409167,-71.17880833,90,319,3,-,,5,,,3,4,C,,,,,,,,,,,,,,,,,,,,,,,,,,,,,,112.1,1000,100,,,,,,,,,,,,,,0.155653139
X,2,12,2023,951,83149,40.90409167,-71.17880833,90,319,3,-,,5,,,3,4,C,,,,,,,,,,,,,,,,,,,,,,,,,,,,,,112.1,1000,100,,,,,,,,,,,,,,0
X,2,12,2023,952,83154,40.90408333,-71.17539667,90,323,3,-,,5,,,3,4,C,,,,,,,,,,,,,,,,,,,,,,,,,,,,,,111,1000,100,,,,,,,,,,,,,,0.154818773
X,2,12,2023,953,83159,40.90406,-71.17205333,91,326,3,-,,5,,,3,4,C,,,,,,,,,,,,,,,,,,,,,,,,,,,,,,109.3,1000,100,,,,,,,,,,,,,,0.151723572
X,2,12,2023,954,83204,40.90404167,-71.16871667,90,324,3,-,,5,,,3,4,C,,,,,,,,,,,,,,,,,,,,,,,,,,,,,,108.8,1000,100,,,,,,,,,,,,,,0.151418626
X,2,12,2023,955,83209,40.90405,-71.16538167,90,324,3,-,,5,,,3,4,C,,,,,,,,,,,,,,,,,,,,,,,,,,,,,,109.1,1000,100,,,,,,,,,,,,,,0.151339832
X,2,12,2023,956,83214,40.90408667,-71.16207667,89,327,3,-,,5,,,3,4,C,,,,,,,,,,,,,,,,,,,,,,,,,,,,,,107.4,1000,100,,,,,,,,,,,,,,0.14999374
X,2,12,2023,957,83219,40.90441,-71.15887,79,330,3,-,,5,,,3,4,C,,,,,,,,,,,,,,,,,,,,,,,,,,,,,,106.4,1000,100,,,,,,,,,,,,,,0.146804153
X,2,12,2023,958,83224,40.90529333,-71.15588,64,326,3,-,,5,,,3,4,C,,,,,,,,,,,,,,,,,,,,,,,,,,,,,,105.6,1000,100,,,,,,,,,,,,,,0.145678701
X,2,12,2023,959,83229,40.906765,-71.15332,48,317,3,-,,5,,,3,4,C,,,,,,,,,,,,,,,,,,,,,,,,,,,,,,105.6,1000,100,,,,,,,,,,,,,,0.145952494
X,2,12,2023,960,83234,40.90872333,-71.15139667,33,314,3,-,,5,,,3,4,C,,,,,,,,,,,,,,,,,,,,,,,,,,,,,,105,1000,100,,,,,,,,,,,,,,0.146429645
X,2,12,2023,961,83239,40.91095167,-71.150275,16,314,3,-,,5,,,3,4,C,,,,,,,,,,,,,,,,,,,,,,,,,,,,,,102.2,1000,100,,,,,,,,,,,,,,0.143143892
X,2,12,2023,962,83244,40.91323667,-71.14991333,5,316,3,-,,5,,,3,4,C,,,,,,,,,,,,,,,,,,,,,,,,,,,,,,98.7,1000,100,,,,,,,,,,,,,,0.138170393
X,2,12,2023,963,83249,40.91548,-71.14995333,358,320,3,-,,5,,,3,4,C,,,,,,,,,,,,,,,,,,,,,,,,,,,,,,95.6,1000,100,,,,,,,,,,,,,,0.134702986
X,2,12,2023,964,83254,40.917695,-71.14999167,0,320,3,-,,5,,,3,4,C,,,,,,,,,,,,,,,,,,,,,,,,,,,,,,95.7,1000,100,,,,,,,,,,,,,,0.133000985
S,2,12,2023,965,83257,40.91906395,-71.14997531,1,317,2,1,12,5,2,2,3,4,C,10,,,,,,,,,,,,,,,,,,,,,,,,,,,,,95.7,1000,100,,,,,,,,,,ON TRACK - ,,,,0.08219566
X,2,12,2023,966,83259,40.91992667,-71.149965,1,315,2,2,12,5,2,2,3,4,C,,,,,,,,,,,,,,,,,,,,,,,,,,,,,,95.7,1000,100,,,,,,,,,,,,,,0.133995749
X,2,12,2023,967,83304,40.92221333,-71.14995667,359,318,2,2,12,5,2,2,3,4,C,,,,,,,,,,,,,,,,,,,,,,,,,,,,,,98.1,1000,100,,,,,,,,,,,,,,0.137293033
X,2,12,2023,968,83305,40.92267159,-71.1499643,360,317,2,2,12,5,2,2,3,4,C,,,,,,,,,,,,,,,,,,,,,,,,,,,,,,98.3,1000,100,,,,,,,,,,,,,,0.027516341
X,2,12,2023,969,83309,40.924515,-71.149995,360,316,2,2,12,5,2,2,3,4,C,,,,,,,,,,,,,,,,,,,,,,,,,,,,,,99.3,1000,100,,,,,,,,,,,,,,0.13820406
X,2,12,2023,970,83314,40.92683333,-71.14998167,0,315,2,2,12,5,2,2,3,4,C,,,,,,,,,,,,,,,,,,,,,,,,,,,,,,100,1000,100,,,,,,,,,,,,,,0.139195107
X,2,12,2023,971,83319,40.929135,-71.15003333,359,316,2,2,12,5,2,2,3,4,C,,,,,,,,,,,,,,,,,,,,,,,,,,,,,,99.2,1000,100,,,,,,,,,,,,,,0.138212992
X,2,12,2023,972,83324,40.93144167,-71.15003167,0,315,2,2,12,5,2,2,3,4,C,,,,,,,,,,,,,,,,,,,,,,,,,,,,,,99.7,1000,100,,,,,,,,,,,,,,0.138493342
X,2,12,2023,973,83329,40.93374333,-71.15003667,360,314,2,2,12,5,2,2,3,4,C,,,,,,,,,,,,,,,,,,,,,,,,,,,,,,99.2,1000,100,,,,,,,,,,,,,,0.138193305
X,2,12,2023,974,83334,40.93603667,-71.15004,0,315,2,2,12,5,2,2,3,4,C,,,,,,,,,,,,,,,,,,,,,,,,,,,,,,98.6,1000,100,,,,,,,,,,,,,,0.137692865
X,2,12,2023,975,83339,40.938315,-71.15003167,360,316,2,2,12,5,2,2,3,4,C,,,,,,,,,,,,,,,,,,,,,,,,,,,,,,97.6,1000,100,,,,,,,,,,,,,,0.136792697
X,2,12,2023,976,83344,40.940585,-71.15004667,360,317,2,2,12,5,2,2,3,4,C,,,,,,,,,,,,,,,,,,,,,,,,,,,,,,97.3,1000,100,,,,,,,,,,,,,,0.136293536
X,2,12,2023,977,83349,40.942845,-71.15006667,359,318,2,2,12,5,2,2,3,4,C,,,,,,,,,,,,,,,,,,,,,,,,,,,,,,97.4,1000,100,,,,,,,,,,,,,,0.135694465
X,2,12,2023,978,83349,40.942845,-71.15006667,359,318,2,2,12,5,2,2,3,4,C,,,,,,,,,,,,,,,,,,,,,,,,,,,,,,97.4,1000,100,,,,,,,,,,,,,,0
X,2,12,2023,979,83354,40.94511,-71.15006333,1,316,2,2,12,5,2,2,3,4,C,,,,,,,,,,,,,,,,,,,,,,,,,,,,,,98,1000,100,,,,,,,,,,,,,,0.13599172
X,2,12,2023,980,83359,40.94738667,-71.15004333,1,312,2,2,12,5,2,2,3,4,C,,,,,,,,,,,,,,,,,,,,,,,,,,,,,,98.2,1000,100,,,,,,,,,,,,,,0.136695117
X,2,12,2023,981,83404,40.94967333,-71.15002667,0,310,2,2,12,5,2,2,3,4,C,,,,,,,,,,,,,,,,,,,,,,,,,,,,,,98.7,1000,100,,,,,,,,,,,,,,0.137294592
X,2,12,2023,982,83409,40.95195,-71.150025,360,309,2,2,12,5,2,2,3,4,C,,,,,,,,,,,,,,,,,,,,,,,,,,,,,,98,1000,100,,,,,,,,,,,,,,0.136692128
X,2,12,2023,983,83414,40.954235,-71.15004333,360,305,2,2,12,5,2,2,3,4,C,,,,,,,,,,,,,,,,,,,,,,,,,,,,,,99.1,1000,100,,,,,,,,,,,,,,0.137194963
X,2,12,2023,984,83419,40.95655333,-71.15002333,1,303,2,2,12,5,2,2,3,4,C,,,,,,,,,,,,,,,,,,,,,,,,,,,,,,100.4,1000,100,,,,,,,,,,,,,,0.139196747
X,2,12,2023,985,83424,40.95884667,-71.15002167,360,307,2,2,12,5,2,2,3,4,C,,,,,,,,,,,,,,,,,,,,,,,,,,,,,,98.1,1000,100,,,,,,,,,,,,,,0.137692803
X,2,12,2023,986,83429,40.96112333,-71.15001167,0,309,2,2,12,5,2,2,3,4,C,,,,,,,,,,,,,,,,,,,,,,,,,,,,,,97.5,1000,100,,,,,,,,,,,,,,0.136692859
X,2,12,2023,987,83434,40.963395,-71.15002,360,313,2,2,12,5,2,2,3,4,C,,,,,,,,,,,,,,,,,,,,,,,,,,,,,,97.7,1000,100,,,,,,,,,,,,,,0.136392429
X,2,12,2023,988,83439,40.96565667,-71.15002333,0,316,2,2,12,5,2,2,3,4,C,,,,,,,,,,,,,,,,,,,,,,,,,,,,,,97.5,1000,100,,,,,,,,,,,,,,0.135791585
X,2,12,2023,989,83444,40.96791333,-71.15002833,360,317,2,2,12,5,2,2,3,4,C,,,,,,,,,,,,,,,,,,,,,,,,,,,,,,97,1000,100,,,,,,,,,,,,,,0.135491488
X,2,12,2023,990,83449,40.97017333,-71.149985,1,318,2,2,12,5,2,2,3,4,C,,,,,,,,,,,,,,,,,,,,,,,,,,,,,,97.6,1000,100,,,,,,,,,,,,,,0.135705653
X,2,12,2023,991,83449,40.97017333,-71.149985,1,318,2,2,12,5,2,2,3,4,C,,,,,,,,,,,,,,,,,,,,,,,,,,,,,,97.6,1000,100,,,,,,,,,,,,,,0
X,2,12,2023,992,83454,40.97242833,-71.14995,0,322,2,2,12,5,2,2,3,4,C,,,,,,,,,,,,,,,,,,,,,,,,,,,,,,96.8,1000,100,,,,,,,,,,,,,,0.135400528
X,2,12,2023,993,83459,40.97467833,-71.14997667,359,320,2,2,12,5,2,2,3,4,C,,,,,,,,,,,,,,,,,,,,,,,,,,,,,,97.6,1000,100,,,,,,,,,,,,,,0.135096437
X,2,12,2023,994,83504,40.97694167,-71.15002333,359,322,2,2,12,5,2,2,3,4,C,,,,,,,,,,,,,,,,,,,,,,,,,,,,,,97.7,1000,100,,,,,,,,,,,,,,0.135908032
X,2,12,2023,995,83509,40.97920667,-71.15008333,359,323,2,2,12,5,2,2,3,4,C,,,,,,,,,,,,,,,,,,,,,,,,,,,,,,98.2,1000,100,,,,,,,,,,,,,,0.136018828
X,2,12,2023,996,83514,40.981495,-71.15009333,0,324,2,2,12,5,2,2,3,4,C,,,,,,,,,,,,,,,,,,,,,,,,,,,,,,98.8,1000,100,,,,,,,,,,,,,,0.137393327
X,2,12,2023,997,83519,40.98379167,-71.150075,0,324,2,2,12,5,2,2,3,4,C,,,,,,,,,,,,,,,,,,,,,,,,,,,,,,99,1000,100,,,,,,,,,,,,,,0.13789542
X,2,12,2023,998,83524,40.98608833,-71.15004333,1,327,2,2,12,5,2,2,3,4,C,,,,,,,,,,,,,,,,,,,,,,,,,,,,,,98.9,1000,100,,,,,,,,,,,,,,0.137900386
X,2,12,2023,999,83529,40.98838,-71.14999167,1,328,2,2,12,5,2,2,3,4,C,,,,,,,,,,,,,,,,,,,,,,,,,,,,,,98.9,1000,100,,,,,,,,,,,,,,0.137612639
X,2,12,2023,1000,83534,40.990675,-71.14995667,1,330,2,2,12,5,2,2,3,4,C,,,,,,,,,,,,,,,,,,,,,,,,,,,,,,98.9,1000,100,,,,,,,,,,,,,,0.137801979
X,2,12,2023,1001,83539,40.99296,-71.14993167,0,330,2,2,12,5,2,2,3,4,C,,,,,,,,,,,,,,,,,,,,,,,,,,,,,,98.5,1000,100,,,,,,,,,,,,,,0.137197123
X,2,12,2023,1002,83544,40.99524167,-71.149945,359,330,2,2,12,5,2,2,3,4,C,,,,,,,,,,,,,,,,,,,,,,,,,,,,,,98.7,1000,100,,,,,,,,,,,,,,0.136993642
X,2,12,2023,1003,83549,40.99753,-71.14997833,359,330,2,2,12,5,2,2,3,4,C,,,,,,,,,,,,,,,,,,,,,,,,,,,,,,98.9,1000,100,,,,,,,,,,,,,,0.137400883
X,2,12,2023,1004,83549,40.99753,-71.14997833,359,330,2,2,12,5,2,2,3,4,C,,,,,,,,,,,,,,,,,,,,,,,,,,,,,,98.9,1000,100,,,,,,,,,,,,,,0
X,2,12,2023,1005,83554,40.99981333,-71.14999333,360,332,2,2,12,5,2,2,3,4,C,,,,,,,,,,,,,,,,,,,,,,,,,,,,,,98.6,1000,100,,,,,,,,,,,,,,0.137094062
X,2,12,2023,1006,83559,41.00208833,-71.15002333,359,332,2,2,12,5,2,2,3,4,C,,,,,,,,,,,,,,,,,,,,,,,,,,,,,,98.3,1000,100,,,,,,,,,,,,,,0.136598804
X,2,12,2023,1007,83604,41.00438167,-71.15003833,360,328,2,2,12,5,2,2,3,4,C,,,,,,,,,,,,,,,,,,,,,,,,,,,,,,99.1,1000,100,,,,,,,,,,,,,,0.137694459
X,2,12,2023,1008,83609,41.00667667,-71.15003167,0,327,2,2,12,5,2,2,3,4,C,,,,,,,,,,,,,,,,,,,,,,,,,,,,,,99.2,1000,100,,,,,,,,,,,,,,0.13779318
X,2,12,2023,1009,83614,41.00897833,-71.15001667,1,326,2,2,12,5,2,2,3,4,C,,,,,,,,,,,,,,,,,,,,,,,,,,,,,,99.5,1000,100,,,,,,,,,,,,,,0.13819479
X,2,12,2023,1010,83619,41.01128333,-71.14998,1,325,2,2,12,5,2,2,3,4,C,,,,,,,,,,,,,,,,,,,,,,,,,,,,,,99.7,1000,100,,,,,,,,,,,,,,0.138403224
X,2,12,2023,1011,83624,41.01358667,-71.14996167,0,324,2,2,12,5,2,2,3,4,C,,,,,,,,,,,,,,,,,,,,,,,,,,,,,,99.6,1000,100,,,,,,,,,,,,,,0.138295681
X,2,12,2023,1012,83629,41.01591,-71.14995167,0,322,2,2,12,5,2,2,3,4,C,,,,,,,,,,,,,,,,,,,,,,,,,,,,,,100.5,1000,100,,,,,,,,,,,,,,0.139494731
X,2,12,2023,1013,83634,41.018245,-71.14995833,360,320,2,2,12,5,2,2,3,4,C,,,,,,,,,,,,,,,,,,,,,,,,,,,,,,101.1,1000,100,,,,,,,,,,,,,,0.140194793
X,2,12,2023,1014,83639,41.02059,-71.14997667,360,320,2,2,12,5,2,2,3,4,C,,,,,,,,,,,,,,,,,,,,,,,,,,,,,,101.6,1000,100,,,,,,,,,,,,,,0.140797321
X,2,12,2023,1015,83644,41.02294167,-71.14997,0,323,2,2,12,5,2,2,3,4,C,,,,,,,,,,,,,,,,,,,,,,,,,,,,,,101.6,1000,100,,,,,,,,,,,,,,0.141195465
X,2,12,2023,1016,83649,41.025285,-71.14995,1,325,2,2,12,5,2,2,3,4,C,,,,,,,,,,,,,,,,,,,,,,,,,,,,,,101.1,1000,100,,,,,,,,,,,,,,0.140697721
X,2,12,2023,1017,83649,41.025285,-71.14995,1,325,2,2,12,5,2,2,3,4,C,,,,,,,,,,,,,,,,,,,,,,,,,,,,,,101.1,1000,100,,,,,,,,,,,,,,0
X,2,12,2023,1018,83654,41.02761333,-71.149945,360,328,2,2,12,5,2,2,3,4,C,,,,,,,,,,,,,,,,,,,,,,,,,,,,,,100.2,1000,100,,,,,,,,,,,,,,0.139794381
X,2,12,2023,1019,83659,41.02995,-71.14994833,0,326,2,2,12,5,2,2,3,4,C,,,,,,,,,,,,,,,,,,,,,,,,,,,,,,101.1,1000,100,,,,,,,,,,,,,,0.140294616
X,2,12,2023,1020,83704,41.03230333,-71.14994333,360,324,2,2,12,5,2,2,3,4,C,,,,,,,,,,,,,,,,,,,,,,,,,,,,,,101.8,1000,100,,,,,,,,,,,,,,0.141295391
X,2,12,2023,1021,83709,41.03466833,-71.14998667,359,322,2,2,12,5,2,2,3,4,C,,,,,,,,,,,,,,,,,,,,,,,,,,,,,,102.6,1000,100,,,,,,,,,,,,,,0.142009243
X,2,12,2023,1022,83714,41.03706333,-71.15002667,360,318,2,2,12,5,2,2,3,4,C,,,,,,,,,,,,,,,,,,,,,,,,,,,,,,103.5,1000,100,,,,,,,,,,,,,,0.143808305
X,2,12,2023,1023,83719,41.03947,-71.15002333,360,316,2,2,12,5,2,2,3,4,C,,,,,,,,,,,,,,,,,,,,,,,,,,,,,,104,1000,100,,,,,,,,,,,,,,0.144497446
X,2,12,2023,1024,83724,41.04187667,-71.150015,360,312,2,2,12,5,2,2,3,4,C,,,,,,,,,,,,,,,,,,,,,,,,,,,,,,104,1000,100,,,,,,,,,,,,,,0.14449786
X,2,12,2023,1025,83729,41.04428833,-71.15002167,0,314,2,2,12,5,2,2,3,4,C,,,,,,,,,,,,,,,,,,,,,,,,,,,,,,103.4,1000,100,,,,,,,,,,,,,,0.144797884
X,2,12,2023,1026,83734,41.04665333,-71.149995,1,318,2,2,12,5,2,2,3,4,C,,,,,,,,,,,,,,,,,,,,,,,,,,,,,,101.4,1000,100,,,,,,,,,,,,,,0.142000815
X,2,12,2023,1027,83739,41.049,-71.14996,1,318,2,2,12,5,2,2,3,4,C,,,,,,,,,,,,,,,,,,,,,,,,,,,,,,101.3,1000,100,,,,,,,,,,,,,,0.140903852
X,2,12,2023,1028,83744,41.051355,-71.14993833,0,313,2,2,12,5,2,2,3,4,C,,,,,,,,,,,,,,,,,,,,,,,,,,,,,,101.9,1000,100,,,,,,,,,,,,,,0.14139868
X,2,12,2023,1029,83749,41.05371667,-71.14995167,360,311,2,2,12,5,2,2,3,4,C,,,,,,,,,,,,,,,,,,,,,,,,,,,,,,101.7,1000,100,,,,,,,,,,,,,,0.141796831
X,2,12,2023,1030,83754,41.05607,-71.150045,358,309,2,2,12,5,2,2,3,4,C,,,,,,,,,,,,,,,,,,,,,,,,,,,,,,102,1000,100,,,,,,,,,,,,,,0.141358384
X,2,12,2023,1031,83759,41.05843833,-71.15012833,359,307,2,2,12,5,2,2,3,4,C,,,,,,,,,,,,,,,,,,,,,,,,,,,,,,102.7,1000,100,,,,,,,,,,,,,,0.142245858
X,2,12,2023,1032,83804,41.06083,-71.150145,360,305,2,2,12,5,2,2,3,4,C,,,,,,,,,,,,,,,,,,,,,,,,,,,,,,103.6,1000,100,,,,,,,,,,,,,,0.143598742
X,2,12,2023,1033,83809,41.06320833,-71.15015,0,311,2,2,12,5,2,2,3,4,C,,,,,,,,,,,,,,,,,,,,,,,,,,,,,,101.6,1000,100,,,,,,,,,,,,,,0.1427964
X,2,12,2023,1034,83814,41.065535,-71.15014,0,315,2,2,12,5,2,2,3,4,C,,,,,,,,,,,,,,,,,,,,,,,,,,,,,,99.8,1000,100,,,,,,,,,,,,,,0.139694864
X,2,12,2023,1035,83819,41.06787667,-71.15014667,1,311,2,2,12,5,2,2,3,4,C,,,,,,,,,,,,,,,,,,,,,,,,,,,,,,101.2,1000,100,,,,,,,,,,,,,,0.140595061
X,2,12,2023,1036,83819,41.06787667,-71.15014667,1,311,2,2,12,5,2,2,3,4,C,,,,,,,,,,,,,,,,,,,,,,,,,,,,,,101.2,1000,100,,,,,,,,,,,,,,0
X,2,12,2023,1037,83824,41.07022333,-71.15009,1,310,2,2,12,5,2,2,3,4,C,,,,,,,,,,,,,,,,,,,,,,,,,,,,,,101.1,1000,100,,,,,,,,,,,,,,0.140918286
X,2,12,2023,1038,83829,41.072555,-71.15005333,1,308,2,2,12,5,2,2,3,4,C,,,,,,,,,,,,,,,,,,,,,,,,,,,,,,100.5,1000,100,,,,,,,,,,,,,,0.14000417
X,2,12,2023,1039,83834,41.07488667,-71.15003833,0,303,2,2,12,5,2,2,3,4,C,,,,,,,,,,,,,,,,,,,,,,,,,,,,,,100.9,1000,100,,,,,,,,,,,,,,0.139995979
X,2,12,2023,1040,83839,41.07724167,-71.15006167,360,299,2,2,12,5,2,2,3,4,C,,,,,,,,,,,,,,,,,,,,,,,,,,,,,,102,1000,100,,,,,,,,,,,,,,0.141399221
X,2,12,2023,1041,83844,41.07961333,-71.15008833,359,295,2,2,12,5,2,2,3,4,C,,,,,,,,,,,,,,,,,,,,,,,,,,,,,,102.7,1000,100,,,,,,,,,,,,,,0.142401066
X,2,12,2023,1042,83849,41.081995,-71.15009833,360,297,2,2,12,5,2,2,3,4,C,,,,,,,,,,,,,,,,,,,,,,,,,,,,,,102.6,1000,100,,,,,,,,,,,,,,0.142997072
X,2,12,2023,1043,83854,41.08435167,-71.15009167,0,299,2,2,12,5,2,2,3,4,C,,,,,,,,,,,,,,,,,,,,,,,,,,,,,,101.4,1000,100,,,,,,,,,,,,,,0.141495666
X,2,12,2023,1044,83859,41.086695,-71.15009333,0,299,2,2,12,5,2,2,3,4,C,,,,,,,,,,,,,,,,,,,,,,,,,,,,,,101.2,1000,100,,,,,,,,,,,,,,0.140694825
X,2,12,2023,1045,83904,41.08903833,-71.15008,0,302,2,2,12,5,2,2,3,4,C,,,,,,,,,,,,,,,,,,,,,,,,,,,,,,100.5,1000,100,,,,,,,,,,,,,,0.140696098
X,2,12,2023,1046,83909,41.091335,-71.15005667,0,310,2,2,12,5,2,2,3,4,C,,,,,,,,,,,,,,,,,,,,,,,,,,,,,,98.5,1000,100,,,,,,,,,,,,,,0.137896959
X,2,12,2023,1047,83914,41.09358,-71.15003333,0,316,2,2,12,5,2,2,3,4,C,,,,,,,,,,,,,,,,,,,,,,,,,,,,,,96.9,1000,100,,,,,,,,,,,,,,0.134794961
S,2,12,2023,1048,83918,41.0956234,-71.15000578,0,317,2,2,12,5,2,2,4,4,C,11,,,,,,,,,,,,,,,,,,,,,,,,,,,,,96.1,1000,100,,,,,,,,,,,BSS - ,,,0.122693143
X,2,12,2023,1049,83919,41.095805,-71.15000333,0,318,2,2,12,5,2,2,4,4,C,,,,,,,,,,,,,,,,,,,,,,,,,,,,,,96,1000,100,,,,,,,,,,,,,,0.133596914
X,2,12,2023,1050,83919,41.095805,-71.15000333,0,318,2,2,12,5,2,2,4,4,C,,,,,,,,,,,,,,,,,,,,,,,,,,,,,,96,1000,100,,,,,,,,,,,,,,0
X,2,12,2023,1051,83924,41.098045,-71.15002,360,319,2,2,12,5,2,2,4,4,C,,,,,,,,,,,,,,,,,,,,,,,,,,,,,,96.4,1000,100,,,,,,,,,,,,,,0.134492738
X,2,12,2023,1052,83929,41.10026667,-71.15001833,0,316,2,2,12,5,2,2,4,4,C,,,,,,,,,,,,,,,,,,,,,,,,,,,,,,96.6,1000,100,,,,,,,,,,,,,,0.133389904
X,2,12,2023,1053,83934,41.10251833,-71.14999167,0,314,2,2,12,5,2,2,4,4,C,,,,,,,,,,,,,,,,,,,,,,,,,,,,,,97.4,1000,100,,,,,,,,,,,,,,0.13519648
X,2,12,2023,1054,83939,41.104795,-71.14996833,0,311,2,2,12,5,2,2,4,4,C,,,,,,,,,,,,,,,,,,,,,,,,,,,,,,98.4,1000,100,,,,,,,,,,,,,,0.136696184
X,2,12,2023,1055,83944,41.10705,-71.149965,0,316,2,2,12,5,2,2,4,4,C,,,,,,,,,,,,,,,,,,,,,,,,,,,,,,96.3,1000,100,,,,,,,,,,,,,,0.135391315
X,2,12,2023,1056,83949,41.10926,-71.14996167,0,319,2,2,12,5,2,2,4,4,C,,,,,,,,,,,,,,,,,,,,,,,,,,,,,,95.1,1000,100,,,,,,,,,,,,,,0.132689496
X,2,12,2023,1057,83954,41.11145333,-71.14993167,1,321,2,2,12,5,2,2,4,4,C,,,,,,,,,,,,,,,,,,,,,,,,,,,,,,94.8,1000,100,,,,,,,,,,,,,,0.131695729
X,2,12,2023,1058,83959,41.113645,-71.14994,360,319,2,2,12,5,2,2,4,4,C,,,,,,,,,,,,,,,,,,,,,,,,,,,,,,95.1,1000,100,,,,,,,,,,,,,,0.131589209
X,2,12,2023,1059,84004,41.11588833,-71.14997333,360,314,2,2,12,5,2,2,4,4,C,,,,,,,,,,,,,,,,,,,,,,,,,,,,,,97.2,1000,100,,,,,,,,,,,,,,0.134699198
X,2,12,2023,1060,84009,41.118165,-71.14998167,360,311,2,2,12,5,2,2,4,4,C,,,,,,,,,,,,,,,,,,,,,,,,,,,,,,98.5,1000,100,,,,,,,,,,,,,,0.136692627
X,2,12,2023,1061,84014,41.12044167,-71.15001167,359,309,2,2,12,5,2,2,4,4,C,,,,,,,,,,,,,,,,,,,,,,,,,,,,,,98,1000,100,,,,,,,,,,,,,,0.136698842
X,2,12,2023,1062,84019,41.122715,-71.15007167,359,308,2,2,12,5,2,2,4,4,C,,,,,,,,,,,,,,,,,,,,,,,,,,,,,,98.2,1000,100,,,,,,,,,,,,,,0.136518948
X,2,12,2023,1063,84019,41.122715,-71.15007167,359,308,2,2,12,5,2,2,4,4,C,,,,,,,,,,,,,,,,,,,,,,,,,,,,,,98.2,1000,100,,,,,,,,,,,,,,0
X,2,12,2023,1064,84024,41.12498833,-71.15006333,0,307,2,2,12,5,2,2,4,4,C,,,,,,,,,,,,,,,,,,,,,,,,,,,,,,98.4,1000,100,,,,,,,,,,,,,,0.136492493
X,2,12,2023,1065,84029,41.12727167,-71.15000667,1,307,2,2,12,5,2,2,4,4,C,,,,,,,,,,,,,,,,,,,,,,,,,,,,,,98.4,1000,100,,,,,,,,,,,,,,0.13711633
X,2,12,2023,1066,84034,41.12952833,-71.15000167,359,308,2,2,12,5,2,2,4,4,C,,,,,,,,,,,,,,,,,,,,,,,,,,,,,,97,1000,100,,,,,,,,,,,,,,0.135491487
X,2,12,2023,1067,84039,41.13177,-71.15004167,360,307,2,2,12,5,2,2,4,4,C,,,,,,,,,,,,,,,,,,,,,,,,,,,,,,96.8,1000,100,,,,,,,,,,,,,,0.134602847
X,2,12,2023,1068,84044,41.134015,-71.150005,1,308,2,2,12,5,2,2,4,4,C,,,,,,,,,,,,,,,,,,,,,,,,,,,,,,96.7,1000,100,,,,,,,,,,,,,,0.134801025
X,2,12,2023,1069,84049,41.13622167,-71.14998833,360,311,2,2,12,5,2,2,4,4,C,,,,,,,,,,,,,,,,,,,,,,,,,,,,,,95,1000,100,,,,,,,,,,,,,,0.132491419
X,2,12,2023,1070,84054,41.13840333,-71.15000333,359,309,2,2,12,5,2,2,4,4,C,,,,,,,,,,,,,,,,,,,,,,,,,,,,,,94,1000,100,,,,,,,,,,,,,,0.13099002
X,2,12,2023,1071,84059,41.14059167,-71.15005,359,308,2,2,12,5,2,2,4,4,C,,,,,,,,,,,,,,,,,,,,,,,,,,,,,,94.5,1000,100,,,,,,,,,,,,,,0.131405477
X,2,12,2023,1072,84104,41.14275333,-71.15006667,359,314,2,2,12,5,2,2,4,4,C,,,,,,,,,,,,,,,,,,,,,,,,,,,,,,92.4,1000,100,,,,,,,,,,,,,,0.129789643
X,2,12,2023,1073,84109,41.14485333,-71.15011333,359,315,2,2,12,5,2,2,4,4,C,,,,,,,,,,,,,,,,,,,,,,,,,,,,,,89.8,1000,100,,,,,,,,,,,,,,0.126102614
X,2,12,2023,1074,84114,41.146955,-71.15012667,360,315,2,2,12,5,2,2,4,4,C,,,,,,,,,,,,,,,,,,,,,,,,,,,,,,90.7,1000,100,,,,,,,,,,,,,,0.126186467
X,2,12,2023,1075,84119,41.14905833,-71.15012667,0,315,2,2,12,5,2,2,4,4,C,,,,,,,,,,,,,,,,,,,,,,,,,,,,,,90.3,1000,100,,,,,,,,,,,,,,0.126285095
X,2,12,2023,1076,84124,41.151135,-71.15010167,1,318,2,2,12,5,2,2,4,4,C,,,,,,,,,,,,,,,,,,,,,,,,,,,,,,89.3,1000,100,,,,,,,,,,,,,,0.124689139
X,2,12,2023,1077,84129,41.15319,-71.15009833,360,317,2,2,12,5,2,2,4,4,C,,,,,,,,,,,,,,,,,,,,,,,,,,,,,,88.3,1000,100,,,,,,,,,,,,,,0.123383232
X,2,12,2023,1078,84134,41.15527667,-71.15014833,359,313,2,2,12,5,2,2,4,4,C,,,,,,,,,,,,,,,,,,,,,,,,,,,,,,90,1000,100,,,,,,,,,,,,,,0.125304809
X,2,12,2023,1079,84139,41.15737333,-71.15022167,358,314,2,2,12,5,2,2,4,4,C,,,,,,,,,,,,,,,,,,,,,,,,,,,,,,90.7,1000,100,,,,,,,,,,,,,,0.125928467
X,2,12,2023,1080,84144,41.15950167,-71.15021333,1,319,2,2,12,5,2,2,4,4,C,,,,,,,,,,,,,,,,,,,,,,,,,,,,,,92.2,1000,100,,,,,,,,,,,,,,0.127786662
X,2,12,2023,1081,84149,41.16162,-71.15015,2,325,2,2,12,5,2,2,4,4,C,,,,,,,,,,,,,,,,,,,,,,,,,,,,,,91.7,1000,100,,,,,,,,,,,,,,0.127217917
X,2,12,2023,1082,84149,41.16162,-71.15015,2,325,2,2,12,5,2,2,4,4,C,,,,,,,,,,,,,,,,,,,,,,,,,,,,,,91.7,1000,100,,,,,,,,,,,,,,0
X,2,12,2023,1083,84154,41.16375333,-71.15013667,360,324,2,2,12,5,2,2,4,4,C,,,,,,,,,,,,,,,,,,,,,,,,,,,,,,92,1000,100,,,,,,,,,,,,,,0.128087727
X,2,12,2023,1084,84159,41.16591333,-71.15014,360,325,2,2,12,5,2,2,4,4,C,,,,,,,,,,,,,,,,,,,,,,,,,,,,,,92.8,1000,100,,,,,,,,,,,,,,0.129687475
X,2,12,2023,1085,84204,41.16804333,-71.15011333,1,328,2,2,12,5,2,2,4,4,C,,,,,,,,,,,,,,,,,,,,,,,,,,,,,,91.1,1000,100,,,,,,,,,,,,,,0.127891853
X,2,12,2023,1086,84209,41.17014667,-71.15008333,1,328,2,2,12,5,2,2,4,4,C,,,,,,,,,,,,,,,,,,,,,,,,,,,,,,90.9,1000,100,,,,,,,,,,,,,,0.126292374
X,2,12,2023,1087,84214,41.17227,-71.15006833,0,324,2,2,12,5,2,2,4,4,C,,,,,,,,,,,,,,,,,,,,,,,,,,,,,,91.7,1000,100,,,,,,,,,,,,,,0.127487707
X,2,12,2023,1088,84219,41.17439,-71.15005833,0,328,2,2,12,5,2,2,4,4,C,,,,,,,,,,,,,,,,,,,,,,,,,,,,,,91.1,1000,100,,,,,,,,,,,,,,0.127286572
X,2,12,2023,1089,84224,41.17648,-71.15006333,0,332,2,2,12,5,2,2,4,4,C,,,,,,,,,,,,,,,,,,,,,,,,,,,,,,90,1000,100,,,,,,,,,,,,,,0.125484759
X,2,12,2023,1090,84229,41.17858333,-71.15004667,1,330,2,2,12,5,2,2,4,4,C,,,,,,,,,,,,,,,,,,,,,,,,,,,,,,91.4,1000,100,,,,,,,,,,,,,,0.126287341
X,2,12,2023,1091,84234,41.18072333,-71.15001333,1,330,2,2,12,5,2,2,4,4,C,,,,,,,,,,,,,,,,,,,,,,,,,,,,,,92.7,1000,100,,,,,,,,,,,,,,0.128495408
X,2,12,2023,1092,84239,41.182885,-71.14998167,1,330,2,2,12,5,2,2,4,4,C,,,,,,,,,,,,,,,,,,,,,,,,,,,,,,93.4,1000,100,,,,,,,,,,,,,,0.129795343
X,2,12,2023,1093,84244,41.18506333,-71.14993,0,330,2,2,12,5,2,2,4,4,C,,,,,,,,,,,,,,,,,,,,,,,,,,,,,,94.5,1000,100,,,,,,,,,,,,,,0.130808965
X,2,12,2023,1094,84249,41.18727833,-71.149935,360,327,2,2,12,5,2,2,4,4,C,,,,,,,,,,,,,,,,,,,,,,,,,,,,,,95.9,1000,100,,,,,,,,,,,,,,0.132989805
X,2,12,2023,1095,84249,41.18727833,-71.149935,360,327,2,2,12,5,2,2,4,4,C,,,,,,,,,,,,,,,,,,,,,,,,,,,,,,95.9,1000,100,,,,,,,,,,,,,,0
X,2,12,2023,1096,84254,41.18948833,-71.14992,0,332,2,2,12,5,2,2,4,4,C,,,,,,,,,,,,,,,,,,,,,,,,,,,,,,95.1,1000,100,,,,,,,,,,,,,,0.132691141
X,2,12,2023,1097,84259,41.19167833,-71.1499,0,336,2,2,12,5,2,2,4,4,C,,,,,,,,,,,,,,,,,,,,,,,,,,,,,,94.6,1000,100,,,,,,,,,,,,,,0.131491706
X,2,12,2023,1098,84304,41.19386333,-71.14992,360,336,2,2,12,5,2,2,4,4,C,,,,,,,,,,,,,,,,,,,,,,,,,,,,,,94.4,1000,100,,,,,,,,,,,,,,0.131191511
X,2,12,2023,1099,84309,41.19608333,-71.14988167,1,337,2,2,12,5,2,2,4,4,C,,,,,,,,,,,,,,,,,,,,,,,,,,,,,,95.8,1000,100,,,,,,,,,,,,,,0.133301066
X,2,12,2023,1100,84314,41.19831,-71.14976833,3,340,2,2,12,5,2,2,4,4,C,,,,,,,,,,,,,,,,,,,,,,,,,,,,,,95.9,1000,100,,,,,,,,,,,,,,0.133788094
X,2,12,2023,1101,84319,41.20053333,-71.14967833,1,341,2,2,12,5,2,2,4,4,C,,,,,,,,,,,,,,,,,,,,,,,,,,,,,,96,1000,100,,,,,,,,,,,,,,0.133551853
X,2,12,2023,1102,84324,41.20278833,-71.14975167,359,339,2,2,12,5,2,2,4,4,C,,,,,,,,,,,,,,,,,,,,,,,,,,,,,,97.6,1000,100,,,,,,,,,,,,,,0.135431754
X,2,12,2023,1103,84329,41.20507,-71.14984833,358,337,2,2,12,5,2,2,4,4,C,,,,,,,,,,,,,,,,,,,,,,,,,,,,,,98.6,1000,100,,,,,,,,,,,,,,0.137061887
X,2,12,2023,1104,84334,41.20738167,-71.14992333,359,334,2,2,12,5,2,2,4,4,C,,,,,,,,,,,,,,,,,,,,,,,,,,,,,,100.2,1000,100,,,,,,,,,,,,,,0.138834864
X,2,12,2023,1105,84339,41.20971,-71.149955,359,336,2,2,12,5,2,2,4,4,C,,,,,,,,,,,,,,,,,,,,,,,,,,,,,,100.1,1000,100,,,,,,,,,,,,,,0.139801515
