rectype,month,day,year,eventno,time,lat,long,heading,alt,legtype,legstage,legno,visiblty,glarel,glarer,beaufort,cloud,wx,sightno,anglel,angler,speccode,number,numcalf,anhead,photos,idrel,confidnc,b1,b2,b3,b4,b5,b6,b7,b8,b9,b10,b11,b12,b13,b14,b15,refno,stratum,utc,radalt,gpsspeed,setalt,setvel,lensfl,ggf,int,gpsq,gpssats,roll,pitch,yaw,maghead,notes,edits,glarev,ph_qual,TrackDist
S,5,18,2023,329,92129,41.38761189,-71.26186548,185,479,1,-,,5,,,2,1,C,1,,,,,,,,,,,,,,,,,,,,,,,,,,,,,111.6,1000,100,,,,,,,,,,"ON WATCH, BEGIN SURVEY",,,,0.116610651
X,5,18,2023,330,92130,41.38698833,-71.26195333,183,479,1,-,,5,,,2,1,C,,,,,,,,,,,,,,,,,,,,,,,,,,,,,,111.2,1000,100,,,,,,,,,,,,,,0.154258096
X,5,18,2023,331,92135,41.38443833,-71.26156,170,474,1,-,,5,,,2,1,C,,,,,,,,,,,,,,,,,,,,,,,,,,,,,,111.2,1000,100,,,,,,,,,,,,,,0.154125024
X,5,18,2023,332,92140,41.38201833,-71.26048,158,477,1,-,,5,,,2,1,C,,,,,,,,,,,,,,,,,,,,,,,,,,,,,,109.9,1000,100,,,,,,,,,,,,,,0.153227118
X,5,18,2023,333,92145,41.37978167,-71.25892833,150,476,1,-,,5,,,2,1,C,,,,,,,,,,,,,,,,,,,,,,,,,,,,,,108.7,1000,100,,,,,,,,,,,,,,0.151394715
X,5,18,2023,334,92150,41.377625,-71.25716667,148,471,1,-,,5,,,2,1,C,,,,,,,,,,,,,,,,,,,,,,,,,,,,,,109.8,1000,100,,,,,,,,,,,,,,0.151874756
X,5,18,2023,335,92155,41.375465,-71.25526333,146,466,1,-,,5,,,2,1,C,,,,,,,,,,,,,,,,,,,,,,,,,,,,,,112,1000,100,,,,,,,,,,,,,,0.155473846
X,5,18,2023,336,92200,41.373335,-71.25323833,144,460,1,-,,5,,,2,1,C,,,,,,,,,,,,,,,,,,,,,,,,,,,,,,113.3,1000,100,,,,,,,,,,,,,,0.157095055
S,5,18,2023,337,92201,41.37283806,-71.2527278,143,459,1,-,,5,,,2,1,C,2,,,FV-U,1,,,1,9,0,,,,,,,,,,,,,,,,,,,,113.1,1000,100,,,,,,,,,,,,,,0.037674026
X,5,18,2023,338,92205,41.37126,-71.25110667,142,456,1,-,,5,,,2,1,C,,,,,,,,,,,,,,,,,,,,,,,,,,,,,,112.5,1000,100,,,,,,,,,,,,,,0.157307868
X,5,18,2023,339,92210,41.369205,-71.24897167,142,453,1,-,,5,,,2,1,C,,,,,,,,,,,,,,,,,,,,,,,,,,,,,,112.8,1000,100,,,,,,,,,,,,,,0.156452752
S,5,18,2023,340,92213,41.36801384,-71.24774468,142,453,1,-,,5,,,2,1,C,3,,,MV-O,1,,,1,9,0,,,,,,,,,,,,,,,,,,,,112.2,1000,100,,,,,,,,,,,,,,0.090395942
X,5,18,2023,341,92215,41.36715333,-71.24685833,142,453,1,-,,5,,,2,1,C,,,,,,,,,,,,,,,,,,,,,,,,,,,,,,111.8,1000,100,,,,,,,,,,,,,,0.155697836
X,5,18,2023,342,92220,41.36511,-71.24479167,143,449,1,-,,5,,,2,1,C,,,,,,,,,,,,,,,,,,,,,,,,,,,,,,110.6,1000,100,,,,,,,,,,,,,,0.154023695
X,5,18,2023,343,92225,41.36309667,-71.24267,141,444,1,-,,5,,,2,1,C,,,,,,,,,,,,,,,,,,,,,,,,,,,,,,110.9,1000,100,,,,,,,,,,,,,,0.154119719
X,5,18,2023,344,92230,41.36105,-71.24057833,143,438,1,-,,5,,,2,1,C,,,,,,,,,,,,,,,,,,,,,,,,,,,,,,111.4,1000,100,,,,,,,,,,,,,,0.154869735
X,5,18,2023,345,92230,41.36105,-71.24057833,143,438,1,-,,5,,,2,1,C,,,,,,,,,,,,,,,,,,,,,,,,,,,,,,111.4,1000,100,,,,,,,,,,,,,,0
X,5,18,2023,346,92235,41.35898667,-71.23854,143,441,1,-,,5,,,2,1,C,,,,,,,,,,,,,,,,,,,,,,,,,,,,,,110,1000,100,,,,,,,,,,,,,,0.154223231
X,5,18,2023,347,92240,41.35699667,-71.23649667,142,442,1,-,,5,,,2,1,C,,,,,,,,,,,,,,,,,,,,,,,,,,,,,,107.8,1000,100,,,,,,,,,,,,,,0.150848452
X,5,18,2023,348,92245,41.35497833,-71.23455,145,442,1,-,,5,,,2,1,C,,,,,,,,,,,,,,,,,,,,,,,,,,,,,,106.7,1000,100,,,,,,,,,,,,,,0.149605454
X,5,18,2023,349,92250,41.352805,-71.23292333,153,444,1,-,,5,,,2,1,C,,,,,,,,,,,,,,,,,,,,,,,,,,,,,,107.5,1000,100,,,,,,,,,,,,,,0.149672214
X,5,18,2023,350,92255,41.35049833,-71.23173833,161,447,1,-,,5,,,2,1,C,,,,,,,,,,,,,,,,,,,,,,,,,,,,,,106.9,1000,100,,,,,,,,,,,,,,0.148434742
X,5,18,2023,351,92300,41.34811667,-71.23096833,168,450,1,-,,5,,,2,1,C,,,,,,,,,,,,,,,,,,,,,,,,,,,,,,105.9,1000,100,,,,,,,,,,,,,,0.147147653
X,5,18,2023,352,92305,41.34567333,-71.230545,174,452,1,-,,5,,,2,1,C,,,,,,,,,,,,,,,,,,,,,,,,,,,,,,106.6,1000,100,,,,,,,,,,,,,,0.147934602
X,5,18,2023,353,92310,41.34323,-71.23039333,178,453,1,-,,5,,,2,1,C,,,,,,,,,,,,,,,,,,,,,,,,,,,,,,105.4,1000,100,,,,,,,,,,,,,,0.14685806
X,5,18,2023,354,92315,41.34077667,-71.23046667,182,449,1,-,,5,,,2,1,C,,,,,,,,,,,,,,,,,,,,,,,,,,,,,,106.3,1000,100,,,,,,,,,,,,,,0.147336343
P,5,18,2023,355,92317,41.33985401,-71.23058402,184,447,1,-,,5,,,2,1,C,4,,,FV-T,1,,,1,9,0,,,,,,,,,,,,,,,,,,,,106.9,1000,100,,,,,,,,,,,,,,0.055648962
X,5,18,2023,356,92320,41.3383,-71.23078167,187,444,1,-,,5,,,2,1,C,,,,,,,,,,,,,,,,,,,,,,,,,,,,,,107.8,1000,100,,,,,,,,,,,,,,0.149376654
X,5,18,2023,357,92325,41.33589,-71.23141333,193,452,1,-,,5,,,2,1,C,,,,,,,,,,,,,,,,,,,,,,,,,,,,,,104.9,1000,100,,,,,,,,,,,,,,0.147472858
X,5,18,2023,358,92330,41.333545,-71.23202833,190,457,1,-,,5,,,2,1,C,,,,,,,,,,,,,,,,,,,,,,,,,,,,,,102.7,1000,100,,,,,,,,,,,,,,0.143498791
X,5,18,2023,359,92330,41.333545,-71.23202833,190,457,1,-,,5,,,2,1,C,,,,,,,,,,,,,,,,,,,,,,,,,,,,,,102.7,1000,100,,,,,,,,,,,,,,0
S,5,18,2023,360,92333,41.33245419,-71.23215085,187,460,2,1,7,5,3,1,2,1,C,5,,,,,,,,,,,,,,,,,,,,,,,,,,,,,101.2,1000,100,,,,,,,,,,ON TRACK,,,,0.065725371
X,5,18,2023,361,92335,41.33123,-71.23228833,183,465,2,2,7,5,3,1,2,1,C,,,,,,,,,,,,,,,,,,,,,,,,,,,,,,99.5,1000,100,,,,,,,,,,,,,,0.139487052
X,5,18,2023,362,92340,41.32906007,-71.23234365,181,469,2,2,7,5,3,1,2,1,C,,,,,,,,,,,,,,,,,,,,,,,,,,,,,,97.9,1000,100,,,,,,,,,,,,,,0.130307271
X,5,18,2023,363,92340,41.32894167,-71.23234667,181,469,2,2,7,5,3,1,2,1,C,,,,,,,,,,,,,,,,,,,,,,,,,,,,,,97.9,1000,100,,,,,,,,,,,,,,0.137417749
X,5,18,2023,364,92345,41.326665,-71.23241667,182,470,2,2,7,5,3,1,2,1,C,,,,,,,,,,,,,,,,,,,,,,,,,,,,,,98.5,1000,100,,,,,,,,,,,,,,0.136728538
X,5,18,2023,365,92350,41.32436,-71.23250667,182,468,2,2,7,5,3,1,2,1,C,,,,,,,,,,,,,,,,,,,,,,,,,,,,,,100,1000,100,,,,,,,,,,,,,,0.138452735
X,5,18,2023,366,92355,41.32202167,-71.23259167,181,468,2,2,7,5,3,1,2,1,C,,,,,,,,,,,,,,,,,,,,,,,,,,,,,,100.7,1000,100,,,,,,,,,,,,,,0.140446907
X,5,18,2023,367,92400,41.31969167,-71.23264167,181,473,2,2,7,5,3,1,2,1,C,,,,,,,,,,,,,,,,,,,,,,,,,,,,,,100.3,1000,100,,,,,,,,,,,,,,0.139912432
X,5,18,2023,368,92400,41.31969167,-71.23264167,181,473,2,2,7,5,3,1,2,1,C,,,,,,,,,,,,,,,,,,,,,,,,,,,,,,100.3,1000,100,,,,,,,,,,,,,,0
X,5,18,2023,369,92405,41.31736667,-71.23267,181,476,2,2,7,5,3,1,2,1,C,,,,,,,,,,,,,,,,,,,,,,,,,,,,,,100.2,1000,100,,,,,,,,,,,,,,0.13959991
X,5,18,2023,370,92410,41.31503167,-71.23276833,182,476,2,2,7,5,3,1,2,1,C,,,,,,,,,,,,,,,,,,,,,,,,,,,,,,100.9,1000,100,,,,,,,,,,,,,,0.140264579
X,5,18,2023,371,92415,41.31267167,-71.23281167,180,472,2,2,7,5,3,1,2,1,C,,,,,,,,,,,,,,,,,,,,,,,,,,,,,,102.2,1000,100,,,,,,,,,,,,,,0.141708954
X,5,18,2023,372,92420,41.31028333,-71.23275833,179,470,2,2,7,5,3,1,2,1,C,,,,,,,,,,,,,,,,,,,,,,,,,,,,,,103.7,1000,100,,,,,,,,,,,,,,0.143416796
X,5,18,2023,373,92425,41.3079,-71.232735,180,470,2,2,7,5,3,1,2,1,C,,,,,,,,,,,,,,,,,,,,,,,,,,,,,,103,1000,100,,,,,,,,,,,,,,0.143100292
X,5,18,2023,374,92430,41.305515,-71.23268333,179,469,2,2,7,5,3,1,2,1,C,,,,,,,,,,,,,,,,,,,,,,,,,,,,,,103.2,1000,100,,,,,,,,,,,,,,0.143215449
X,5,18,2023,375,92435,41.30312833,-71.23257667,178,468,2,2,7,5,3,1,2,1,C,,,,,,,,,,,,,,,,,,,,,,,,,,,,,,103,1000,100,,,,,,,,,,,,,,0.143377297
X,5,18,2023,376,92440,41.300725,-71.23247333,178,463,2,2,7,5,3,1,2,1,C,,,,,,,,,,,,,,,,,,,,,,,,,,,,,,104.2,1000,100,,,,,,,,,,,,,,0.144372486
X,5,18,2023,377,92445,41.29828,-71.232415,179,458,2,2,7,5,3,1,2,1,C,,,,,,,,,,,,,,,,,,,,,,,,,,,,,,106.5,1000,100,,,,,,,,,,,,,,0.146822497
X,5,18,2023,378,92450,41.29582167,-71.23237333,179,456,2,2,7,5,3,1,2,1,C,,,,,,,,,,,,,,,,,,,,,,,,,,,,,,106.2,1000,100,,,,,,,,,,,,,,0.147611423
X,5,18,2023,379,92455,41.29338167,-71.23234667,180,459,2,2,7,5,3,1,2,1,C,,,,,,,,,,,,,,,,,,,,,,,,,,,,,,104.8,1000,100,,,,,,,,,,,,,,0.146503654
X,5,18,2023,380,92500,41.29098167,-71.232345,180,462,2,2,7,5,3,1,2,1,C,,,,,,,,,,,,,,,,,,,,,,,,,,,,,,103.4,1000,100,,,,,,,,,,,,,,0.144097117
X,5,18,2023,381,92505,41.28858667,-71.232375,181,460,2,2,7,5,3,1,2,1,C,,,,,,,,,,,,,,,,,,,,,,,,,,,,,,103.7,1000,100,,,,,,,,,,,,,,0.143803264
X,5,18,2023,382,92510,41.286165,-71.23239667,180,457,2,2,7,5,3,1,2,1,C,,,,,,,,,,,,,,,,,,,,,,,,,,,,,,104.7,1000,100,,,,,,,,,,,,,,0.14540126
X,5,18,2023,383,92515,41.28374667,-71.232435,181,460,2,2,7,5,3,1,2,1,C,,,,,,,,,,,,,,,,,,,,,,,,,,,,,,103.8,1000,100,,,,,,,,,,,,,,0.145208139
S,5,18,2023,384,92516,41.28349451,-71.23244276,181,460,2,2,7,5,3,1,2,1,C,6,,,BASH,1,,,1,3,0,,,,,,,,,,,,,,,,,,,,103.7,1000,100,,,,,,,,,,NO ANGLE,,,,0.015143393
X,5,18,2023,385,92520,41.28136333,-71.23250833,181,464,2,2,7,5,3,1,2,1,C,,,,,,,,,,,,,,,,,,,,,,,,,,,,,,102.7,1000,100,,,,,,,,,,,,,,0.143134669
X,5,18,2023,386,92525,41.27896333,-71.23258167,181,462,2,2,7,5,3,1,2,1,C,,,,,,,,,,,,,,,,,,,,,,,,,,,,,,103.7,1000,100,,,,,,,,,,,,,,0.144135081
X,5,18,2023,387,92530,41.27653667,-71.23261667,180,462,2,2,7,5,3,1,2,1,C,,,,,,,,,,,,,,,,,,,,,,,,,,,,,,104.7,1000,100,,,,,,,,,,,,,,0.145706735
P,5,18,2023,388,92532,41.27561499,-71.23260407,180,461,2,2,7,5,3,1,2,1,C,7,,,FG-U,6,,,1,9,9,,,,,,,,,,,,,,,,,,,,104.9,1000,100,,,,,,,,,,BEGIN FIELD OF GEAR - ,,,,0.055340712
X,5,18,2023,389,92535,41.27409833,-71.23258333,179,460,2,2,7,5,3,1,2,1,C,,,,,,,,,,,,,,,,,,,,,,,,,,,,,,105.2,1000,100,,,,,,,,,,,,,,0.146406375
X,5,18,2023,390,92540,41.27162833,-71.23254667,179,459,2,2,7,5,3,1,2,1,C,,,,,,,,,,,,,,,,,,,,,,,,,,,,,,106.4,1000,100,,,,,,,,,,,,,,0.148309159
P,5,18,2023,391,92544,41.26997156,-71.23250183,179,460,2,2,7,5,3,1,2,1,C,8,59,,FG-U,1,,,1,9,0,,,,,,,,,,,,,,,,,,,,106.1,1000,100,,,,,,,,,,,,,,0.099494032
X,5,18,2023,392,92545,41.269165,-71.23248,179,461,2,2,7,5,3,1,2,1,C,,,,,,,,,,,,,,,,,,,,,,,,,,,,,,106,1000,100,,,,,,,,,,,,,,0.147930254
X,5,18,2023,393,92550,41.26672167,-71.23240833,179,465,2,2,7,5,3,1,2,1,C,,,,,,,,,,,,,,,,,,,,,,,,,,,,,,105.3,1000,100,,,,,,,,,,,,,,0.146734498
X,5,18,2023,394,92555,41.264315,-71.23234667,179,470,2,2,7,5,3,1,2,1,C,,,,,,,,,,,,,,,,,,,,,,,,,,,,,,103.5,1000,100,,,,,,,,,,,,,,0.144524165
X,5,18,2023,395,92600,41.26193167,-71.23231667,180,471,2,2,7,5,3,1,2,1,C,,,,,,,,,,,,,,,,,,,,,,,,,,,,,,103,1000,100,,,,,,,,,,,,,,0.143102828
X,5,18,2023,396,92605,41.25953167,-71.23230667,180,469,2,2,7,5,3,1,2,1,C,,,,,,,,,,,,,,,,,,,,,,,,,,,,,,103.9,1000,100,,,,,,,,,,,,,,0.144097804
X,5,18,2023,397,92610,41.25709667,-71.23236167,181,467,2,2,7,5,3,1,2,1,C,,,,,,,,,,,,,,,,,,,,,,,,,,,,,,105.9,1000,100,,,,,,,,,,,,,,0.146219587
X,5,18,2023,398,92615,41.25462667,-71.23239167,180,466,2,2,7,5,3,1,2,1,C,,,,,,,,,,,,,,,,,,,,,,,,,,,,,,107,1000,100,,,,,,,,,,,,,,0.148306111
X,5,18,2023,399,92620,41.25215,-71.23232,178,463,2,2,7,5,3,1,2,1,C,,,,,,,,,,,,,,,,,,,,,,,,,,,,,,107.2,1000,100,,,,,,,,,,,,,,0.148735382
X,5,18,2023,400,92625,41.249665,-71.23223667,179,459,2,2,7,5,3,1,2,1,C,,,,,,,,,,,,,,,,,,,,,,,,,,,,,,107.4,1000,100,,,,,,,,,,,,,,0.149247949
X,5,18,2023,401,92630,41.247145,-71.23230167,182,454,2,2,7,5,3,1,2,1,C,,,,,,,,,,,,,,,,,,,,,,,,,,,,,,109.3,1000,100,,,,,,,,,,,,,,0.151330401
X,5,18,2023,402,92630,41.247145,-71.23230167,182,454,2,2,7,5,3,1,2,1,C,,,,,,,,,,,,,,,,,,,,,,,,,,,,,,109.3,1000,100,,,,,,,,,,,,,,0
X,5,18,2023,403,92635,41.24460833,-71.23245333,183,454,2,2,7,5,3,1,2,1,C,,,,,,,,,,,,,,,,,,,,,,,,,,,,,,109.4,1000,100,,,,,,,,,,,,,,0.152456448
X,5,18,2023,404,92640,41.24211,-71.23258333,182,458,2,2,7,5,3,1,2,1,C,,,,,,,,,,,,,,,,,,,,,,,,,,,,,,107,1000,100,,,,,,,,,,,,,,0.150115844
S,5,18,2023,405,92643,41.24091996,-71.23263525,182,460,2,2,7,5,3,1,2,1,C,9,,,,,,,,,,,,,,,,,,,,,,,,,,,,,106.1,1000,100,,,,,,,,,,END FIELD OF GEAR 6 PIECES - ,,,,0.071489119
X,5,18,2023,406,92645,41.239665,-71.23269,182,462,2,2,7,5,3,1,2,1,C,,,,,,,,,,,,,,,,,,,,,,,,,,,,,,105,1000,100,,,,,,,,,,,,,,0.146877885
X,5,18,2023,407,92650,41.23723667,-71.23275167,181,462,2,2,7,5,3,1,2,1,C,,,,,,,,,,,,,,,,,,,,,,,,,,,,,,105,1000,100,,,,,,,,,,,,,,0.145824824
X,5,18,2023,408,92655,41.23480667,-71.23275,180,460,2,2,7,5,3,1,2,1,C,,,,,,,,,,,,,,,,,,,,,,,,,,,,,,105.2,1000,100,,,,,,,,,,,,,,0.14589833
X,5,18,2023,409,92700,41.232375,-71.232705,179,461,2,2,7,5,3,1,2,1,C,,,,,,,,,,,,,,,,,,,,,,,,,,,,,,104.9,1000,100,,,,,,,,,,,,,,0.146012516
P,5,18,2023,410,92703,41.23106381,-71.23268337,179,461,2,2,7,5,3,1,2,1,C,10,,,FV-T,1,,,1,9,0,,,,,,,,,,,,,,,,,,,,104.7,1000,100,,,,,,,,,,,,,,0.078730558
X,5,18,2023,411,92705,41.22995,-71.232665,179,461,2,2,7,5,3,1,2,1,C,,,,,,,,,,,,,,,,,,,,,,,,,,,,,,104.5,1000,100,,,,,,,,,,,,,,0.145609311
X,5,18,2023,412,92710,41.22751167,-71.23263,179,458,2,2,7,5,3,1,2,1,C,,,,,,,,,,,,,,,,,,,,,,,,,,,,,,105.4,1000,100,,,,,,,,,,,,,,0.146407179
X,5,18,2023,413,92715,41.22505,-71.23258833,179,452,2,2,7,5,3,1,2,1,C,,,,,,,,,,,,,,,,,,,,,,,,,,,,,,107,1000,100,,,,,,,,,,,,,,0.147811568
X,5,18,2023,414,92720,41.222575,-71.23254667,179,450,2,2,7,5,3,1,2,1,C,,,,,,,,,,,,,,,,,,,,,,,,,,,,,,107.2,1000,100,,,,,,,,,,,,,,0.148612044
X,5,18,2023,415,92725,41.220105,-71.23252333,180,453,2,2,7,5,3,1,2,1,C,,,,,,,,,,,,,,,,,,,,,,,,,,,,,,106.5,1000,100,,,,,,,,,,,,,,0.148303673
X,5,18,2023,416,92730,41.21766,-71.23251333,180,456,2,2,7,5,3,1,2,1,C,,,,,,,,,,,,,,,,,,,,,,,,,,,,,,105.3,1000,100,,,,,,,,,,,,,,0.146799612
X,5,18,2023,417,92730,41.21766,-71.23251333,180,456,2,2,7,5,3,1,2,1,C,,,,,,,,,,,,,,,,,,,,,,,,,,,,,,105.3,1000,100,,,,,,,,,,,,,,0
X,5,18,2023,418,92735,41.21523833,-71.23253167,181,461,2,2,7,5,3,1,2,1,C,,,,,,,,,,,,,,,,,,,,,,,,,,,,,,104.3,1000,100,,,,,,,,,,,,,,0.145400331
P,5,18,2023,419,92739,41.21355712,-71.23255965,181,461,2,2,7,5,3,1,2,1,C,11,,,FV-T,1,,,1,9,0,,,,,,,,,,,,,,,,,,,,103.5,1000,100,,,,,,,,,,,,,,0.100948513
X,5,18,2023,420,92740,41.212835,-71.23257167,181,462,2,2,7,5,3,1,2,1,C,,,,,,,,,,,,,,,,,,,,,,,,,,,,,,103.2,1000,100,,,,,,,,,,,,,,0.144308541
X,5,18,2023,421,92745,41.21044167,-71.23262667,181,463,2,2,7,5,3,1,2,1,C,,,,,,,,,,,,,,,,,,,,,,,,,,,,,,103,1000,100,,,,,,,,,,,,,,0.143718299
X,5,18,2023,422,92750,41.20806667,-71.23266667,181,463,2,2,7,5,3,1,2,1,C,,,,,,,,,,,,,,,,,,,,,,,,,,,,,,102,1000,100,,,,,,,,,,,,,,0.142607532
X,5,18,2023,423,92755,41.20570333,-71.232685,180,462,2,2,7,5,3,1,2,1,C,,,,,,,,,,,,,,,,,,,,,,,,,,,,,,101.9,1000,100,,,,,,,,,,,,,,0.14189803
X,5,18,2023,424,92800,41.20334,-71.23270667,180,461,2,2,7,5,3,1,2,1,C,,,,,,,,,,,,,,,,,,,,,,,,,,,,,,102.3,1000,100,,,,,,,,,,,,,,0.141898989
X,5,18,2023,425,92805,41.200955,-71.23273167,180,459,2,2,7,5,3,1,2,1,C,,,,,,,,,,,,,,,,,,,,,,,,,,,,,,103.4,1000,100,,,,,,,,,,,,,,0.143200944
X,5,18,2023,426,92810,41.198545,-71.23274333,180,455,2,2,7,5,3,1,2,1,C,,,,,,,,,,,,,,,,,,,,,,,,,,,,,,104.7,1000,100,,,,,,,,,,,,,,0.144698462
X,5,18,2023,427,92815,41.19612833,-71.23275667,180,454,2,2,7,5,3,1,2,1,C,,,,,,,,,,,,,,,,,,,,,,,,,,,,,,104.1,1000,100,,,,,,,,,,,,,,0.145099022
X,5,18,2023,428,92820,41.19373167,-71.23279,181,457,2,2,7,5,3,1,2,1,C,,,,,,,,,,,,,,,,,,,,,,,,,,,,,,103.6,1000,100,,,,,,,,,,,,,,0.143904842
X,5,18,2023,429,92825,41.19135,-71.23284167,181,458,2,2,7,5,3,1,2,1,C,,,,,,,,,,,,,,,,,,,,,,,,,,,,,,102.5,1000,100,,,,,,,,,,,,,,0.143015407
X,5,18,2023,430,92830,41.188985,-71.23285,179,456,2,2,7,5,3,1,2,1,C,,,,,,,,,,,,,,,,,,,,,,,,,,,,,,101.7,1000,100,,,,,,,,,,,,,,0.14199618
X,5,18,2023,431,92835,41.18660833,-71.23283167,180,452,2,2,7,5,3,1,2,1,C,,,,,,,,,,,,,,,,,,,,,,,,,,,,,,102.6,1000,100,,,,,,,,,,,,,,0.142698558
X,5,18,2023,432,92840,41.184235,-71.23286667,181,454,2,2,7,5,3,1,2,1,C,,,,,,,,,,,,,,,,,,,,,,,,,,,,,,102.3,1000,100,,,,,,,,,,,,,,0.142504794
X,5,18,2023,433,92845,41.1819,-71.23294833,182,464,2,2,7,5,3,1,2,1,C,,,,,,,,,,,,,,,,,,,,,,,,,,,,,,100,1000,100,,,,,,,,,,,,,,0.140243028
X,5,18,2023,434,92850,41.17959667,-71.23305167,182,466,2,2,7,5,3,1,2,1,C,,,,,,,,,,,,,,,,,,,,,,,,,,,,,,99.4,1000,100,,,,,,,,,,,,,,0.138371997
X,5,18,2023,435,92855,41.17728167,-71.2331,180,466,2,2,7,5,3,1,2,1,C,,,,,,,,,,,,,,,,,,,,,,,,,,,,,,100.3,1000,100,,,,,,,,,,,,,,0.139010819
X,5,18,2023,436,92900,41.17496833,-71.23309167,180,465,2,2,7,5,3,1,2,1,C,,,,,,,,,,,,,,,,,,,,,,,,,,,,,,99.7,1000,100,,,,,,,,,,,,,,0.138894101
X,5,18,2023,437,92900,41.17496833,-71.23309167,180,465,2,2,7,5,3,1,2,1,C,,,,,,,,,,,,,,,,,,,,,,,,,,,,,,99.7,1000,100,,,,,,,,,,,,,,0
X,5,18,2023,438,92905,41.172645,-71.23306167,179,459,2,2,7,5,3,1,2,1,C,,,,,,,,,,,,,,,,,,,,,,,,,,,,,,100.2,1000,100,,,,,,,,,,,,,,0.139500584
X,5,18,2023,439,92910,41.17028667,-71.23305167,180,456,2,2,7,5,3,1,2,1,C,,,,,,,,,,,,,,,,,,,,,,,,,,,,,,102.4,1000,100,,,,,,,,,,,,,,0.141596133
X,5,18,2023,440,92915,41.16791,-71.23303333,180,461,2,2,7,5,3,1,2,1,C,,,,,,,,,,,,,,,,,,,,,,,,,,,,,,102.8,1000,100,,,,,,,,,,,,,,0.142698559
X,5,18,2023,441,92920,41.16557833,-71.23305667,181,469,2,2,7,5,3,1,2,1,C,,,,,,,,,,,,,,,,,,,,,,,,,,,,,,100,1000,100,,,,,,,,,,,,,,0.139998305
X,5,18,2023,442,92922,41.16480979,-71.23308388,181,470,2,2,7,5,3,1,3,1,C,,,,,,,,,,,,,,,,,,,,,,,,,,,,,,99.9,1000,100,,,,,,,,,,,,,,0.046160182
X,5,18,2023,443,92925,41.16327167,-71.23313833,182,472,2,2,7,5,3,1,3,1,C,,,,,,,,,,,,,,,,,,,,,,,,,,,,,,99.7,1000,100,,,,,,,,,,,,,,0.138542506
X,5,18,2023,444,92930,41.16093833,-71.233215,181,476,2,2,7,5,3,1,3,1,C,,,,,,,,,,,,,,,,,,,,,,,,,,,,,,100.8,1000,100,,,,,,,,,,,,,,0.140137255
X,5,18,2023,445,92930,41.16093833,-71.233215,181,476,2,2,7,5,3,1,3,1,C,,,,,,,,,,,,,,,,,,,,,,,,,,,,,,100.8,1000,100,,,,,,,,,,,,,,0
X,5,18,2023,446,92935,41.15861167,-71.23325167,180,481,2,2,7,5,3,1,3,1,C,,,,,,,,,,,,,,,,,,,,,,,,,,,,,,100.2,1000,100,,,,,,,,,,,,,,0.139703963
X,5,18,2023,447,92940,41.15628833,-71.23321833,179,482,2,2,7,5,3,1,3,1,C,,,,,,,,,,,,,,,,,,,,,,,,,,,,,,100.6,1000,100,,,,,,,,,,,,,,0.139502134
X,5,18,2023,448,92945,41.15390833,-71.233155,179,480,2,2,7,5,3,1,3,1,C,,,,,,,,,,,,,,,,,,,,,,,,,,,,,,103.7,1000,100,,,,,,,,,,,,,,0.142924967
X,5,18,2023,449,92950,41.15148167,-71.23308,178,482,2,2,7,5,3,1,3,1,C,,,,,,,,,,,,,,,,,,,,,,,,,,,,,,105,1000,100,,,,,,,,,,,,,,0.145737623
X,5,18,2023,450,92955,41.14903,-71.233075,181,475,2,2,7,5,3,1,3,1,C,,,,,,,,,,,,,,,,,,,,,,,,,,,,,,106,1000,100,,,,,,,,,,,,,,0.147199361
X,5,18,2023,451,93000,41.146535,-71.23317667,182,470,2,2,7,5,3,1,3,1,C,,,,,,,,,,,,,,,,,,,,,,,,,,,,,,108.2,1000,100,,,,,,,,,,,,,,0.149871443
P,5,18,2023,452,93002,41.14555259,-71.23322855,182,470,2,2,7,5,3,1,3,1,C,13,,,SV-L,1,,,1,9,0,,,,,,,,,,,,,,,,,,,,107.9,1000,100,,,,,,,,,,,,,,0.059031217
X,5,18,2023,453,93005,41.14404167,-71.23330833,182,470,2,2,7,5,3,1,3,1,C,,,,,,,,,,,,,,,,,,,,,,,,,,,,,,107.4,1000,100,,,,,,,,,,,,,,0.149819192
X,5,18,2023,454,93010,41.14155167,-71.23343833,182,470,2,2,7,5,3,1,3,1,C,,,,,,,,,,,,,,,,,,,,,,,,,,,,,,107.3,1000,100,,,,,,,,,,,,,,0.149616245
X,5,18,2023,455,93015,41.13906167,-71.23354833,182,463,2,2,7,5,3,1,3,1,C,,,,,,,,,,,,,,,,,,,,,,,,,,,,,,108.2,1000,100,,,,,,,,,,,,,,0.149583454
X,5,18,2023,456,93020,41.13653167,-71.233655,182,457,2,2,7,5,3,1,3,1,C,,,,,,,,,,,,,,,,,,,,,,,,,,,,,,109.1,1000,100,,,,,,,,,,,,,,0.151978913
X,5,18,2023,457,93025,41.133995,-71.23376167,182,456,2,2,7,5,3,1,3,1,C,,,,,,,,,,,,,,,,,,,,,,,,,,,,,,108.9,1000,100,,,,,,,,,,,,,,0.152378987
X,5,18,2023,458,93030,41.13150333,-71.23387,182,463,2,2,7,5,3,1,3,1,C,,,,,,,,,,,,,,,,,,,,,,,,,,,,,,107.2,1000,100,,,,,,,,,,,,,,0.149680999
X,5,18,2023,459,93030,41.13150333,-71.23387,182,463,2,2,7,5,3,1,3,1,C,,,,,,,,,,,,,,,,,,,,,,,,,,,,,,107.2,1000,100,,,,,,,,,,,,,,0
X,5,18,2023,460,93035,41.12904333,-71.23400833,182,464,2,2,7,5,3,1,3,1,C,,,,,,,,,,,,,,,,,,,,,,,,,,,,,,106,1000,100,,,,,,,,,,,,,,0.147831952
X,5,18,2023,461,93040,41.12658,-71.23409833,181,462,2,2,7,5,3,1,3,1,C,,,,,,,,,,,,,,,,,,,,,,,,,,,,,,106,1000,100,,,,,,,,,,,,,,0.147955657
X,5,18,2023,462,93045,41.12409167,-71.23411,180,459,2,2,7,5,3,1,3,1,C,,,,,,,,,,,,,,,,,,,,,,,,,,,,,,107.1,1000,100,,,,,,,,,,,,,,0.149401603
X,5,18,2023,463,93050,41.12159833,-71.23407167,179,457,2,2,7,5,3,1,3,1,C,,,,,,,,,,,,,,,,,,,,,,,,,,,,,,107.7,1000,100,,,,,,,,,,,,,,0.149710913
X,5,18,2023,464,93055,41.11912833,-71.23397333,178,464,2,2,7,5,3,1,3,1,C,,,,,,,,,,,,,,,,,,,,,,,,,,,,,,106.3,1000,100,,,,,,,,,,,,,,0.148366609
X,5,18,2023,465,93100,41.11670333,-71.23388333,179,468,2,2,7,5,3,1,3,1,C,,,,,,,,,,,,,,,,,,,,,,,,,,,,,,104.3,1000,100,,,,,,,,,,,,,,0.145655008
X,5,18,2023,466,93105,41.11428167,-71.23380333,179,464,2,2,7,5,3,1,3,1,C,,,,,,,,,,,,,,,,,,,,,,,,,,,,,,104.4,1000,100,,,,,,,,,,,,,,0.145442998
X,5,18,2023,467,93110,41.11183,-71.23372167,179,458,2,2,7,5,3,1,3,1,C,,,,,,,,,,,,,,,,,,,,,,,,,,,,,,105.9,1000,100,,,,,,,,,,,,,,0.147245537
X,5,18,2023,468,93115,41.10935833,-71.23365,179,454,2,2,7,5,3,1,3,1,C,,,,,,,,,,,,,,,,,,,,,,,,,,,,,,106.8,1000,100,,,,,,,,,,,,,,0.148435405
X,5,18,2023,469,93120,41.10688167,-71.23359333,179,454,2,2,7,5,3,1,3,1,C,,,,,,,,,,,,,,,,,,,,,,,,,,,,,,106.9,1000,100,,,,,,,,,,,,,,0.148722294
X,5,18,2023,470,93125,41.10442167,-71.23357167,180,454,2,2,7,5,3,1,3,1,C,,,,,,,,,,,,,,,,,,,,,,,,,,,,,,105.7,1000,100,,,,,,,,,,,,,,0.147702777
X,5,18,2023,471,93130,41.10199833,-71.23362,181,453,2,2,7,5,3,1,3,1,C,,,,,,,,,,,,,,,,,,,,,,,,,,,,,,104,1000,100,,,,,,,,,,,,,,0.145514472
X,5,18,2023,472,93130,41.10199833,-71.23362,181,453,2,2,7,5,3,1,3,1,C,,,,,,,,,,,,,,,,,,,,,,,,,,,,,,104,1000,100,,,,,,,,,,,,,,0
X,5,18,2023,473,93135,41.09958667,-71.23371667,182,449,2,2,7,5,3,1,3,1,C,,,,,,,,,,,,,,,,,,,,,,,,,,,,,,104.1,1000,100,,,,,,,,,,,,,,0.144863605
X,5,18,2023,474,93140,41.09717333,-71.23383,182,448,2,2,7,5,3,1,3,1,C,,,,,,,,,,,,,,,,,,,,,,,,,,,,,,104.5,1000,100,,,,,,,,,,,,,,0.144988343
X,5,18,2023,475,93145,41.09476333,-71.23393167,182,447,2,2,7,5,3,1,3,1,C,,,,,,,,,,,,,,,,,,,,,,,,,,,,,,104.1,1000,100,,,,,,,,,,,,,,0.144770605
X,5,18,2023,476,93150,41.092365,-71.234055,183,449,2,2,7,5,3,1,3,1,C,,,,,,,,,,,,,,,,,,,,,,,,,,,,,,103.6,1000,100,,,,,,,,,,,,,,0.14410513
X,5,18,2023,477,93155,41.09,-71.23416167,182,452,2,2,7,5,3,1,3,1,C,,,,,,,,,,,,,,,,,,,,,,,,,,,,,,101.7,1000,100,,,,,,,,,,,,,,0.142077692
X,5,18,2023,478,93200,41.08765,-71.23424,181,458,2,2,7,5,3,1,3,1,C,,,,,,,,,,,,,,,,,,,,,,,,,,,,,,100.9,1000,100,,,,,,,,,,,,,,0.141139595
X,5,18,2023,479,93205,41.08532833,-71.234275,180,466,2,2,7,5,3,1,3,1,C,,,,,,,,,,,,,,,,,,,,,,,,,,,,,,100,1000,100,,,,,,,,,,,,,,0.139402926
X,5,18,2023,480,93210,41.083015,-71.23431667,181,473,2,2,7,5,3,1,3,1,C,,,,,,,,,,,,,,,,,,,,,,,,,,,,,,99.4,1000,100,,,,,,,,,,,,,,0.13890639
X,5,18,2023,481,93215,41.080715,-71.234365,181,469,2,2,7,5,3,1,3,1,C,,,,,,,,,,,,,,,,,,,,,,,,,,,,,,99.4,1000,100,,,,,,,,,,,,,,0.138110375
X,5,18,2023,482,93220,41.07837833,-71.23443333,181,465,2,2,7,5,3,1,3,1,C,,,,,,,,,,,,,,,,,,,,,,,,,,,,,,101.2,1000,100,,,,,,,,,,,,,,0.140328618
X,5,18,2023,483,93225,41.07604333,-71.234515,182,467,2,2,7,5,3,1,3,1,C,,,,,,,,,,,,,,,,,,,,,,,,,,,,,,100.8,1000,100,,,,,,,,,,,,,,0.140243185
P,5,18,2023,484,93229,41.07434085,-71.2345895,182,468,2,2,7,5,3,1,3,1,C,14,,,FV-T,1,,,1,9,0,,,,,,,,,,,,,,,,,,,,100.4,1000,100,,,,,,,,,,,,,,0.102273208
X,5,18,2023,485,93230,41.07372,-71.23461667,182,468,2,2,7,5,3,1,3,1,C,,,,,,,,,,,,,,,,,,,,,,,,,,,,,,100.3,1000,100,,,,,,,,,,,,,,0.139569873
X,5,18,2023,486,93235,41.07137833,-71.234725,182,465,2,2,7,5,3,1,3,1,C,,,,,,,,,,,,,,,,,,,,,,,,,,,,,,101.4,1000,100,,,,,,,,,,,,,,0.140680221
X,5,18,2023,487,93240,41.06899333,-71.23476667,180,466,2,2,7,5,3,1,3,1,C,,,,,,,,,,,,,,,,,,,,,,,,,,,,,,103.3,1000,100,,,,,,,,,,,,,,0.14320891
X,5,18,2023,488,93245,41.06657833,-71.23473667,179,468,2,2,7,5,3,1,3,1,C,,,,,,,,,,,,,,,,,,,,,,,,,,,,,,104.2,1000,100,,,,,,,,,,,,,,0.145004063
X,5,18,2023,489,93250,41.06415167,-71.23474333,180,467,2,2,7,5,3,1,3,1,C,,,,,,,,,,,,,,,,,,,,,,,,,,,,,,104.7,1000,100,,,,,,,,,,,,,,0.145698489
X,5,18,2023,490,93255,41.06172667,-71.23477833,181,462,2,2,7,5,3,1,3,1,C,,,,,,,,,,,,,,,,,,,,,,,,,,,,,,105.1,1000,100,,,,,,,,,,,,,,0.14560673
X,5,18,2023,491,93300,41.05926167,-71.23483167,181,464,2,2,7,5,3,1,3,1,C,,,,,,,,,,,,,,,,,,,,,,,,,,,,,,107,1000,100,,,,,,,,,,,,,,0.148019421
X,5,18,2023,492,93300,41.05926167,-71.23483167,181,464,2,2,7,5,3,1,3,1,C,,,,,,,,,,,,,,,,,,,,,,,,,,,,,,107,1000,100,,,,,,,,,,,,,,0
X,5,18,2023,493,93305,41.056815,-71.23480333,179,479,2,2,7,5,3,1,3,1,C,,,,,,,,,,,,,,,,,,,,,,,,,,,,,,105.2,1000,100,,,,,,,,,,,,,,0.146904586
P,5,18,2023,494,93309,41.05522034,-71.23470803,178,485,2,2,7,5,3,1,3,1,C,15,,,FV-C,1,,,1,9,0,71,,,,,,,,,,,,,,,,,,,104,1000,100,,,,,,,,,,FISHING - ,,,,0.095841138
X,5,18,2023,495,93310,41.05441667,-71.23466,177,488,2,2,7,5,3,1,3,1,C,,,,,,,,,,,,,,,,,,,,,,,,,,,,,,103.4,1000,100,,,,,,,,,,,,,,0.144143182
X,5,18,2023,496,93315,41.05198833,-71.23455667,179,483,2,2,7,5,3,1,3,1,C,,,,,,,,,,,,,,,,,,,,,,,,,,,,,,106,1000,100,,,,,,,,,,,,,,0.14587329
X,5,18,2023,497,93320,41.04944333,-71.23449,179,471,2,2,7,5,3,1,3,1,C,,,,,,,,,,,,,,,,,,,,,,,,,,,,,,112,1000,100,,,,,,,,,,,,,,0.152832776
X,5,18,2023,498,93325,41.04680167,-71.23449667,181,468,2,2,7,5,3,1,3,1,C,,,,,,,,,,,,,,,,,,,,,,,,,,,,,,114.4,1000,100,,,,,,,,,,,,,,0.158607162
X,5,18,2023,499,93330,41.04416333,-71.23449667,180,461,2,2,7,5,3,1,3,1,C,,,,,,,,,,,,,,,,,,,,,,,,,,,,,,114.2,1000,100,,,,,,,,,,,,,,0.15840674
X,5,18,2023,500,93335,41.04152667,-71.23443833,179,456,2,2,7,5,3,1,3,1,C,,,,,,,,,,,,,,,,,,,,,,,,,,,,,,113.7,1000,100,,,,,,,,,,,,,,0.158328709
X,5,18,2023,501,93340,41.03888167,-71.23443167,180,452,2,2,7,5,3,1,3,1,C,,,,,,,,,,,,,,,,,,,,,,,,,,,,,,114.2,1000,100,,,,,,,,,,,,,,0.158807296
X,5,18,2023,502,93345,41.03624167,-71.23440167,179,455,2,2,7,5,3,1,3,1,C,,,,,,,,,,,,,,,,,,,,,,,,,,,,,,113.6,1000,100,,,,,,,,,,,,,,0.158512629
X,5,18,2023,503,93350,41.03363,-71.234315,178,463,2,2,7,5,3,1,3,1,C,,,,,,,,,,,,,,,,,,,,,,,,,,,,,,112.5,1000,100,,,,,,,,,,,,,,0.156854778
X,5,18,2023,504,93355,41.03105333,-71.23431667,181,478,2,2,7,5,3,1,3,1,C,,,,,,,,,,,,,,,,,,,,,,,,,,,,,,110.1,1000,100,,,,,,,,,,,,,,0.154704263
X,5,18,2023,505,93400,41.02853667,-71.23442333,182,486,2,2,7,5,3,1,3,1,C,,,,,,,,,,,,,,,,,,,,,,,,,,,,,,108.6,1000,100,,,,,,,,,,,,,,0.151179032
S,5,18,2023,506,93402,41.02775944,-71.23447146,182,487,2,2,7,5,3,1,3,1,C,16,,,FG-U,1,,,1,9,0,,,,,,,,,,,,,,,,,,,,109,1000,100,,,,,,,,,,,,,,0.04671568
X,5,18,2023,507,93405,41.02600667,-71.23458,183,490,2,2,7,5,3,1,3,1,C,,,,,,,,,,,,,,,,,,,,,,,,,,,,,,109.9,1000,100,,,,,,,,,,,,,,0.152068014
S,5,18,2023,508,93406,41.02557478,-71.23461188,183,490,2,2,7,5,3,1,3,1,C,17,,15,FG-U,1,,,1,9,0,,,,,,,,,,,,,,,,,,,,109.9,1000,100,,,,,,,,,,,,,,0.025971081
X,5,18,2023,509,93410,41.023455,-71.23476833,183,494,2,2,7,5,3,1,3,1,C,,,,,,,,,,,,,,,,,,,,,,,,,,,,,,110,1000,100,,,,,,,,,,,,,,0.153440557
X,5,18,2023,510,93415,41.020915,-71.234915,182,489,2,2,7,5,3,1,3,1,C,,,,,,,,,,,,,,,,,,,,,,,,,,,,,,110,1000,100,,,,,,,,,,,,,,0.152647407
X,5,18,2023,511,93420,41.01833333,-71.23497333,180,478,2,2,7,5,3,1,3,1,C,,,,,,,,,,,,,,,,,,,,,,,,,,,,,,112,1000,100,,,,,,,,,,,,,,0.155026969
X,5,18,2023,512,93425,41.01569167,-71.23495,179,469,2,2,7,5,3,1,3,1,C,,,,,,,,,,,,,,,,,,,,,,,,,,,,,,114.6,1000,100,,,,,,,,,,,,,,0.158610397
S,5,18,2023,513,93426,41.01511699,-71.23493064,179,469,2,2,7,5,3,1,3,1,C,18,,9,RV-L,1,,,1,9,0,,,,,,,,,,,,,,,,,,,,114.7,1000,100,,,,,,,,,,,,,,0.034515213
X,5,18,2023,514,93430,41.01302,-71.23486,178,469,2,2,7,5,3,1,3,1,C,,,,,,,,,,,,,,,,,,,,,,,,,,,,,,115.4,1000,100,,,,,,,,,,,,,,0.160459898
X,5,18,2023,515,93430,41.01302,-71.23486,178,469,2,2,7,5,3,1,3,1,C,,,,,,,,,,,,,,,,,,,,,,,,,,,,,,115.4,1000,100,,,,,,,,,,,,,,0
X,5,18,2023,516,93435,41.01035167,-71.23472333,178,464,2,2,7,5,3,1,3,1,C,,,,,,,,,,,,,,,,,,,,,,,,,,,,,,115.4,1000,100,,,,,,,,,,,,,,0.160327556
S,5,18,2023,517,93440,41.00792353,-71.23462247,179,459,2,2,7,5,3,1,3,1,C,19,,9,MV-O,1,,,1,9,0,,,,,,,,,,,,,,,,,,,,115.9,1000,100,,,,,,,,,,,,,,0.14585797
X,5,18,2023,518,93440,41.00766333,-71.23461167,179,459,2,2,7,5,3,1,3,1,C,,,,,,,,,,,,,,,,,,,,,,,,,,,,,,115.9,1000,100,,,,,,,,,,,,,,0.161488033
X,5,18,2023,519,93445,41.00498,-71.23458,180,454,2,2,7,5,3,1,3,1,C,,,,,,,,,,,,,,,,,,,,,,,,,,,,,,115.8,1000,100,,,,,,,,,,,,,,0.161114949
X,5,18,2023,520,93450,41.00228833,-71.234565,180,450,2,2,7,5,3,1,3,1,C,,,,,,,,,,,,,,,,,,,,,,,,,,,,,,116.7,1000,100,,,,,,,,,,,,,,0.161610326
X,5,18,2023,521,93455,40.99958167,-71.23456167,180,450,2,2,7,5,3,1,3,1,C,,,,,,,,,,,,,,,,,,,,,,,,,,,,,,116.7,1000,100,,,,,,,,,,,,,,0.162509574
X,5,18,2023,522,93500,40.99688833,-71.234555,180,448,2,2,7,5,3,1,3,1,C,,,,,,,,,,,,,,,,,,,,,,,,,,,,,,116,1000,100,,,,,,,,,,,,,,0.161709247
X,5,18,2023,523,93505,40.99424,-71.23456333,180,452,2,2,7,5,3,1,3,1,C,,,,,,,,,,,,,,,,,,,,,,,,,,,,,,113.9,1000,100,,,,,,,,,,,,,,0.159007593
X,5,18,2023,524,93510,40.99162667,-71.23459167,181,453,2,2,7,5,3,1,3,1,C,,,,,,,,,,,,,,,,,,,,,,,,,,,,,,112.5,1000,100,,,,,,,,,,,,,,0.156910982
X,5,18,2023,525,93515,40.98902667,-71.23459333,180,453,2,2,7,5,3,1,3,1,C,,,,,,,,,,,,,,,,,,,,,,,,,,,,,,111.6,1000,100,,,,,,,,,,,,,,0.156105207
X,5,18,2023,526,93520,40.98646333,-71.23457167,180,451,2,2,7,5,3,1,3,1,C,,,,,,,,,,,,,,,,,,,,,,,,,,,,,,110.3,1000,100,,,,,,,,,,,,,,0.153906838
X,5,18,2023,527,93525,40.98393,-71.23453333,179,450,2,2,7,5,3,1,3,1,C,,,,,,,,,,,,,,,,,,,,,,,,,,,,,,109.1,1000,100,,,,,,,,,,,,,,0.152112414
X,5,18,2023,528,93530,40.98142833,-71.23449333,179,449,2,2,7,5,3,1,3,1,C,,,,,,,,,,,,,,,,,,,,,,,,,,,,,,107.4,1000,100,,,,,,,,,,,,,,0.150212152
X,5,18,2023,529,93535,40.978955,-71.23447667,180,451,2,2,7,5,3,1,3,1,C,,,,,,,,,,,,,,,,,,,,,,,,,,,,,,106.6,1000,100,,,,,,,,,,,,,,0.148501986
X,5,18,2023,530,93540,40.97651,-71.23447667,180,456,2,2,7,5,3,1,3,1,C,,,,,,,,,,,,,,,,,,,,,,,,,,,,,,105.1,1000,100,,,,,,,,,,,,,,0.146798918
X,5,18,2023,531,93545,40.97406833,-71.23445667,180,458,2,2,7,5,3,1,3,1,C,,,,,,,,,,,,,,,,,,,,,,,,,,,,,,105.8,1000,100,,,,,,,,,,,,,,0.146601586
X,5,18,2023,532,93550,40.97163833,-71.23442333,179,463,2,2,7,5,3,1,3,1,C,,,,,,,,,,,,,,,,,,,,,,,,,,,,,,104.4,1000,100,,,,,,,,,,,,,,0.145906136
X,5,18,2023,533,93555,40.96921667,-71.23434,178,463,2,2,7,5,3,1,3,1,C,,,,,,,,,,,,,,,,,,,,,,,,,,,,,,104.5,1000,100,,,,,,,,,,,,,,0.145447043
X,5,18,2023,534,93600,40.9668,-71.234215,177,460,2,2,7,5,3,1,3,1,C,,,,,,,,,,,,,,,,,,,,,,,,,,,,,,104.2,1000,100,,,,,,,,,,,,,,0.145208391
X,5,18,2023,535,93600,40.9668,-71.234215,177,460,2,2,7,5,3,1,3,1,C,,,,,,,,,,,,,,,,,,,,,,,,,,,,,,104.2,1000,100,,,,,,,,,,,,,,0
X,5,18,2023,536,93605,40.96439333,-71.23402667,176,456,2,2,7,5,3,1,3,1,C,,,,,,,,,,,,,,,,,,,,,,,,,,,,,,104.3,1000,100,,,,,,,,,,,,,,0.144749417
X,5,18,2023,537,93610,40.96197167,-71.23385833,177,451,2,2,7,5,3,1,3,1,C,,,,,,,,,,,,,,,,,,,,,,,,,,,,,,105.6,1000,100,,,,,,,,,,,,,,0.145598138
X,5,18,2023,538,93615,40.95951667,-71.233775,179,447,2,2,7,5,3,1,3,1,C,,,,,,,,,,,,,,,,,,,,,,,,,,,,,,106.4,1000,100,,,,,,,,,,,,,,0.14744774
X,5,18,2023,539,93620,40.957055,-71.233705,178,444,2,2,7,5,3,1,3,1,C,,,,,,,,,,,,,,,,,,,,,,,,,,,,,,106.2,1000,100,,,,,,,,,,,,,,0.147833667
X,5,18,2023,540,93625,40.954605,-71.23358667,178,447,2,2,7,5,3,1,3,1,C,,,,,,,,,,,,,,,,,,,,,,,,,,,,,,105.7,1000,100,,,,,,,,,,,,,,0.147196947
X,5,18,2023,541,93630,40.952175,-71.23351833,179,453,2,2,7,5,3,1,3,1,C,,,,,,,,,,,,,,,,,,,,,,,,,,,,,,104.7,1000,100,,,,,,,,,,,,,,0.145931211
X,5,18,2023,542,93635,40.94975667,-71.23350167,180,459,2,2,7,5,3,1,3,1,C,,,,,,,,,,,,,,,,,,,,,,,,,,,,,,104.2,1000,100,,,,,,,,,,,,,,0.145199806
X,5,18,2023,543,93640,40.94735333,-71.23352833,181,462,2,2,7,5,3,1,3,1,C,,,,,,,,,,,,,,,,,,,,,,,,,,,,,,103.5,1000,100,,,,,,,,,,,,,,0.144302299
X,5,18,2023,544,93645,40.94497167,-71.23352,180,462,2,2,7,5,3,1,3,1,C,,,,,,,,,,,,,,,,,,,,,,,,,,,,,,102.4,1000,100,,,,,,,,,,,,,,0.142996855
X,5,18,2023,545,93650,40.94259167,-71.233465,179,459,2,2,7,5,3,1,3,1,C,,,,,,,,,,,,,,,,,,,,,,,,,,,,,,103.1,1000,100,,,,,,,,,,,,,,0.142918057
X,5,18,2023,546,93655,40.94020333,-71.23339833,179,458,2,2,7,5,3,1,3,1,C,,,,,,,,,,,,,,,,,,,,,,,,,,,,,,103.1,1000,100,,,,,,,,,,,,,,0.143428498
X,5,18,2023,547,93700,40.937765,-71.23336333,180,456,2,2,7,5,3,1,3,1,C,,,,,,,,,,,,,,,,,,,,,,,,,,,,,,106.2,1000,100,,,,,,,,,,,,,,0.146407254
X,5,18,2023,548,93700,40.937765,-71.23336333,180,456,2,2,7,5,3,1,3,1,C,,,,,,,,,,,,,,,,,,,,,,,,,,,,,,106.2,1000,100,,,,,,,,,,,,,,0
X,5,18,2023,549,93705,40.93528833,-71.23337333,181,458,2,2,7,5,3,1,3,1,C,,,,,,,,,,,,,,,,,,,,,,,,,,,,,,106.8,1000,100,,,,,,,,,,,,,,0.148700891
X,5,18,2023,550,93710,40.932835,-71.23339667,180,464,2,2,7,5,3,1,3,1,C,,,,,,,,,,,,,,,,,,,,,,,,,,,,,,105.6,1000,100,,,,,,,,,,,,,,0.147303057
X,5,18,2023,551,93715,40.93041667,-71.23339833,180,467,2,2,7,5,3,1,3,1,C,,,,,,,,,,,,,,,,,,,,,,,,,,,,,,104.1,1000,100,,,,,,,,,,,,,,0.145197859
X,5,18,2023,552,93720,40.928,-71.23337167,179,464,2,2,7,5,3,1,3,1,C,,,,,,,,,,,,,,,,,,,,,,,,,,,,,,104,1000,100,,,,,,,,,,,,,,0.145102814
X,5,18,2023,553,93725,40.92556667,-71.23337667,180,463,2,2,7,5,3,1,3,1,C,,,,,,,,,,,,,,,,,,,,,,,,,,,,,,105.2,1000,100,,,,,,,,,,,,,,0.146098622
X,5,18,2023,554,93730,40.92311333,-71.23339167,180,468,2,2,7,5,3,1,3,1,C,,,,,,,,,,,,,,,,,,,,,,,,,,,,,,106.2,1000,100,,,,,,,,,,,,,,0.147300827
X,5,18,2023,555,93735,40.92065,-71.23343167,181,471,2,2,7,5,3,1,3,1,C,,,,,,,,,,,,,,,,,,,,,,,,,,,,,,106.4,1000,100,,,,,,,,,,,,,,0.147910792
X,5,18,2023,556,93740,40.9182,-71.23349667,182,473,2,2,7,5,3,1,3,1,C,,,,,,,,,,,,,,,,,,,,,,,,,,,,,,105.5,1000,100,,,,,,,,,,,,,,0.147128676
S,5,18,2023,557,93745,40.91577167,-71.23364167,183,477,2,5,7,5,3,1,3,1,C,20,,,,,,,,,,,,,,,,,,,,,,,,,,,,,104.6,1000,100,,,,,,,,,,OFF TRACK,,,,0.145946589
X,5,18,2023,558,93750,40.91338167,-71.233795,182,482,3,-,,5,,,3,1,C,,,,,,,,,,,,,,,,,,,,,,,,,,,,,,102.8,1000,100,,,,,,,,,,,,,,0.143665238
X,5,18,2023,559,93754,40.91162749,-71.23371223,177,484,3,-,,5,,,3,1,C,,,,,,,,,,,,,,,,,,,,,,,,,,,,,,102.4,1000,100,,,,,,,,,,,,,,0.105388275
X,5,18,2023,560,93755,40.911015,-71.23368333,175,484,3,-,,5,,,3,1,C,,,,,,,,,,,,,,,,,,,,,,,,,,,,,,102.3,1000,100,,,,,,,,,,,,,,0.142186051
X,5,18,2023,561,93756,40.91048297,-71.23353149,173,484,3,-,,5,,,3,1,C,,,,,,,,,,,,,,,,,,,,,,,,,,,,,,102,1000,100,,,,,,,,,,,,,,0.032677702
X,5,18,2023,562,93800,40.90872,-71.23302833,165,484,3,-,,5,,,3,1,C,,,,,,,,,,,,,,,,,,,,,,,,,,,,,,101.2,1000,100,,,,,,,,,,,,,,0.140961646
X,5,18,2023,563,93800,40.90872,-71.23302833,165,484,3,-,,5,,,3,1,C,,,,,,,,,,,,,,,,,,,,,,,,,,,,,,101.2,1000,100,,,,,,,,,,,,,,0
X,5,18,2023,564,93805,40.90658333,-71.231845,154,483,3,-,,5,,,3,1,C,,,,,,,,,,,,,,,,,,,,,,,,,,,,,,100.2,1000,100,,,,,,,,,,,,,,0.139070578
X,5,18,2023,565,93810,40.904645,-71.23021333,145,477,3,-,,5,,,3,1,C,,,,,,,,,,,,,,,,,,,,,,,,,,,,,,99.4,1000,100,,,,,,,,,,,,,,0.137935147
X,5,18,2023,566,93815,40.902905,-71.22816,136,472,3,-,,5,,,3,1,C,,,,,,,,,,,,,,,,,,,,,,,,,,,,,,101.7,1000,100,,,,,,,,,,,,,,0.139986852
X,5,18,2023,567,93820,40.901405,-71.22573,127,471,3,-,,5,,,3,1,C,,,,,,,,,,,,,,,,,,,,,,,,,,,,,,102.6,1000,100,,,,,,,,,,,,,,0.14237737
X,5,18,2023,568,93825,40.90025167,-71.22307,117,479,3,-,,5,,,3,1,C,,,,,,,,,,,,,,,,,,,,,,,,,,,,,,99.1,1000,100,,,,,,,,,,,,,,0.139165299
X,5,18,2023,569,93830,40.89945667,-71.22029333,108,478,3,-,,5,,,3,1,C,,,,,,,,,,,,,,,,,,,,,,,,,,,,,,97,1000,100,,,,,,,,,,,,,,0.134747817
X,5,18,2023,570,93835,40.89901167,-71.21735167,99,468,3,-,,5,,,3,1,C,,,,,,,,,,,,,,,,,,,,,,,,,,,,,,98.9,1000,100,,,,,,,,,,,,,,0.136146998
X,5,18,2023,571,93840,40.89887167,-71.21433833,92,465,3,-,,5,,,3,1,C,,,,,,,,,,,,,,,,,,,,,,,,,,,,,,98.4,1000,100,,,,,,,,,,,,,,0.137010731
X,5,18,2023,572,93845,40.89880333,-71.211325,92,462,3,-,,5,,,3,1,C,,,,,,,,,,,,,,,,,,,,,,,,,,,,,,98.9,1000,100,,,,,,,,,,,,,,0.136814388
X,5,18,2023,573,93850,40.89872667,-71.208295,92,464,3,-,,5,,,3,1,C,,,,,,,,,,,,,,,,,,,,,,,,,,,,,,98.9,1000,100,,,,,,,,,,,,,,0.137586407
X,5,18,2023,574,93855,40.89868,-71.20530333,91,472,3,-,,5,,,3,1,C,,,,,,,,,,,,,,,,,,,,,,,,,,,,,,96.7,1000,100,,,,,,,,,,,,,,0.135798752
X,5,18,2023,575,93900,40.89867333,-71.20241333,90,472,3,-,,5,,,3,1,C,,,,,,,,,,,,,,,,,,,,,,,,,,,,,,94.2,1000,100,,,,,,,,,,,,,,0.131156602
X,5,18,2023,576,93900,40.89867333,-71.20241333,90,472,3,-,,5,,,3,1,C,,,,,,,,,,,,,,,,,,,,,,,,,,,,,,94.2,1000,100,,,,,,,,,,,,,,0
X,5,18,2023,577,93905,40.89869167,-71.19951667,90,467,3,-,,5,,,3,1,C,,,,,,,,,,,,,,,,,,,,,,,,,,,,,,95.3,1000,100,,,,,,,,,,,,,,0.131463139
X,5,18,2023,578,93910,40.89870167,-71.196635,90,465,3,-,,5,,,3,1,C,,,,,,,,,,,,,,,,,,,,,,,,,,,,,,94.2,1000,100,,,,,,,,,,,,,,0.13077914
X,5,18,2023,579,93915,40.89868167,-71.19375667,91,462,3,-,,5,,,3,1,C,,,,,,,,,,,,,,,,,,,,,,,,,,,,,,94.4,1000,100,,,,,,,,,,,,,,0.130632016
X,5,18,2023,580,93920,40.89868167,-71.19084667,90,455,3,-,,5,,,3,1,C,,,,,,,,,,,,,,,,,,,,,,,,,,,,,,95.3,1000,100,,,,,,,,,,,,,,0.132063635
X,5,18,2023,581,93925,40.89868833,-71.187905,90,459,3,-,,5,,,3,1,C,,,,,,,,,,,,,,,,,,,,,,,,,,,,,,96.2,1000,100,,,,,,,,,,,,,,0.133501347
X,5,18,2023,582,93930,40.89871,-71.18497,89,462,3,-,,5,,,3,1,C,,,,,,,,,,,,,,,,,,,,,,,,,,,,,,95.4,1000,100,,,,,,,,,,,,,,0.133204519
X,5,18,2023,583,93935,40.89875,-71.18204167,89,462,3,-,,5,,,3,1,C,,,,,,,,,,,,,,,,,,,,,,,,,,,,,,95.7,1000,100,,,,,,,,,,,,,,0.132917252
X,5,18,2023,584,93940,40.898765,-71.17915667,90,461,3,-,,5,,,3,1,C,,,,,,,,,,,,,,,,,,,,,,,,,,,,,,93.3,1000,100,,,,,,,,,,,,,,0.130932015
X,5,18,2023,585,93945,40.89876,-71.176255,90,457,3,-,,5,,,3,1,C,,,,,,,,,,,,,,,,,,,,,,,,,,,,,,94.5,1000,100,,,,,,,,,,,,,,0.131685627
X,5,18,2023,586,93950,40.89877833,-71.17333333,89,458,3,-,,5,,,3,1,C,,,,,,,,,,,,,,,,,,,,,,,,,,,,,,94.8,1000,100,,,,,,,,,,,,,,0.132597493
X,5,18,2023,587,93955,40.89879833,-71.17045,90,459,3,-,,5,,,3,1,C,,,,,,,,,,,,,,,,,,,,,,,,,,,,,,93.7,1000,100,,,,,,,,,,,,,,0.130858728
X,5,18,2023,588,94000,40.89883667,-71.16756,89,458,3,-,,5,,,3,1,C,,,,,,,,,,,,,,,,,,,,,,,,,,,,,,94.3,1000,100,,,,,,,,,,,,,,0.131175904
X,5,18,2023,589,94000,40.89883667,-71.16756,89,458,3,-,,5,,,3,1,C,,,,,,,,,,,,,,,,,,,,,,,,,,,,,,94.3,1000,100,,,,,,,,,,,,,,0
X,5,18,2023,590,94005,40.89887833,-71.164665,89,457,3,-,,5,,,3,1,C,,,,,,,,,,,,,,,,,,,,,,,,,,,,,,94.9,1000,100,,,,,,,,,,,,,,0.131406361
X,5,18,2023,591,94010,40.89892833,-71.16179333,88,463,3,-,,5,,,3,1,C,,,,,,,,,,,,,,,,,,,,,,,,,,,,,,94,1000,100,,,,,,,,,,,,,,0.1303581
X,5,18,2023,592,94015,40.89898333,-71.15894167,88,458,3,-,,5,,,3,1,C,,,,,,,,,,,,,,,,,,,,,,,,,,,,,,93.5,1000,100,,,,,,,,,,,,,,0.129457898
X,5,18,2023,593,94020,40.89906667,-71.156035,88,455,3,-,,5,,,3,1,C,,,,,,,,,,,,,,,,,,,,,,,,,,,,,,95.6,1000,100,,,,,,,,,,,,,,0.132006529
X,5,18,2023,594,94025,40.89916333,-71.15312333,88,458,3,-,,5,,,3,1,C,,,,,,,,,,,,,,,,,,,,,,,,,,,,,,94.8,1000,100,,,,,,,,,,,,,,0.132265808
X,5,18,2023,595,94030,40.89926,-71.15020333,88,454,3,-,,5,,,3,1,C,,,,,,,,,,,,,,,,,,,,,,,,,,,,,,96.3,1000,100,,,,,,,,,,,,,,0.132643438
X,5,18,2023,596,94035,40.89934,-71.14727333,88,457,3,-,,5,,,3,1,C,,,,,,,,,,,,,,,,,,,,,,,,,,,,,,95.1,1000,100,,,,,,,,,,,,,,0.13305677
X,5,18,2023,597,94040,40.899415,-71.14441667,88,462,3,-,,5,,,3,1,C,,,,,,,,,,,,,,,,,,,,,,,,,,,,,,92.8,1000,100,,,,,,,,,,,,,,0.129720042
X,5,18,2023,598,94045,40.89947167,-71.141545,89,466,3,-,,5,,,3,1,C,,,,,,,,,,,,,,,,,,,,,,,,,,,,,,94.3,1000,100,,,,,,,,,,,,,,0.130366868
X,5,18,2023,599,94050,40.89953667,-71.13865,88,464,3,-,,5,,,3,1,C,,,,,,,,,,,,,,,,,,,,,,,,,,,,,,95.1,1000,100,,,,,,,,,,,,,,0.131439211
X,5,18,2023,600,94055,40.89958333,-71.13573333,89,461,3,-,,5,,,3,1,C,,,,,,,,,,,,,,,,,,,,,,,,,,,,,,95.5,1000,100,,,,,,,,,,,,,,0.13239408
X,5,18,2023,601,94100,40.89960667,-71.13281667,90,455,3,-,,5,,,3,1,C,,,,,,,,,,,,,,,,,,,,,,,,,,,,,,95.6,1000,100,,,,,,,,,,,,,,0.132371772
X,5,18,2023,602,94105,40.89962167,-71.12990833,90,459,3,-,,5,,,3,1,C,,,,,,,,,,,,,,,,,,,,,,,,,,,,,,95.3,1000,100,,,,,,,,,,,,,,0.131989209
X,5,18,2023,603,94110,40.89965,-71.12707667,89,462,3,-,,5,,,3,1,C,,,,,,,,,,,,,,,,,,,,,,,,,,,,,,92.4,1000,100,,,,,,,,,,,,,,0.128518063
X,5,18,2023,604,94115,40.89968167,-71.12424833,89,459,3,-,,5,,,3,1,C,,,,,,,,,,,,,,,,,,,,,,,,,,,,,,92.9,1000,100,,,,,,,,,,,,,,0.128369552
X,5,18,2023,605,94120,40.89971167,-71.12140167,89,457,3,-,,5,,,3,1,C,,,,,,,,,,,,,,,,,,,,,,,,,,,,,,93.6,1000,100,,,,,,,,,,,,,,0.129199971
X,5,18,2023,606,94125,40.89973333,-71.118595,89,459,3,-,,5,,,3,1,C,,,,,,,,,,,,,,,,,,,,,,,,,,,,,,91.7,1000,100,,,,,,,,,,,,,,0.127378728
X,5,18,2023,607,94130,40.89977833,-71.11580833,89,460,3,-,,5,,,3,1,C,,,,,,,,,,,,,,,,,,,,,,,,,,,,,,91.3,1000,100,,,,,,,,,,,,,,0.12649324
X,5,18,2023,608,94130,40.89977833,-71.11580833,89,460,3,-,,5,,,3,1,C,,,,,,,,,,,,,,,,,,,,,,,,,,,,,,91.3,1000,100,,,,,,,,,,,,,,0
X,5,18,2023,609,94135,40.89985,-71.11304833,88,466,3,-,,5,,,3,1,C,,,,,,,,,,,,,,,,,,,,,,,,,,,,,,89.8,1000,100,,,,,,,,,,,,,,0.125327974
X,5,18,2023,610,94140,40.89996333,-71.11032,86,472,3,-,,5,,,3,1,C,,,,,,,,,,,,,,,,,,,,,,,,,,,,,,89.4,1000,100,,,,,,,,,,,,,,0.124003658
X,5,18,2023,611,94145,40.90032167,-71.10763333,77,470,3,-,,5,,,3,1,C,,,,,,,,,,,,,,,,,,,,,,,,,,,,,,89.3,1000,100,,,,,,,,,,,,,,0.123809106
X,5,18,2023,612,94150,40.9011,-71.10509333,64,470,3,-,,5,,,3,1,C,,,,,,,,,,,,,,,,,,,,,,,,,,,,,,89.6,1000,100,,,,,,,,,,,,,,0.124381107
X,5,18,2023,613,94155,40.902355,-71.10294333,48,466,3,-,,5,,,3,1,C,,,,,,,,,,,,,,,,,,,,,,,,,,,,,,89.6,1000,100,,,,,,,,,,,,,,0.123277376
X,5,18,2023,614,94200,40.90407167,-71.10135667,30,462,3,-,,5,,,3,1,C,,,,,,,,,,,,,,,,,,,,,,,,,,,,,,91.1,1000,100,,,,,,,,,,,,,,0.125728433
X,5,18,2023,615,94205,40.906055,-71.10050333,14,468,3,-,,5,,,3,1,C,,,,,,,,,,,,,,,,,,,,,,,,,,,,,,89.7,1000,100,,,,,,,,,,,,,,0.125218054
X,5,18,2023,616,94210,40.90808333,-71.10009833,8,476,3,-,,5,,,3,1,C,,,,,,,,,,,,,,,,,,,,,,,,,,,,,,88.2,1000,100,,,,,,,,,,,,,,0.123160906
X,5,18,2023,617,94215,40.91011167,-71.09973,8,475,3,-,,5,,,3,1,C,,,,,,,,,,,,,,,,,,,,,,,,,,,,,,88.6,1000,100,,,,,,,,,,,,,,0.122923576
X,5,18,2023,618,94220,40.91215333,-71.09939,7,472,3,-,,5,,,3,1,C,,,,,,,,,,,,,,,,,,,,,,,,,,,,,,88.8,1000,100,,,,,,,,,,,,,,0.123549556
X,5,18,2023,619,94225,40.91421667,-71.09909833,6,468,3,-,,5,,,3,1,C,,,,,,,,,,,,,,,,,,,,,,,,,,,,,,89.3,1000,100,,,,,,,,,,,,,,0.12458831
X,5,18,2023,620,94230,40.916325,-71.09900167,360,463,3,-,,5,,,3,1,C,,,,,,,,,,,,,,,,,,,,,,,,,,,,,,91.1,1000,100,,,,,,,,,,,,,,0.126661255
S,5,18,2023,621,94230,40.916325,-71.09900167,360,463,2,1,15,5,2,3,3,1,C,21,,,,,,,,,,,,,,,,,,,,,,,,,,,,,91.1,1000,100,,,,,,,,,,ON TRACK,,,,0
X,5,18,2023,622,94235,40.91835432,-71.09920093,356,461,2,2,15,5,2,3,3,1,C,,,,,,,,,,,,,,,,,,,,,,,,,,,,,,91.9,1000,100,,,,,,,,,,,,,,0.122176528
X,5,18,2023,623,94235,40.91844667,-71.09921,355,461,2,2,15,5,2,3,3,1,C,,,,,,,,,,,,,,,,,,,,,,,,,,,,,,92,1000,100,,,,,,,,,,,,,,0.127736027
X,5,18,2023,624,94240,40.92054833,-71.099325,358,462,2,2,15,5,2,3,3,1,C,,,,,,,,,,,,,,,,,,,,,,,,,,,,,,90.6,1000,100,,,,,,,,,,,,,,0.126292843
X,5,18,2023,625,94245,40.92257858,-71.09935601,360,466,2,2,15,5,2,3,3,1,C,,,,,,,,,,,,,,,,,,,,,,,,,,,,,,88.5,1000,100,,,,,,,,,,,,,,0.121904862
X,5,18,2023,626,94245,40.92262167,-71.09935667,360,466,2,2,15,5,2,3,3,1,C,,,,,,,,,,,,,,,,,,,,,,,,,,,,,,88.5,1000,100,,,,,,,,,,,,,,0.124492171
X,5,18,2023,627,94250,40.924655,-71.099375,360,467,2,2,15,5,2,3,3,1,C,,,,,,,,,,,,,,,,,,,,,,,,,,,,,,87.8,1000,100,,,,,,,,,,,,,,0.122085096
X,5,18,2023,628,94255,40.92669333,-71.099405,359,464,2,2,15,5,2,3,3,1,C,,,,,,,,,,,,,,,,,,,,,,,,,,,,,,88.3,1000,100,,,,,,,,,,,,,,0.122390032
X,5,18,2023,629,94300,40.92873,-71.09940833,360,463,2,2,15,5,2,3,3,1,C,,,,,,,,,,,,,,,,,,,,,,,,,,,,,,87.3,1000,100,,,,,,,,,,,,,,0.122282491
X,5,18,2023,630,94305,40.93075667,-71.099455,359,464,2,2,15,5,2,3,3,1,C,,,,,,,,,,,,,,,,,,,,,,,,,,,,,,88.1,1000,100,,,,,,,,,,,,,,0.121700405
X,5,18,2023,631,94310,40.93281667,-71.09948333,360,464,2,2,15,5,2,3,3,1,C,,,,,,,,,,,,,,,,,,,,,,,,,,,,,,89.4,1000,100,,,,,,,,,,,,,,0.123690019
X,5,18,2023,632,94315,40.93488833,-71.09949167,360,466,2,2,15,5,2,3,3,1,C,,,,,,,,,,,,,,,,,,,,,,,,,,,,,,89.4,1000,100,,,,,,,,,,,,,,0.124384388
X,5,18,2023,633,94320,40.93695167,-71.09954167,359,466,2,2,15,5,2,3,3,1,C,,,,,,,,,,,,,,,,,,,,,,,,,,,,,,89,1000,100,,,,,,,,,,,,,,0.123904233
X,5,18,2023,634,94325,40.93901,-71.099575,360,468,2,2,15,5,2,3,3,1,C,,,,,,,,,,,,,,,,,,,,,,,,,,,,,,88.9,1000,100,,,,,,,,,,,,,,0.123592522
X,5,18,2023,635,94330,40.94107833,-71.099595,359,465,2,2,15,5,2,3,3,1,C,,,,,,,,,,,,,,,,,,,,,,,,,,,,,,89.8,1000,100,,,,,,,,,,,,,,0.124186992
X,5,18,2023,636,94330,40.94107833,-71.099595,359,465,2,2,15,5,2,3,3,1,C,,,,,,,,,,,,,,,,,,,,,,,,,,,,,,89.8,1000,100,,,,,,,,,,,,,,0
X,5,18,2023,637,94335,40.94316833,-71.099655,359,460,2,2,15,5,2,3,3,1,C,,,,,,,,,,,,,,,,,,,,,,,,,,,,,,90.6,1000,100,,,,,,,,,,,,,,0.125514057
X,5,18,2023,638,94340,40.94529167,-71.09965,0,457,2,2,15,5,2,3,3,1,C,,,,,,,,,,,,,,,,,,,,,,,,,,,,,,92.4,1000,100,,,,,,,,,,,,,,0.127486106
X,5,18,2023,639,94345,40.94746833,-71.0997,359,457,2,2,15,5,2,3,3,1,C,,,,,,,,,,,,,,,,,,,,,,,,,,,,,,94.5,1000,100,,,,,,,,,,,,,,0.130707731
X,5,18,2023,640,94350,40.94964333,-71.099745,360,464,2,2,15,5,2,3,3,1,C,,,,,,,,,,,,,,,,,,,,,,,,,,,,,,93.7,1000,100,,,,,,,,,,,,,,0.130603938
X,5,18,2023,641,94355,40.951815,-71.099745,360,464,2,2,15,5,2,3,3,1,C,,,,,,,,,,,,,,,,,,,,,,,,,,,,,,94,1000,100,,,,,,,,,,,,,,0.130387859
X,5,18,2023,642,94400,40.95398833,-71.09976167,360,464,2,2,15,5,2,3,3,1,C,,,,,,,,,,,,,,,,,,,,,,,,,,,,,,93.9,1000,100,,,,,,,,,,,,,,0.130490116
X,5,18,2023,643,94405,40.95616167,-71.099735,0,466,2,2,15,5,2,3,3,1,C,,,,,,,,,,,,,,,,,,,,,,,,,,,,,,93.7,1000,100,,,,,,,,,,,,,,0.130493529
X,5,18,2023,644,94410,40.958325,-71.09973,0,467,2,2,15,5,2,3,3,1,C,,,,,,,,,,,,,,,,,,,,,,,,,,,,,,93,1000,100,,,,,,,,,,,,,,0.12988772
X,5,18,2023,645,94415,40.96047167,-71.09970833,1,467,2,2,15,5,2,3,3,1,C,,,,,,,,,,,,,,,,,,,,,,,,,,,,,,92.6,1000,100,,,,,,,,,,,,,,0.128890592
X,5,18,2023,646,94420,40.96261,-71.09973667,359,470,2,2,15,5,2,3,3,1,C,,,,,,,,,,,,,,,,,,,,,,,,,,,,,,92.3,1000,100,,,,,,,,,,,,,,0.128392938
X,5,18,2023,647,94425,40.96474833,-71.099745,0,470,2,2,15,5,2,3,3,1,C,,,,,,,,,,,,,,,,,,,,,,,,,,,,,,92.5,1000,100,,,,,,,,,,,,,,0.128387067
X,5,18,2023,648,94430,40.96691833,-71.09973833,360,470,2,2,15,5,2,3,3,1,C,,,,,,,,,,,,,,,,,,,,,,,,,,,,,,94.6,1000,100,,,,,,,,,,,,,,0.130288143
X,5,18,2023,649,94435,40.96915167,-71.09978833,359,468,2,2,15,5,2,3,3,1,C,,,,,,,,,,,,,,,,,,,,,,,,,,,,,,97.1,1000,100,,,,,,,,,,,,,,0.134109512
X,5,18,2023,650,94440,40.97143,-71.09978333,360,467,2,2,15,5,2,3,3,1,C,,,,,,,,,,,,,,,,,,,,,,,,,,,,,,98.7,1000,100,,,,,,,,,,,,,,0.136792363
X,5,18,2023,651,94445,40.97370333,-71.09982667,359,469,2,2,15,5,2,3,3,1,C,,,,,,,,,,,,,,,,,,,,,,,,,,,,,,97.7,1000,100,,,,,,,,,,,,,,0.136506108
X,5,18,2023,652,94450,40.97593667,-71.099815,1,473,2,2,15,5,2,3,3,1,C,,,,,,,,,,,,,,,,,,,,,,,,,,,,,,95.8,1000,100,,,,,,,,,,,,,,0.134091397
X,5,18,2023,653,94455,40.97813667,-71.09980667,360,478,2,2,15,5,2,3,3,1,C,,,,,,,,,,,,,,,,,,,,,,,,,,,,,,95.3,1000,100,,,,,,,,,,,,,,0.132089546
X,5,18,2023,654,94500,40.98035167,-71.09983333,359,474,2,2,15,5,2,3,3,1,C,,,,,,,,,,,,,,,,,,,,,,,,,,,,,,95.6,1000,100,,,,,,,,,,,,,,0.132995106
X,5,18,2023,655,94505,40.982585,-71.09982167,1,471,2,2,15,5,2,3,3,1,C,,,,,,,,,,,,,,,,,,,,,,,,,,,,,,96.7,1000,100,,,,,,,,,,,,,,0.134091397
X,5,18,2023,656,94510,40.98485,-71.09978667,0,468,2,2,15,5,2,3,3,1,C,,,,,,,,,,,,,,,,,,,,,,,,,,,,,,98.3,1000,100,,,,,,,,,,,,,,0.136000888
X,5,18,2023,657,94515,40.987145,-71.09976667,0,466,2,2,15,5,2,3,3,1,C,,,,,,,,,,,,,,,,,,,,,,,,,,,,,,99,1000,100,,,,,,,,,,,,,,0.137795831
X,5,18,2023,658,94520,40.98943667,-71.09977,360,464,2,2,15,5,2,3,3,1,C,,,,,,,,,,,,,,,,,,,,,,,,,,,,,,99,1000,100,,,,,,,,,,,,,,0.137592797
X,5,18,2023,659,94525,40.99172667,-71.099745,1,463,2,2,15,5,2,3,3,1,C,,,,,,,,,,,,,,,,,,,,,,,,,,,,,,98.8,1000,100,,,,,,,,,,,,,,0.137497315
X,5,18,2023,660,94530,40.99401,-71.09971,0,460,2,2,15,5,2,3,3,1,C,,,,,,,,,,,,,,,,,,,,,,,,,,,,,,98.4,1000,100,,,,,,,,,,,,,,0.137101553
X,5,18,2023,661,94530,40.99401,-71.09971,0,460,2,2,15,5,2,3,3,1,C,,,,,,,,,,,,,,,,,,,,,,,,,,,,,,98.4,1000,100,,,,,,,,,,,,,,0
X,5,18,2023,662,94535,40.9963,-71.0997,360,460,2,2,15,5,2,3,3,1,C,,,,,,,,,,,,,,,,,,,,,,,,,,,,,,98.9,1000,100,,,,,,,,,,,,,,0.137493394
X,5,18,2023,663,94540,40.99859,-71.09972667,360,458,2,2,15,5,2,3,3,1,C,,,,,,,,,,,,,,,,,,,,,,,,,,,,,,98.9,1000,100,,,,,,,,,,,,,,0.137497957
X,5,18,2023,664,94545,41.00087333,-71.09969667,1,458,2,2,15,5,2,3,3,1,C,,,,,,,,,,,,,,,,,,,,,,,,,,,,,,98.4,1000,100,,,,,,,,,,,,,,0.137099117
X,5,18,2023,665,94550,41.003155,-71.09969333,0,456,2,2,15,5,2,3,3,1,C,,,,,,,,,,,,,,,,,,,,,,,,,,,,,,98.8,1000,100,,,,,,,,,,,,,,0.136992393
X,5,18,2023,666,94555,41.00544333,-71.09968667,0,456,2,2,15,5,2,3,3,1,C,,,,,,,,,,,,,,,,,,,,,,,,,,,,,,98.6,1000,100,,,,,,,,,,,,,,0.137392912
X,5,18,2023,667,94600,41.00771167,-71.09968833,360,459,2,2,15,5,2,3,3,1,C,,,,,,,,,,,,,,,,,,,,,,,,,,,,,,97.5,1000,100,,,,,,,,,,,,,,0.136191791
X,5,18,2023,668,94605,41.00994667,-71.09971833,360,462,2,2,15,5,2,3,3,1,C,,,,,,,,,,,,,,,,,,,,,,,,,,,,,,96.3,1000,100,,,,,,,,,,,,,,0.134197305
X,5,18,2023,669,94610,41.01215833,-71.09971333,360,465,2,2,15,5,2,3,3,1,C,,,,,,,,,,,,,,,,,,,,,,,,,,,,,,95.4,1000,100,,,,,,,,,,,,,,0.132789671
X,5,18,2023,670,94615,41.01436333,-71.09973833,360,465,2,2,15,5,2,3,3,1,C,,,,,,,,,,,,,,,,,,,,,,,,,,,,,,95.2,1000,100,,,,,,,,,,,,,,0.132394053
X,5,18,2023,671,94620,41.01655833,-71.09972333,1,465,2,2,15,5,2,3,3,1,C,,,,,,,,,,,,,,,,,,,,,,,,,,,,,,94.7,1000,100,,,,,,,,,,,,,,0.131790555
X,5,18,2023,672,94625,41.01875,-71.09969167,0,468,2,2,15,5,2,3,3,1,C,,,,,,,,,,,,,,,,,,,,,,,,,,,,,,94.4,1000,100,,,,,,,,,,,,,,0.131596488
X,5,18,2023,673,94630,41.020945,-71.09966,1,473,2,2,15,5,2,3,3,1,C,,,,,,,,,,,,,,,,,,,,,,,,,,,,,,94.7,1000,100,,,,,,,,,,,,,,0.13179661
X,5,18,2023,674,94635,41.02314,-71.09965333,0,475,2,2,15,5,2,3,3,1,C,,,,,,,,,,,,,,,,,,,,,,,,,,,,,,95.5,1000,100,,,,,,,,,,,,,,0.131789149
X,5,18,2023,675,94640,41.02537833,-71.09966,360,475,2,2,15,5,2,3,3,1,C,,,,,,,,,,,,,,,,,,,,,,,,,,,,,,97.2,1000,100,,,,,,,,,,,,,,0.134390896
S,5,18,2023,676,94644,41.02693638,-71.09965202,114,471,2,2,15,5,2,3,4,1,C,22,,,,,,,,,,,,,,,,,,,,,,,,,,,,,98.4,1000,100,,,,,,,,,,,BSS,,,0.093546434
X,5,18,2023,677,94645,41.02765667,-71.09964833,0,469,2,2,15,5,2,3,4,1,C,,,,,,,,,,,,,,,,,,,,,,,,,,,,,,99,1000,100,,,,,,,,,,,,,,0.136793196
X,5,18,2023,678,94650,41.029965,-71.09966333,360,467,2,2,15,5,2,3,4,1,C,,,,,,,,,,,,,,,,,,,,,,,,,,,,,,99.7,1000,100,,,,,,,,,,,,,,0.138595054
X,5,18,2023,679,94655,41.032275,-71.09968,360,466,2,2,15,5,2,3,4,1,C,,,,,,,,,,,,,,,,,,,,,,,,,,,,,,99.6,1000,100,,,,,,,,,,,,,,0.13869551
X,5,18,2023,680,94700,41.034565,-71.099675,0,468,2,2,15,5,2,3,4,1,C,,,,,,,,,,,,,,,,,,,,,,,,,,,,,,98.4,1000,100,,,,,,,,,,,,,,0.137492833
X,5,18,2023,681,94700,41.034565,-71.099675,0,468,2,2,15,5,2,3,4,1,C,,,,,,,,,,,,,,,,,,,,,,,,,,,,,,98.4,1000,100,,,,,,,,,,,,,,0
X,5,18,2023,682,94705,41.036845,-71.09967167,360,466,2,2,15,5,2,3,4,1,C,,,,,,,,,,,,,,,,,,,,,,,,,,,,,,98.5,1000,100,,,,,,,,,,,,,,0.136892326
X,5,18,2023,683,94710,41.03913167,-71.09969667,0,463,2,2,15,5,2,3,4,1,C,,,,,,,,,,,,,,,,,,,,,,,,,,,,,,98.8,1000,100,,,,,,,,,,,,,,0.13729718
X,5,18,2023,684,94715,41.04141833,-71.09966667,1,462,2,2,15,5,2,3,4,1,C,,,,,,,,,,,,,,,,,,,,,,,,,,,,,,98.8,1000,100,,,,,,,,,,,,,,0.137299234
X,5,18,2023,685,94720,41.04371167,-71.09965333,360,466,2,2,15,5,2,3,4,1,C,,,,,,,,,,,,,,,,,,,,,,,,,,,,,,99.3,1000,100,,,,,,,,,,,,,,0.137694106
X,5,18,2023,686,94725,41.04600667,-71.09966167,360,464,2,2,15,5,2,3,4,1,C,,,,,,,,,,,,,,,,,,,,,,,,,,,,,,99.2,1000,100,,,,,,,,,,,,,,0.137793366
X,5,18,2023,687,94730,41.04830833,-71.099685,360,463,2,2,15,5,2,3,4,1,C,,,,,,,,,,,,,,,,,,,,,,,,,,,,,,99,1000,100,,,,,,,,,,,,,,0.138197158
X,5,18,2023,688,94735,41.05059,-71.09969333,360,465,2,2,15,5,2,3,4,1,C,,,,,,,,,,,,,,,,,,,,,,,,,,,,,,98.4,1000,100,,,,,,,,,,,,,,0.136992829
X,5,18,2023,689,94740,41.05286167,-71.09968833,0,466,2,2,15,5,2,3,4,1,C,,,,,,,,,,,,,,,,,,,,,,,,,,,,,,98,1000,100,,,,,,,,,,,,,,0.136392093
X,5,18,2023,690,94745,41.05513333,-71.099645,1,466,2,2,15,5,2,3,4,1,C,,,,,,,,,,,,,,,,,,,,,,,,,,,,,,98.2,1000,100,,,,,,,,,,,,,,0.136406016
X,5,18,2023,691,94750,41.05738833,-71.09958667,1,468,2,2,15,5,2,3,4,1,C,,,,,,,,,,,,,,,,,,,,,,,,,,,,,,97.4,1000,100,,,,,,,,,,,,,,0.135416987
X,5,18,2023,692,94755,41.05963833,-71.09960833,360,470,2,2,15,5,2,3,4,1,C,,,,,,,,,,,,,,,,,,,,,,,,,,,,,,97.2,1000,100,,,,,,,,,,,,,,0.13509459
X,5,18,2023,693,94800,41.06190667,-71.09962333,360,468,2,2,15,5,2,3,4,1,C,,,,,,,,,,,,,,,,,,,,,,,,,,,,,,98.3,1000,100,,,,,,,,,,,,,,0.136193463
X,5,18,2023,694,94800,41.06190667,-71.09962333,360,468,2,2,15,5,2,3,4,1,C,,,,,,,,,,,,,,,,,,,,,,,,,,,,,,98.3,1000,100,,,,,,,,,,,,,,0
X,5,18,2023,695,94805,41.06419,-71.09960333,0,470,2,2,15,5,2,3,4,1,C,,,,,,,,,,,,,,,,,,,,,,,,,,,,,,98.8,1000,100,,,,,,,,,,,,,,0.137095367
X,5,18,2023,696,94810,41.066485,-71.09963833,359,469,2,2,15,5,2,3,4,1,C,,,,,,,,,,,,,,,,,,,,,,,,,,,,,,99.3,1000,100,,,,,,,,,,,,,,0.137801958
X,5,18,2023,697,94815,41.06879167,-71.09966667,360,472,2,2,15,5,2,3,4,1,C,,,,,,,,,,,,,,,,,,,,,,,,,,,,,,99.6,1000,100,,,,,,,,,,,,,,0.13849926
X,5,18,2023,698,94820,41.07110333,-71.09968,360,476,2,2,15,5,2,3,4,1,C,,,,,,,,,,,,,,,,,,,,,,,,,,,,,,100,1000,100,,,,,,,,,,,,,,0.138794836
X,5,18,2023,699,94825,41.07341667,-71.09968,0,479,2,2,15,5,2,3,4,1,C,,,,,,,,,,,,,,,,,,,,,,,,,,,,,,99.8,1000,100,,,,,,,,,,,,,,0.138893591
X,5,18,2023,700,94830,41.075725,-71.09965167,0,480,2,2,15,5,2,3,4,1,C,,,,,,,,,,,,,,,,,,,,,,,,,,,,,,99.2,1000,100,,,,,,,,,,,,,,0.138599322
X,5,18,2023,701,94835,41.07801667,-71.09964667,360,480,2,2,15,5,2,3,4,1,C,,,,,,,,,,,,,,,,,,,,,,,,,,,,,,98.9,1000,100,,,,,,,,,,,,,,0.1375929
X,5,18,2023,702,94840,41.08032667,-71.09964167,0,473,2,2,15,5,2,3,4,1,C,,,,,,,,,,,,,,,,,,,,,,,,,,,,,,100.3,1000,100,,,,,,,,,,,,,,0.138693641
X,5,18,2023,703,94845,41.082675,-71.09965,359,466,2,2,15,5,2,3,4,1,C,,,,,,,,,,,,,,,,,,,,,,,,,,,,,,101.8,1000,100,,,,,,,,,,,,,,0.140995511
X,5,18,2023,704,94850,41.085035,-71.09965,0,462,2,2,15,5,2,3,4,1,C,,,,,,,,,,,,,,,,,,,,,,,,,,,,,,101.8,1000,100,,,,,,,,,,,,,,0.141695479
X,5,18,2023,705,94855,41.087395,-71.09965167,360,457,2,2,15,5,2,3,4,1,C,,,,,,,,,,,,,,,,,,,,,,,,,,,,,,102,1000,100,,,,,,,,,,,,,,0.141695499
X,5,18,2023,706,94900,41.08975333,-71.09967333,359,456,2,2,15,5,2,3,4,1,C,,,,,,,,,,,,,,,,,,,,,,,,,,,,,,101.7,1000,100,,,,,,,,,,,,,,0.141598806
X,5,18,2023,707,94900,41.08975333,-71.09967333,359,456,2,2,15,5,2,3,4,1,C,,,,,,,,,,,,,,,,,,,,,,,,,,,,,,101.7,1000,100,,,,,,,,,,,,,,0
X,5,18,2023,708,94905,41.09210167,-71.09969167,360,455,2,2,15,5,2,3,4,1,C,,,,,,,,,,,,,,,,,,,,,,,,,,,,,,101.1,1000,100,,,,,,,,,,,,,,0.140997448
X,5,18,2023,709,94910,41.09442,-71.09969333,360,458,2,2,15,5,2,3,4,1,C,,,,,,,,,,,,,,,,,,,,,,,,,,,,,,99.8,1000,100,,,,,,,,,,,,,,0.139193814
X,5,18,2023,710,94915,41.09671667,-71.099685,0,466,2,2,15,5,2,3,4,1,C,,,,,,,,,,,,,,,,,,,,,,,,,,,,,,98.7,1000,100,,,,,,,,,,,,,,0.137893432
P,5,18,2023,711,94916,41.09702159,-71.09968567,49,467,2,2,15,5,2,3,4,1,C,23,,,FV-T,1,,,1,9,0,,,,,,,,,,,,,,,,,,,,98.5,1000,100,,,,,,,,,,,,,,0.018307554
X,5,18,2023,712,94920,41.09898167,-71.09969,360,471,2,2,15,5,2,3,4,1,C,,,,,,,,,,,,,,,,,,,,,,,,,,,,,,97.6,1000,100,,,,,,,,,,,,,,0.135991824
X,5,18,2023,713,94925,41.10125167,-71.099705,360,469,2,2,15,5,2,3,4,1,C,,,,,,,,,,,,,,,,,,,,,,,,,,,,,,98.5,1000,100,,,,,,,,,,,,,,0.136293527
X,5,18,2023,714,94930,41.10354833,-71.09973,360,467,2,2,15,5,2,3,4,1,C,,,,,,,,,,,,,,,,,,,,,,,,,,,,,,99.6,1000,100,,,,,,,,,,,,,,0.137897555
X,5,18,2023,715,94935,41.10586333,-71.09974333,360,469,2,2,15,5,2,3,4,1,C,,,,,,,,,,,,,,,,,,,,,,,,,,,,,,100.2,1000,100,,,,,,,,,,,,,,0.138994967
X,5,18,2023,716,94940,41.10818333,-71.09970333,1,472,2,2,15,5,2,3,4,1,C,,,,,,,,,,,,,,,,,,,,,,,,,,,,,,100.3,1000,100,,,,,,,,,,,,,,0.139305614
X,5,18,2023,717,94945,41.11053,-71.09967,0,474,2,2,15,5,2,3,4,1,C,,,,,,,,,,,,,,,,,,,,,,,,,,,,,,101.6,1000,100,,,,,,,,,,,,,,0.140903009
X,5,18,2023,718,94950,41.112865,-71.09968333,359,476,2,2,15,5,2,3,4,1,C,,,,,,,,,,,,,,,,,,,,,,,,,,,,,,100.6,1000,100,,,,,,,,,,,,,,0.140195765
X,5,18,2023,719,94955,41.115165,-71.09969167,0,479,2,2,15,5,2,3,4,1,C,,,,,,,,,,,,,,,,,,,,,,,,,,,,,,98.8,1000,100,,,,,,,,,,,,,,0.138093566
X,5,18,2023,720,95000,41.11747,-71.09968667,360,473,2,2,15,5,2,3,4,1,C,,,,,,,,,,,,,,,,,,,,,,,,,,,,,,100,1000,100,,,,,,,,,,,,,,0.138393439
X,5,18,2023,721,95000,41.11747,-71.09968667,360,473,2,2,15,5,2,3,4,1,C,,,,,,,,,,,,,,,,,,,,,,,,,,,,,,100,1000,100,,,,,,,,,,,,,,0
X,5,18,2023,722,95005,41.11980833,-71.09975167,358,468,2,2,15,5,2,3,4,1,C,,,,,,,,,,,,,,,,,,,,,,,,,,,,,,101,1000,100,,,,,,,,,,,,,,0.140425383
X,5,18,2023,723,95010,41.12216,-71.09975167,1,465,2,2,15,5,2,3,4,1,C,,,,,,,,,,,,,,,,,,,,,,,,,,,,,,101.5,1000,100,,,,,,,,,,,,,,0.141195142
X,5,18,2023,724,95015,41.12450833,-71.09974833,360,463,2,2,15,5,2,3,4,1,C,,,,,,,,,,,,,,,,,,,,,,,,,,,,,,101.3,1000,100,,,,,,,,,,,,,,0.140995088
X,5,18,2023,725,95020,41.12683,-71.099755,360,467,2,2,15,5,2,3,4,1,C,,,,,,,,,,,,,,,,,,,,,,,,,,,,,,99.7,1000,100,,,,,,,,,,,,,,0.139394254
S,5,18,2023,726,95023,41.12801323,-71.09976952,360,468,2,2,15,5,2,3,3,1,C,24,,,,,,,,,,,,,,,,,,,,,,,,,,,,,99.6,1000,100,,,,,,,,,,,BSS,,,0.071044787
X,5,18,2023,727,95025,41.12913833,-71.09978333,360,468,2,2,15,5,2,3,3,1,C,,,,,,,,,,,,,,,,,,,,,,,,,,,,,,99.4,1000,100,,,,,,,,,,,,,,0.138599312
X,5,18,2023,728,95030,41.13144,-71.09978833,0,469,2,2,15,5,2,3,3,1,C,,,,,,,,,,,,,,,,,,,,,,,,,,,,,,99.2,1000,100,,,,,,,,,,,,,,0.138193304
X,5,18,2023,729,95035,41.13372333,-71.09977333,0,472,2,2,15,5,2,3,3,1,C,,,,,,,,,,,,,,,,,,,,,,,,,,,,,,98.2,1000,100,,,,,,,,,,,,,,0.137094055
P,5,18,2023,730,95037,41.1343162,-71.09977377,95,473,2,2,15,5,2,3,3,1,C,25,,,FG-U,4,,,1,9,9,,,,,,,,,,,,,,,,,,,,97.7,1000,100,,,,,,,,,,BEGIN FIELD OF GEAR LEFT- ,,,,0.035595888
X,5,18,2023,731,95040,41.13597,-71.099775,360,477,2,2,15,5,2,3,3,1,C,,,,,,,,,,,,,,,,,,,,,,,,,,,,,,96.5,1000,100,,,,,,,,,,,,,,0.134890915
X,5,18,2023,732,95045,41.138215,-71.09984167,358,473,2,2,15,5,2,3,3,1,C,,,,,,,,,,,,,,,,,,,,,,,,,,,,,,97.7,1000,100,,,,,,,,,,,,,,0.134824533
X,5,18,2023,733,95050,41.14049,-71.09986167,0,467,2,2,15,5,2,3,3,1,C,,,,,,,,,,,,,,,,,,,,,,,,,,,,,,98.5,1000,100,,,,,,,,,,,,,,0.136595034
X,5,18,2023,734,95055,41.1428,-71.09984333,0,460,2,2,15,5,2,3,3,1,C,,,,,,,,,,,,,,,,,,,,,,,,,,,,,,100.2,1000,100,,,,,,,,,,,,,,0.138695933
X,5,18,2023,735,95100,41.14514167,-71.09979667,1,458,2,2,15,5,2,3,3,1,C,,,,,,,,,,,,,,,,,,,,,,,,,,,,,,101.6,1000,100,,,,,,,,,,,,,,0.140610569
X,5,18,2023,736,95100,41.14514167,-71.09979667,1,458,2,2,15,5,2,3,3,1,C,,,,,,,,,,,,,,,,,,,,,,,,,,,,,,101.6,1000,100,,,,,,,,,,,,,,0
P,5,18,2023,737,95100,41.14520597,-71.09979525,1,458,2,2,15,5,2,3,3,1,C,26,,,,,,,,,,,,,,,,,,,,,,,,,,,,,101.6,1000,100,,,,,,,,,,"END FIELD, 4 PIECES - ",,,,0.00386131
X,5,18,2023,738,95105,41.147495,-71.099745,1,456,2,2,15,5,2,3,3,1,C,,,,,,,,,,,,,,,,,,,,,,,,,,,,,,101.6,1000,100,,,,,,,,,,,,,,0.141314518
X,5,18,2023,739,95110,41.149845,-71.09969333,0,454,2,2,15,5,2,3,3,1,C,,,,,,,,,,,,,,,,,,,,,,,,,,,,,,101.6,1000,100,,,,,,,,,,,,,,0.141114409
X,5,18,2023,740,95115,41.152185,-71.09970333,0,459,2,2,15,5,2,3,3,1,C,,,,,,,,,,,,,,,,,,,,,,,,,,,,,,100.9,1000,100,,,,,,,,,,,,,,0.140495397
X,5,18,2023,741,95120,41.15450667,-71.099715,360,463,2,2,15,5,2,3,3,1,C,,,,,,,,,,,,,,,,,,,,,,,,,,,,,,99.9,1000,100,,,,,,,,,,,,,,0.139394926
X,5,18,2023,742,95125,41.156815,-71.09974333,359,465,2,2,15,5,2,3,3,1,C,,,,,,,,,,,,,,,,,,,,,,,,,,,,,,99.1,1000,100,,,,,,,,,,,,,,0.138599307
X,5,18,2023,743,95130,41.15908667,-71.09972333,1,467,2,2,15,5,2,3,3,1,C,,,,,,,,,,,,,,,,,,,,,,,,,,,,,,97.6,1000,100,,,,,,,,,,,,,,0.136394902
X,5,18,2023,744,95135,41.16133,-71.09969333,0,468,2,2,15,5,2,3,3,1,C,,,,,,,,,,,,,,,,,,,,,,,,,,,,,,96.9,1000,100,,,,,,,,,,,,,,0.134697585
X,5,18,2023,745,95140,41.16357167,-71.0997,360,467,2,2,15,5,2,3,3,1,C,,,,,,,,,,,,,,,,,,,,,,,,,,,,,,96.3,1000,100,,,,,,,,,,,,,,0.134591029
X,5,18,2023,746,95145,41.16582167,-71.09969833,360,465,2,2,15,5,2,3,3,1,C,,,,,,,,,,,,,,,,,,,,,,,,,,,,,,97.5,1000,100,,,,,,,,,,,,,,0.13509105
X,5,18,2023,747,95150,41.16811167,-71.099715,360,461,2,2,15,5,2,3,3,1,C,,,,,,,,,,,,,,,,,,,,,,,,,,,,,,99.6,1000,100,,,,,,,,,,,,,,0.137494711
X,5,18,2023,748,95155,41.17042667,-71.09972833,360,459,2,2,15,5,2,3,3,1,C,,,,,,,,,,,,,,,,,,,,,,,,,,,,,,100.3,1000,100,,,,,,,,,,,,,,0.138994965
X,5,18,2023,749,95200,41.17276333,-71.09975,360,456,2,2,15,5,2,3,3,1,C,,,,,,,,,,,,,,,,,,,,,,,,,,,,,,101.2,1000,100,,,,,,,,,,,,,,0.140297952
X,5,18,2023,750,95205,41.1751,-71.099775,360,458,2,2,15,5,2,3,3,1,C,,,,,,,,,,,,,,,,,,,,,,,,,,,,,,100.8,1000,100,,,,,,,,,,,,,,0.140299084
X,5,18,2023,751,95210,41.17742,-71.099775,0,458,2,2,15,5,2,3,3,1,C,,,,,,,,,,,,,,,,,,,,,,,,,,,,,,99.5,1000,100,,,,,,,,,,,,,,0.139293861
X,5,18,2023,752,95215,41.17970667,-71.09979833,359,460,2,2,15,5,2,3,3,1,C,,,,,,,,,,,,,,,,,,,,,,,,,,,,,,98.8,1000,100,,,,,,,,,,,,,,0.137296561
X,5,18,2023,753,95220,41.18198,-71.09982333,360,463,2,2,15,5,2,3,3,1,C,,,,,,,,,,,,,,,,,,,,,,,,,,,,,,97.7,1000,100,,,,,,,,,,,,,,0.136496648
