"eventno","rectype","month","day","year","time","lat","long","heading","alt","legtype","legstage","legno","visiblty","glarel","glarer","beaufort","cloud","wx","sightno","anglel","angler","speccode","number","numcalf","anhead","photos","idrel","confidnc","b1","b2","b3","b4","b5","b6","b7","b8","b9","b10","b11","b12","b13","b14","b15","refno","stratum","utc","radalt","gpsspeed","setalt","setvel","lensfl","ggf","int","gpsq","gpssats","roll","pitch","yaw","maghead","notes","edits","glarev","ph_qual","TrackDist"
258,"S",7,23,2023,92335,41.33298652,-70.85933604,177,498,1,"-","",5,"","",2,1,"H","1","","","","","","","","","","","","","","","","","","","","","","","","","","","","",105.5,1000,100,"","","","","","","","","","","ON WATCH - ","","",0.028725278
259,"X",7,23,2023,92339,41.33101667,-70.85912,173,498,1,"-","",5,"","",2,1,"H","","","","","","","","","","","","","","","","","","","","","","","","","","","","","",105.6,1000,100,"","","","","","","","","","","","","",0.147396275
260,"X",7,23,2023,92344,41.328605,-70.8586,170,507,1,"-","",5,"","",2,1,"H","","","","","","","","","","","","","","","","","","","","","","","","","","","","","",104.6,1000,100,"","","","","","","","","","","","","",0.14668327
261,"X",7,23,2023,92344,41.328605,-70.8586,170,507,1,"-","",5,"","",2,1,"H","","","","","","","","","","","","","","","","","","","","","","","","","","","","","",104.6,1000,100,"","","","","","","","","","","","","",0
262,"X",7,23,2023,92349,41.32623833,-70.85807,171,517,1,"-","",5,"","",2,1,"H","","","","","","","","","","","","","","","","","","","","","","","","","","","","","",103.2,1000,100,"","","","","","","","","","","","","",0.144091057
263,"X",7,23,2023,92354,41.32387833,-70.857585,171,521,1,"-","",5,"","",2,1,"H","","","","","","","","","","","","","","","","","","","","","","","","","","","","","",102.5,1000,100,"","","","","","","","","","","","","",0.143373022
264,"X",7,23,2023,92359,41.32151,-70.85705333,170,522,1,"-","",5,"","",2,1,"H","","","","","","","","","","","","","","","","","","","","","","","","","","","","","",104.7,1000,100,"","","","","","","","","","","","","",0.144202502
265,"X",7,23,2023,92404,41.31912167,-70.85647,169,523,1,"-","",5,"","",2,1,"H","","","","","","","","","","","","","","","","","","","","","","","","","","","","","",105.3,1000,100,"","","","","","","","","","","","","",0.145789166
266,"X",7,23,2023,92409,41.31671667,-70.85589167,170,529,1,"-","",5,"","",2,1,"H","","","","","","","","","","","","","","","","","","","","","","","","","","","","","",105.8,1000,100,"","","","","","","","","","","","","",0.146733461
267,"X",7,23,2023,92414,41.31432167,-70.85540167,172,537,1,"-","",5,"","",2,1,"H","","","","","","","","","","","","","","","","","","","","","","","","","","","","","",104.8,1000,100,"","","","","","","","","","","","","",0.14548476
268,"X",7,23,2023,92419,41.31192,-70.85494167,172,538,1,"-","",5,"","",2,1,"H","","","","","","","","","","","","","","","","","","","","","","","","","","","","","",104.6,1000,100,"","","","","","","","","","","","","",0.145681724
269,"X",7,23,2023,92424,41.309495,-70.85445667,171,528,1,"-","",5,"","",2,1,"H","","","","","","","","","","","","","","","","","","","","","","","","","","","","","",108.7,1000,100,"","","","","","","","","","","","","",0.147231907
270,"X",7,23,2023,92429,41.30698167,-70.85395667,173,527,1,"-","",5,"","",2,1,"H","","","","","","","","","","","","","","","","","","","","","","","","","","","","","",111.2,1000,100,"","","","","","","","","","","","","",0.1525773
271,"X",7,23,2023,92434,41.30444667,-70.85368333,178,531,1,"-","",5,"","",2,1,"H","","","","","","","","","","","","","","","","","","","","","","","","","","","","","",109.7,1000,100,"","","","","","","","","","","","","",0.152701007
272,"X",7,23,2023,92439,41.301945,-70.853695,181,539,1,"-","",5,"","",2,1,"H","","","","","","","","","","","","","","","","","","","","","","","","","","","","","",107.5,1000,100,"","","","","","","","","","","","","",0.150202132
273,"X",7,23,2023,92444,41.29949,-70.85369667,178,545,1,"-","",5,"","",2,1,"H","","","","","","","","","","","","","","","","","","","","","","","","","","","","","",105.8,1000,100,"","","","","","","","","","","","","",0.147399342
274,"X",7,23,2023,92444,41.29949,-70.85369667,178,545,1,"-","",5,"","",2,1,"H","","","","","","","","","","","","","","","","","","","","","","","","","","","","","",105.8,1000,100,"","","","","","","","","","","","","",0
275,"X",7,23,2023,92449,41.297055,-70.85356333,177,542,1,"-","",5,"","",2,1,"H","","","","","","","","","","","","","","","","","","","","","","","","","","","","","",106.7,1000,100,"","","","","","","","","","","","","",0.14632217
276,"X",7,23,2023,92454,41.29454667,-70.85347,180,529,1,"-","",5,"","",2,1,"H","","","","","","","","","","","","","","","","","","","","","","","","","","","","","",110.3,1000,100,"","","","","","","","","","","","","",0.150660318
277,"X",7,23,2023,92459,41.29196,-70.85346167,179,528,1,"-","",5,"","",2,1,"H","","","","","","","","","","","","","","","","","","","","","","","","","","","","","",112.1,1000,100,"","","","","","","","","","","","","",0.155305104
278,"S",7,23,2023,92501,41.29111351,-70.85343487,179,528,1,"-","",5,"","",2,1,"H","2","","","RECV","1","","","1","9","0","","","","","","","","","","","","","","","","","","","",111.7,1000,100,"","","","","","","","","","","","","",0.050837991
279,"X",7,23,2023,92504,41.28938,-70.85338,178,528,1,"-","",5,"","",2,1,"H","","","","","","","","","","","","","","","","","","","","","","","","","","","","","",111,1000,100,"","","","","","","","","","","","","",0.154948185
280,"X",7,23,2023,92509,41.28678833,-70.853325,181,518,1,"-","",5,"","",2,1,"H","","","","","","","","","","","","","","","","","","","","","","","","","","","","","",113.9,1000,100,"","","","","","","","","","","","","",0.155624634
281,"S",7,23,2023,92510,41.28628114,-70.85333576,181,516,2,"1","11",5,"3","1",2,1,"H","3","","","","","","","","","","","","","","","","","","","","","","","","","","","","",114.4,1000,100,"","","","","","","","","","","","","",0.03045615
282,"X",7,23,2023,92514,41.28411667,-70.85338167,180,508,2,"2","11",5,"3","1",2,1,"H","","","","","","","","","","","","","","","","","","","","","","","","","","","","","",116.4,1000,100,"","","","","","","","","","","","","",0.16042846
283,"X",7,23,2023,92519,41.28141333,-70.85336333,180,507,2,"2","11",5,"3","1",2,1,"H","","","","","","","","","","","","","","","","","","","","","","","","","","","","","",116.2,1000,100,"","","","","","","","","","","","","",0.162311477
284,"X",7,23,2023,92520,41.28081977,-70.85336888,180,508,2,"2","11",5,"3","1",2,1,"H","","","","","","","","","","","","","","","","","","","","","","","","","","","","","",115.8,1000,100,"","","","","","","","","","","","","",0.035638473
285,"X",7,23,2023,92524,41.27873833,-70.85338833,181,513,2,"2","11",5,"3","1",2,1,"H","","","","","","","","","","","","","","","","","","","","","","","","","","","","","",114.4,1000,100,"","","","","","","","","","","","","",0.160612184
286,"X",7,23,2023,92529,41.27612,-70.85349,182,519,2,"2","11",5,"3","1",2,1,"H","","","","","","","","","","","","","","","","","","","","","","","","","","","","","",112,1000,100,"","","","","","","","","","","","","",0.157272848
287,"X",7,23,2023,92534,41.27355333,-70.85355,180,517,2,"2","11",5,"3","1",2,1,"H","","","","","","","","","","","","","","","","","","","","","","","","","","","","","",110.9,1000,100,"","","","","","","","","","","","","",0.154127621
288,"X",7,23,2023,92539,41.27098167,-70.85360333,182,506,2,"2","11",5,"3","1",2,1,"H","","","","","","","","","","","","","","","","","","","","","","","","","","","","","",112.6,1000,100,"","","","","","","","","","","","","",0.154422798
289,"X",7,23,2023,92544,41.26834333,-70.85372667,182,494,2,"2","11",5,"3","1",2,1,"H","","","","","","","","","","","","","","","","","","","","","","","","","","","","","",115.4,1000,100,"","","","","","","","","","","","","",0.158504486
290,"X",7,23,2023,92544,41.26834333,-70.85372667,182,494,2,"2","11",5,"3","1",2,1,"H","","","","","","","","","","","","","","","","","","","","","","","","","","","","","",115.4,1000,100,"","","","","","","","","","","","","",0
291,"S",7,23,2023,92546,41.26721616,-70.85377366,182,491,2,"2","11",5,"3","1",2,1,"H","4","","","FG-U","1","","","1","9","0","","","","","","","","","","","","","","","","","","","",115.6,1000,100,"","","","","","","","","","FOG - ","","","",0.067709509
292,"X",7,23,2023,92549,41.265665,-70.85383833,181,486,2,"2","11",5,"3","1",2,1,"H","","","","","","","","","","","","","","","","","","","","","","","","","","","","","",115.9,1000,100,"","","","","","","","","","","","","",0.160887301
293,"X",7,23,2023,92554,41.26298833,-70.85383667,179,488,2,"2","11",5,"3","1",2,1,"H","","","","","","","","","","","","","","","","","","","","","","","","","","","","","",114.9,1000,100,"","","","","","","","","","","","","",0.160708308
294,"X",7,23,2023,92559,41.26034,-70.85378,179,492,2,"2","11",5,"3","1",2,1,"H","","","","","","","","","","","","","","","","","","","","","","","","","","","","","",113.3,1000,100,"","","","","","","","","","","","","",0.159027711
295,"X",7,23,2023,92604,41.25774,-70.85372667,179,495,2,"2","11",5,"3","1",2,1,"H","","","","","","","","","","","","","","","","","","","","","","","","","","","","","",111.1,1000,100,"","","","","","","","","","","","","",0.156123747
296,"X",7,23,2023,92609,41.25521,-70.85373333,181,497,2,"2","11",5,"3","1",2,1,"H","","","","","","","","","","","","","","","","","","","","","","","","","","","","","",108.8,1000,100,"","","","","","","","","","","","","",0.151902655
297,"X",7,23,2023,92614,41.25271167,-70.85381667,182,494,2,"2","11",5,"3","1",2,1,"H","","","","","","","","","","","","","","","","","","","","","","","","","","","","","",108.4,1000,100,"","","","","","","","","","","","","",0.150048231
298,"X",7,23,2023,92619,41.25020167,-70.85393667,182,486,2,"2","11",5,"3","1",2,1,"H","","","","","","","","","","","","","","","","","","","","","","","","","","","","","",109.5,1000,100,"","","","","","","","","","","","","",0.150798866
299,"X",7,23,2023,92624,41.24766667,-70.85402333,181,478,2,"2","11",5,"3","1",2,1,"H","","","","","","","","","","","","","","","","","","","","","","","","","","","","","",109.9,1000,100,"","","","","","","","","","","","","",0.152252832
300,"X",7,23,2023,92629,41.24511833,-70.85408,181,472,2,"2","11",5,"3","1",2,1,"H","","","","","","","","","","","","","","","","","","","","","","","","","","","","","",110.1,1000,100,"","","","","","","","","","","","","",0.153024482
301,"S",7,23,2023,92630,41.24482965,-70.85408459,181,472,2,"2","11",5,"3","1",2,1,"H","5","","","FV-F","1","","","1","9","0","","","","","","","","","","","","","","","","","","","",109.8,1000,100,"","","","","","","","","","","","","",0.017333785
302,"X",7,23,2023,92634,41.242605,-70.85412,181,472,2,"2","11",5,"3","1",2,1,"H","","","","","","","","","","","","","","","","","","","","","","","","","","","","","",107.3,1000,100,"","","","","","","","","","","","","",0.150912487
303,"X",7,23,2023,92639,41.24015667,-70.85414167,180,477,2,"2","11",5,"3","1",2,1,"H","","","","","","","","","","","","","","","","","","","","","","","","","","","","","",104.3,1000,100,"","","","","","","","","","","","","",0.147002307
304,"X",7,23,2023,92644,41.23777167,-70.85414833,180,477,2,"2","11",5,"3","1",2,1,"H","","","","","","","","","","","","","","","","","","","","","","","","","","","","","",102.8,1000,100,"","","","","","","","","","","","","",0.143196807
305,"X",7,23,2023,92644,41.23777167,-70.85414833,180,477,2,"2","11",5,"3","1",2,1,"H","","","","","","","","","","","","","","","","","","","","","","","","","","","","","",102.8,1000,100,"","","","","","","","","","","","","",0
306,"P",7,23,2023,92647,41.23657809,-70.85416916,181,475,2,"2","11",5,"3","1",2,1,"H","6","","","RECV","19","","","1","9","0","","","","","","","","","","","","","","","","","","","",102.9,1000,100,"","","","","","","","","","NE LOBST - ","","","",0.071669089
307,"X",7,23,2023,92649,41.23538333,-70.85419,181,474,2,"2","11",5,"3","1",2,1,"H","","","","","","","","","","","","","","","","","","","","","","","","","","","","","",103.1,1000,100,"","","","","","","","","","","","","",0.143408965
308,"X",7,23,2023,92654,41.233015,-70.85421833,180,480,2,"2","11",5,"3","1",2,1,"H","","","","","","","","","","","","","","","","","","","","","","","","","","","","","",101,1000,100,"","","","","","","","","","","","","",0.142201571
309,"X",7,23,2023,92659,41.23071333,-70.85416667,178,486,2,"2","11",5,"3","1",2,1,"H","","","","","","","","","","","","","","","","","","","","","","","","","","","","","",97.8,1000,100,"","","","","","","","","","","","","",0.138212809
310,"X",7,23,2023,92704,41.22845333,-70.854085,179,486,2,"2","11",5,"3","1",2,1,"H","","","","","","","","","","","","","","","","","","","","","","","","","","","","","",98,1000,100,"","","","","","","","","","","","","",0.135741533
311,"X",7,23,2023,92709,41.22617667,-70.85408833,181,484,2,"2","11",5,"3","1",2,1,"H","","","","","","","","","","","","","","","","","","","","","","","","","","","","","",99,1000,100,"","","","","","","","","","","","","",0.13669219
312,"X",7,23,2023,92714,41.22388,-70.85410333,180,483,2,"2","11",5,"3","1",2,1,"H","","","","","","","","","","","","","","","","","","","","","","","","","","","","","",99.5,1000,100,"","","","","","","","","","","","","",0.13789458
313,"X",7,23,2023,92714,41.22388,-70.85410333,180,483,2,"2","11",5,"3","1",2,1,"H","","","","","","","","","","","","","","","","","","","","","","","","","","","","","",99.5,1000,100,"","","","","","","","","","","","","",0
314,"S",7,23,2023,92718,41.22201096,-70.85405047,179,486,2,"2","11",5,"3","1",2,1,"H","7","","","RECV","7","","","1","9","0","","","","","","","","","","","","","","","","","","","",98.9,1000,100,"","","","","","","","","","","","","",0.112243434
315,"X",7,23,2023,92719,41.22158167,-70.85403833,179,487,2,"2","11",5,"3","1",2,1,"H","","","","","","","","","","","","","","","","","","","","","","","","","","","","","",98.7,1000,100,"","","","","","","","","","","","","",0.138024201
316,"X",7,23,2023,92724,41.2193,-70.85401167,180,491,2,"2","11",5,"3","1",2,1,"H","","","","","","","","","","","","","","","","","","","","","","","","","","","","","",97.8,1000,100,"","","","","","","","","","","","","",0.136997603
317,"X",7,23,2023,92729,41.21703167,-70.85403333,180,492,2,"2","11",5,"3","1",2,1,"H","","","","","","","","","","","","","","","","","","","","","","","","","","","","","",98.3,1000,100,"","","","","","","","","","","","","",0.136195286
318,"X",7,23,2023,92734,41.21476333,-70.85404833,180,489,2,"2","11",5,"3","1",2,1,"H","","","","","","","","","","","","","","","","","","","","","","","","","","","","","",98.3,1000,100,"","","","","","","","","","","","","",0.136193455
319,"X",7,23,2023,92739,41.21248833,-70.85405167,181,488,2,"2","11",5,"3","1",2,1,"H","","","","","","","","","","","","","","","","","","","","","","","","","","","","","",98.2,1000,100,"","","","","","","","","","","","","",0.136592123
320,"X",7,23,2023,92744,41.21021333,-70.85414833,182,490,2,"2","11",5,"3","1",2,1,"H","","","","","","","","","","","","","","","","","","","","","","","","","","","","","",98,1000,100,"","","","","","","","","","","","","",0.136661805
321,"P",7,23,2023,92745,41.20965071,-70.85416868,182,491,2,"2","11",5,"3","1",2,1,"H","8","","","RECV","1","","","1","9","0","","","","","","","","","","","","","","","","","","","",97.9,1000,100,"","","","","","","","","","","","","",0.03379253
322,"X",7,23,2023,92749,41.207955,-70.85423,181,492,2,"2","11",5,"3","1",2,1,"H","","","","","","","","","","","","","","","","","","","","","","","","","","","","","",97.8,1000,100,"","","","","","","","","","","","","",0.135641534
323,"X",7,23,2023,92754,41.20569667,-70.85421333,179,491,2,"2","11",5,"3","1",2,1,"H","","","","","","","","","","","","","","","","","","","","","","","","","","","","","",97.9,1000,100,"","","","","","","","","","","","","",0.135593456
324,"X",7,23,2023,92759,41.20344167,-70.85420167,181,489,2,"2","11",5,"3","1",2,1,"H","","","","","","","","","","","","","","","","","","","","","","","","","","","","","",98,1000,100,"","","","","","","","","","","","","",0.135392257
325,"X",7,23,2023,92804,41.20119167,-70.85434833,184,492,2,"2","11",5,"3","1",2,1,"H","","","","","","","","","","","","","","","","","","","","","","","","","","","","","",96.7,1000,100,"","","","","","","","","","","","","",0.135253403
326,"X",7,23,2023,92809,41.19898167,-70.8546,185,495,2,"2","11",5,"3","1",2,1,"H","","","","","","","","","","","","","","","","","","","","","","","","","","","","","",95.2,1000,100,"","","","","","","","","","","","","",0.133175584
327,"X",7,23,2023,92814,41.19678667,-70.8548,183,496,2,"2","11",5,"3","1",2,1,"H","","","","","","","","","","","","","","","","","","","","","","","","","","","","","",95.3,1000,100,"","","","","","","","","","","","","",0.13209817
328,"X",7,23,2023,92814,41.19678667,-70.8548,183,496,2,"2","11",5,"3","1",2,1,"H","","","","","","","","","","","","","","","","","","","","","","","","","","","","","",95.3,1000,100,"","","","","","","","","","","","","",0
329,"X",7,23,2023,92819,41.19456833,-70.85492833,181,492,2,"2","11",5,"3","1",2,1,"H","","","","","","","","","","","","","","","","","","","","","","","","","","","","","",97.1,1000,100,"","","","","","","","","","","","","",0.133315882
330,"X",7,23,2023,92824,41.19231,-70.85494667,179,489,2,"2","11",5,"3","1",2,1,"H","","","","","","","","","","","","","","","","","","","","","","","","","","","","","",98.2,1000,100,"","","","","","","","","","","","","",0.135593896
331,"X",7,23,2023,92829,41.19003333,-70.854915,180,494,2,"2","11",5,"3","1",2,1,"H","","","","","","","","","","","","","","","","","","","","","","","","","","","","","",98.3,1000,100,"","","","","","","","","","","","","",0.136699595
332,"X",7,23,2023,92834,41.18778667,-70.85492833,180,500,2,"2","11",5,"3","1",2,1,"H","","","","","","","","","","","","","","","","","","","","","","","","","","","","","",96.4,1000,100,"","","","","","","","","","","","","",0.134892239
333,"X",7,23,2023,92839,41.18555833,-70.854925,179,504,2,"2","11",5,"3","1",2,1,"H","","","","","","","","","","","","","","","","","","","","","","","","","","","","","",96.2,1000,100,"","","","","","","","","","","","","",0.133790237
334,"X",7,23,2023,92844,41.18332667,-70.85484167,178,505,2,"2","11",5,"3","1",2,1,"H","","","","","","","","","","","","","","","","","","","","","","","","","","","","","",96.9,1000,100,"","","","","","","","","","","","","",0.134043187
335,"X",7,23,2023,92849,41.181085,-70.85479833,180,505,2,"2","11",5,"3","1",2,1,"H","","","","","","","","","","","","","","","","","","","","","","","","","","","","","",96.9,1000,100,"","","","","","","","","","","","","",0.134604935
336,"X",7,23,2023,92854,41.17883667,-70.854865,182,506,2,"2","11",5,"3","1",2,1,"H","","","","","","","","","","","","","","","","","","","","","","","","","","","","","",97.4,1000,100,"","","","","","","","","","","","","",0.135024573
337,"X",7,23,2023,92859,41.17659,-70.85495,181,507,2,"2","11",5,"3","1",2,1,"H","","","","","","","","","","","","","","","","","","","","","","","","","","","","","",97.3,1000,100,"","","","","","","","","","","","","",0.134945575
338,"X",7,23,2023,92904,41.174355,-70.85502333,182,509,2,"2","11",5,"3","1",2,1,"H","","","","","","","","","","","","","","","","","","","","","","","","","","","","","",96.7,1000,100,"","","","","","","","","","","","","",0.13423134
339,"X",7,23,2023,92909,41.17212667,-70.85511,181,510,2,"2","11",5,"3","1",2,1,"H","","","","","","","","","","","","","","","","","","","","","","","","","","","","","",97.1,1000,100,"","","","","","","","","","","","","",0.133847473
340,"X",7,23,2023,92914,41.16989,-70.85510667,179,511,2,"2","11",5,"3","1",2,1,"H","","","","","","","","","","","","","","","","","","","","","","","","","","","","","",96.6,1000,100,"","","","","","","","","","","","","",0.134290574
341,"X",7,23,2023,92914,41.16989,-70.85510667,179,511,2,"2","11",5,"3","1",2,1,"H","","","","","","","","","","","","","","","","","","","","","","","","","","","","","",96.6,1000,100,"","","","","","","","","","","","","",0
342,"X",7,23,2023,92919,41.16765167,-70.85505833,179,512,2,"2","11",5,"3","1",2,1,"H","","","","","","","","","","","","","","","","","","","","","","","","","","","","","",97.1,1000,100,"","","","","","","","","","","","","",0.13440831
343,"X",7,23,2023,92924,41.1654,-70.85503167,180,514,2,"2","11",5,"3","1",2,1,"H","","","","","","","","","","","","","","","","","","","","","","","","","","","","","",97,1000,100,"","","","","","","","","","","","","",0.135196469
344,"X",7,23,2023,92929,41.163165,-70.85500167,179,515,2,"2","11",5,"3","1",2,1,"H","","","","","","","","","","","","","","","","","","","","","","","","","","","","","",96.6,1000,100,"","","","","","","","","","","","","",0.134197273
345,"X",7,23,2023,92934,41.16091833,-70.85492833,179,514,2,"2","11",5,"3","1",2,1,"H","","","","","","","","","","","","","","","","","","","","","","","","","","","","","",97.8,1000,100,"","","","","","","","","","","","","",0.134931616
346,"X",7,23,2023,92939,41.15863333,-70.85483667,178,509,2,"2","11",5,"3","1",2,1,"H","","","","","","","","","","","","","","","","","","","","","","","","","","","","","",99.7,1000,100,"","","","","","","","","","","","","",0.137255005
347,"P",7,23,2023,92942,41.15736754,-70.85478935,178,509,2,"2","11",5,"3","1",2,1,"H","9","14","","HUWH","5","","","1","3","0","54","","","","","","","","","","","","","","","","","","",99.9,1000,100,"","","","","","","","","","TWO GROUPS OF 2 AND ONE SINGLE - ","","","",0.076028825
348,"X",7,23,2023,92944,41.156315,-70.85475,178,509,2,"2","11",5,"3","1",2,1,"H","","","","","","","","","","","","","","","","","","","","","","","","","","","","","",100.1,1000,100,"","","","","","","","","","","","","",0.139248916
349,"X",7,23,2023,92944,41.156315,-70.85475,178,509,2,"2","11",5,"3","1",2,1,"H","","","","","","","","","","","","","","","","","","","","","","","","","","","","","",100.1,1000,100,"","","","","","","","","","","","","",0
350,"X",7,23,2023,92949,41.154,-70.85462,177,510,2,"2","11",5,"3","1",2,1,"H","","","","","","","","","","","","","","","","","","","","","","","","","","","","","",100,1000,100,"","","","","","","","","","","","","",0.139117842
351,"X",7,23,2023,92954,41.151655,-70.85447167,178,504,2,"2","11",5,"3","1",2,1,"H","","","","","","","","","","","","","","","","","","","","","","","","","","","","","",102.4,1000,100,"","","","","","","","","","","","","",0.140954476
352,"P",7,23,2023,92956,41.15048955,-70.85444089,179,500,2,"2","11",5,"3","1",2,1,"H","10","10","","HUWH","1","","","1","3","0","","","","","","","","","","","","","","","","","","","",103.7,1000,100,"","","","","","","","","","DELETE THIS? - ","","","",0.069987878
353,"X",7,23,2023,92959,41.14925667,-70.85440833,179,497,2,"2","11",5,"3","1",2,1,"H","","","","","","","","","","","","","","","","","","","","","","","","","","","","","",105,1000,100,"","","","","","","","","","","","","",0.144025494
354,"S",7,23,2023,93002,41.14797743,-70.8543423,177,497,2,"3","11",5,"3","1",2,1,"H","11","","","","","","","","","","","","","","","","","","","","","","","","","","","","",104.2,1000,100,"","","","","","","","","","","BREAK - ","","",0.076863757
355,"X",7,23,2023,93004,41.146835,-70.85428333,175,498,4,"-","11",5,"3","1",2,1,"H","","","","","","","","","","","","","","","","","","","","","","","","","","","","","",103.6,1000,100,"","","","","","","","","","","","","",0.145507763
356,"X",7,23,2023,93005,41.14657103,-70.85422509,174,498,4,"-","",5,"","",2,1,"H","","","","","","","","","","","","","","","","","","","","","","","","","","","","","",103.5,1000,100,"","","","","","","","","","","","","",0.016066061
357,"X",7,23,2023,93009,41.14447833,-70.85376333,165,497,4,"-","",5,"","",2,1,"H","","","","","","","","","","","","","","","","","","","","","","","","","","","","","",103.2,1000,100,"","","","","","","","","","","","","",0.143435295
358,"X",7,23,2023,93014,41.142265,-70.852595,151,490,4,"-","",5,"","",2,1,"H","","","","","","","","","","","","","","","","","","","","","","","","","","","","","",103.6,1000,100,"","","","","","","","","","","","","",0.143004069
359,"X",7,23,2023,93019,41.14034,-70.85074833,139,489,4,"-","",5,"","",2,1,"H","","","","","","","","","","","","","","","","","","","","","","","","","","","","","",101.8,1000,100,"","","","","","","","","","","","","",0.142584207
360,"X",7,23,2023,93024,41.13874667,-70.84848667,128,498,4,"-","",5,"","",2,1,"H","","","","","","","","","","","","","","","","","","","","","","","","","","","","","",98.6,1000,100,"","","","","","","","","","","","","",0.140035702
361,"X",7,23,2023,93029,41.137565,-70.84595667,116,503,4,"-","",5,"","",2,1,"H","","","","","","","","","","","","","","","","","","","","","","","","","","","","","",95.8,1000,100,"","","","","","","","","","","","","",0.134615384
362,"X",7,23,2023,93034,41.13691,-70.84319167,101,502,4,"-","",5,"","",2,1,"H","","","","","","","","","","","","","","","","","","","","","","","","","","","","","",93.6,1000,100,"","","","","","","","","","","","","",0.131068501
363,"X",7,23,2023,93039,41.13717667,-70.84031167,71,490,4,"-","",5,"","",2,1,"H","","","","","","","","","","","","","","","","","","","","","","","","","","","","","",95.2,1000,100,"","","","","","","","","","","","","",0.131210549
364,"X",7,23,2023,93044,41.13832,-70.83783167,52,489,4,"-","",5,"","",2,1,"H","","","","","","","","","","","","","","","","","","","","","","","","","","","","","",92.9,1000,100,"","","","","","","","","","","","","",0.131483785
365,"X",7,23,2023,93044,41.13832,-70.83783167,52,489,4,"-","",5,"","",2,1,"H","","","","","","","","","","","","","","","","","","","","","","","","","","","","","",92.9,1000,100,"","","","","","","","","","","","","",0
366,"X",7,23,2023,93049,41.13971667,-70.83566333,50,489,4,"-","",5,"","",2,1,"H","","","","","","","","","","","","","","","","","","","","","","","","","","","","","",91.5,1000,100,"","","","","","","","","","","","","",0.129015541
367,"X",7,23,2023,93054,41.14112,-70.833495,48,485,4,"-","",5,"","",2,1,"H","","","","","","","","","","","","","","","","","","","","","","","","","","","","","",93.6,1000,100,"","","","","","","","","","","","","",0.129274476
368,"X",7,23,2023,93059,41.14267333,-70.83148833,43,481,4,"-","",5,"","",2,1,"H","","","","","","","","","","","","","","","","","","","","","","","","","","","","","",94,1000,100,"","","","","","","","","","","","","",0.130116498
369,"X",7,23,2023,93104,41.14416833,-70.82938333,51,477,4,"-","",5,"","",2,1,"H","","","","","","","","","","","","","","","","","","","","","","","","","","","","","",94.7,1000,100,"","","","","","","","","","","","","",0.130826073
370,"X",7,23,2023,93109,41.14546333,-70.82701,57,474,4,"-","",5,"","",2,1,"H","","","","","","","","","","","","","","","","","","","","","","","","","","","","","",96.2,1000,100,"","","","","","","","","","","","","",0.132514585
371,"X",7,23,2023,93114,41.14677,-70.82462,50,473,4,"-","",5,"","",2,1,"H","","","","","","","","","","","","","","","","","","","","","","","","","","","","","",95.5,1000,100,"","","","","","","","","","","","","",0.133534116
372,"X",7,23,2023,93119,41.148345,-70.822585,39,470,4,"-","",5,"","",2,1,"H","","","","","","","","","","","","","","","","","","","","","","","","","","","","","",94.9,1000,100,"","","","","","","","","","","","","",0.131936714
373,"X",7,23,2023,93124,41.15033833,-70.82117,24,460,4,"-","",5,"","",2,1,"H","","","","","","","","","","","","","","","","","","","","","","","","","","","","","",97.2,1000,100,"","","","","","","","","","","","","",0.135705358
374,"X",7,23,2023,93129,41.15262,-70.82052333,6,455,4,"-","",5,"","",2,1,"H","","","","","","","","","","","","","","","","","","","","","","","","","","","","","",99.7,1000,100,"","","","","","","","","","","","","",0.14007705
375,"X",7,23,2023,93134,41.15486667,-70.82048833,357,469,4,"-","",5,"","",2,1,"H","","","","","","","","","","","","","","","","","","","","","","","","","","","","","",94.3,1000,100,"","","","","","","","","","","","","",0.134900173
376,"X",7,23,2023,93139,41.156965,-70.82095833,344,480,4,"-","",5,"","",2,1,"H","","","","","","","","","","","","","","","","","","","","","","","","","","","","","",91.4,1000,100,"","","","","","","","","","","","","",0.127763906
377,"X",7,23,2023,93144,41.15884833,-70.82211667,327,490,4,"-","",5,"","",2,1,"H","","","","","","","","","","","","","","","","","","","","","","","","","","","","","",89.1,1000,100,"","","","","","","","","","","","","",0.124611305
378,"X",7,23,2023,93149,41.16040833,-70.82397833,308,488,4,"-","",5,"","",2,1,"H","","","","","","","","","","","","","","","","","","","","","","","","","","","","","",92.4,1000,100,"","","","","","","","","","","","","",0.12591486
379,"X",7,23,2023,93154,41.16140833,-70.82655167,289,481,4,"-","",5,"","",2,1,"H","","","","","","","","","","","","","","","","","","","","","","","","","","","","","",96.2,1000,100,"","","","","","","","","","","","","",0.130902022
380,"X",7,23,2023,93159,41.16176667,-70.829545,272,489,4,"-","",5,"","",2,1,"H","","","","","","","","","","","","","","","","","","","","","","","","","","","","","",98.6,1000,100,"","","","","","","","","","","","","",0.137003987
381,"X",7,23,2023,93204,41.16154167,-70.83257167,256,498,4,"-","",5,"","",2,1,"H","","","","","","","","","","","","","","","","","","","","","","","","","","","","","",98.3,1000,100,"","","","","","","","","","","","","",0.137476107
382,"X",7,23,2023,93209,41.16063667,-70.83533833,239,500,4,"-","",5,"","",2,1,"H","","","","","","","","","","","","","","","","","","","","","","","","","","","","","",99.7,1000,100,"","","","","","","","","","","","","",0.136353636
383,"X",7,23,2023,93214,41.15915333,-70.83771167,223,494,4,"-","",5,"","",2,1,"H","","","","","","","","","","","","","","","","","","","","","","","","","","","","","",102.1,1000,100,"","","","","","","","","","","","","",0.13943124
384,"X",7,23,2023,93219,41.157215,-70.83952333,208,490,4,"-","",5,"","",2,1,"H","","","","","","","","","","","","","","","","","","","","","","","","","","","","","",102.9,1000,100,"","","","","","","","","","","","","",0.142305003
385,"X",7,23,2023,93224,41.15496833,-70.84060167,193,489,4,"-","",5,"","",2,1,"H","","","","","","","","","","","","","","","","","","","","","","","","","","","","","",102.6,1000,100,"","","","","","","","","","","","","",0.14342872
386,"X",7,23,2023,93229,41.15261833,-70.84084833,177,489,4,"-","",5,"","",2,1,"H","","","","","","","","","","","","","","","","","","","","","","","","","","","","","",101.3,1000,100,"","","","","","","","","","","","","",0.141535039
387,"X",7,23,2023,93234,41.15033333,-70.84027667,161,482,4,"-","",5,"","",2,1,"H","","","","","","","","","","","","","","","","","","","","","","","","","","","","","",100.8,1000,100,"","","","","","","","","","","","","",0.13960551
388,"X",7,23,2023,93239,41.148375,-70.83861667,138,468,4,"-","",5,"","",2,1,"H","","","","","","","","","","","","","","","","","","","","","","","","","","","","","",100.8,1000,100,"","","","","","","","","","","","","",0.139489197
389,"X",7,23,2023,93244,41.14685667,-70.83625,125,472,4,"-","",5,"","",2,1,"H","","","","","","","","","","","","","","","","","","","","","","","","","","","","","",98.9,1000,100,"","","","","","","","","","","","","",0.140568526
390,"X",7,23,2023,93244,41.14685667,-70.83625,125,472,4,"-","",5,"","",2,1,"H","","","","","","","","","","","","","","","","","","","","","","","","","","","","","",98.9,1000,100,"","","","","","","","","","","","","",0
391,"X",7,23,2023,93249,41.14575667,-70.83365667,111,484,4,"-","",5,"","",2,1,"H","","","","","","","","","","","","","","","","","","","","","","","","","","","","","",94.6,1000,100,"","","","","","","","","","","","","",0.13457198
392,"X",7,23,2023,93254,41.1454,-70.83084,92,478,4,"-","",5,"","",2,1,"H","","","","","","","","","","","","","","","","","","","","","","","","","","","","","",92.4,1000,100,"","","","","","","","","","","","","",0.129137526
393,"X",7,23,2023,93259,41.145555,-70.827955,82,470,4,"-","",5,"","",2,1,"H","","","","","","","","","","","","","","","","","","","","","","","","","","","","","",95,1000,100,"","","","","","","","","","","","","",0.130770915
394,"X",7,23,2023,93304,41.14620833,-70.82524,62,468,4,"-","",5,"","",2,1,"H","","","","","","","","","","","","","","","","","","","","","","","","","","","","","",92,1000,100,"","","","","","","","","","","","","",0.128867623
395,"X",7,23,2023,93309,41.14751,-70.82307333,40,468,4,"-","",5,"","",2,1,"H","","","","","","","","","","","","","","","","","","","","","","","","","","","","","",89.9,1000,100,"","","","","","","","","","","","","",0.125315074
396,"X",7,23,2023,93314,41.149275,-70.821625,26,476,4,"-","",5,"","",2,1,"H","","","","","","","","","","","","","","","","","","","","","","","","","","","","","",88.7,1000,100,"","","","","","","","","","","","","",0.124569804
397,"X",7,23,2023,93314,41.149275,-70.821625,26,476,4,"-","",5,"","",2,1,"H","","","","","","","","","","","","","","","","","","","","","","","","","","","","","",88.7,1000,100,"","","","","","","","","","","","","",0
398,"X",7,23,2023,93319,41.151155,-70.82065667,16,485,4,"-","",5,"","",2,1,"H","","","","","","","","","","","","","","","","","","","","","","","","","","","","","",86.1,1000,100,"","","","","","","","","","","","","",0.121068252
399,"X",7,23,2023,93324,41.15313667,-70.82023833,5,489,4,"-","",5,"","",2,1,"H","","","","","","","","","","","","","","","","","","","","","","","","","","","","","",87.4,1000,100,"","","","","","","","","","","","","",0.120473861
400,"X",7,23,2023,93329,41.15515667,-70.82052,348,490,4,"-","",5,"","",2,1,"H","","","","","","","","","","","","","","","","","","","","","","","","","","","","","",88.4,1000,100,"","","","","","","","","","","","","",0.121948322
401,"X",7,23,2023,93334,41.15710667,-70.82155667,332,490,4,"-","",5,"","",2,1,"H","","","","","","","","","","","","","","","","","","","","","","","","","","","","","",91.7,1000,100,"","","","","","","","","","","","","",0.126109559
402,"X",7,23,2023,93339,41.15879167,-70.823215,318,491,4,"-","",5,"","",2,1,"H","","","","","","","","","","","","","","","","","","","","","","","","","","","","","",89.9,1000,100,"","","","","","","","","","","","","",0.125914978
403,"X",7,23,2023,93344,41.16006833,-70.8254,300,497,4,"-","",5,"","",2,1,"H","","","","","","","","","","","","","","","","","","","","","","","","","","","","","",90.7,1000,100,"","","","","","","","","","","","","",0.125023374
404,"X",7,23,2023,93349,41.16080833,-70.82807667,283,499,4,"-","",5,"","",2,1,"H","","","","","","","","","","","","","","","","","","","","","","","","","","","","","",93.7,1000,100,"","","","","","","","","","","","","",0.128892105
405,"X",7,23,2023,93354,41.16084167,-70.83104667,261,494,4,"-","",5,"","",2,1,"H","","","","","","","","","","","","","","","","","","","","","","","","","","","","","",98.8,1000,100,"","","","","","","","","","","","","",0.13426594
406,"X",7,23,2023,93359,41.160095,-70.83399833,243,490,4,"-","",5,"","",2,1,"H","","","","","","","","","","","","","","","","","","","","","","","","","","","","","",102.5,1000,100,"","","","","","","","","","","","","",0.140753171
407,"X",7,23,2023,93404,41.15869667,-70.836545,226,496,4,"-","",5,"","",2,1,"H","","","","","","","","","","","","","","","","","","","","","","","","","","","","","",101.8,1000,100,"","","","","","","","","","","","","",0.142480978
408,"X",7,23,2023,93409,41.15687667,-70.83842,210,502,4,"-","",5,"","",2,1,"H","","","","","","","","","","","","","","","","","","","","","","","","","","","","","",99.2,1000,100,"","","","","","","","","","","","","",0.138292107
409,"P",7,23,2023,93411,41.156074,-70.83884611,204,502,4,"-","",5,"","",2,1,"H","12","","","","1","","","1","","0","","","","","","","","","","","","","","","","","","","",99,1000,100,"","","","","","","","","","EXACT POSITION HUWH BUBBLE FEEDING - ","","","",0.05189964
410,"X",7,23,2023,93414,41.15477,-70.83953833,194,502,4,"-","",5,"","",2,1,"H","","","","","","","","","","","","","","","","","","","","","","","","","","","","","",98.6,1000,100,"","","","","","","","","","","","","",0.136214311
411,"X",7,23,2023,93414,41.15477,-70.83953833,194,502,4,"-","",5,"","",2,1,"H","","","","","","","","","","","","","","","","","","","","","","","","","","","","","",98.6,1000,100,"","","","","","","","","","","","","",0
412,"X",7,23,2023,93419,41.1525,-70.83962833,169,495,4,"-","",5,"","",2,1,"H","","","","","","","","","","","","","","","","","","","","","","","","","","","","","",100.1,1000,100,"","","","","","","","","","","","","",0.136352554
413,"X",7,23,2023,93424,41.15036667,-70.83848167,148,485,4,"-","",5,"","",2,1,"H","","","","","","","","","","","","","","","","","","","","","","","","","","","","","",100.4,1000,100,"","","","","","","","","","","","","",0.13817899
414,"X",7,23,2023,93429,41.14866667,-70.83643167,129,479,4,"-","",5,"","",2,1,"H","","","","","","","","","","","","","","","","","","","","","","","","","","","","","",98.5,1000,100,"","","","","","","","","","","","","",0.137868678
415,"X",7,23,2023,93434,41.147575,-70.83381,110,483,4,"-","",5,"","",2,1,"H","","","","","","","","","","","","","","","","","","","","","","","","","","","","","",95.8,1000,100,"","","","","","","","","","","","","",0.135443875
416,"X",7,23,2023,93439,41.14723,-70.831015,90,490,4,"-","",5,"","",2,1,"H","","","","","","","","","","","","","","","","","","","","","","","","","","","","","",90.3,1000,100,"","","","","","","","","","","","","",0.128052941
417,"P",7,23,2023,93442,41.14745582,-70.82952085,79,495,4,"-","",5,"","",2,1,"H","13","0","","FIWH","1","","","1","","0","","","","","","","","","","","","","","","","","","","",87.9,1000,100,"","","","","","","","","","EXACT POSITION - ","","","",0.068900339
418,"X",7,23,2023,93444,41.14763,-70.82836833,70,498,4,"-","",5,"","",2,1,"H","","","","","","","","","","","","","","","","","","","","","","","","","","","","","",86,1000,100,"","","","","","","","","","","","","",0.122046312
419,"X",7,23,2023,93444,41.14763,-70.82836833,70,498,4,"-","",5,"","",2,1,"H","","","","","","","","","","","","","","","","","","","","","","","","","","","","","",86,1000,100,"","","","","","","","","","","","","",0
420,"X",7,23,2023,93449,41.14862667,-70.82614,52,499,4,"-","",5,"","",2,1,"H","","","","","","","","","","","","","","","","","","","","","","","","","","","","","",83.8,1000,100,"","","","","","","","","","","","","",0.117177256
421,"X",7,23,2023,93454,41.15006167,-70.82438333,37,496,4,"-","",5,"","",2,1,"H","","","","","","","","","","","","","","","","","","","","","","","","","","","","","",84.7,1000,100,"","","","","","","","","","","","","",0.117177861
422,"X",7,23,2023,93459,41.15178167,-70.82307,24,496,4,"-","",5,"","",2,1,"H","","","","","","","","","","","","","","","","","","","","","","","","","","","","","",85.4,1000,100,"","","","","","","","","","","","","",0.11912165
423,"X",7,23,2023,93504,41.1537,-70.82246833,3,494,4,"-","",5,"","",2,1,"H","","","","","","","","","","","","","","","","","","","","","","","","","","","","","",86.6,1000,100,"","","","","","","","","","","","","",0.118345798
424,"X",7,23,2023,93509,41.155685,-70.82293167,339,487,4,"-","",5,"","",2,1,"H","","","","","","","","","","","","","","","","","","","","","","","","","","","","","",89.8,1000,100,"","","","","","","","","","","","","",0.121006896
425,"X",7,23,2023,93514,41.1575,-70.824425,321,486,4,"-","",5,"","",2,1,"H","","","","","","","","","","","","","","","","","","","","","","","","","","","","","",94.2,1000,100,"","","","","","","","","","","","","",0.128188703
426,"X",7,23,2023,93514,41.1575,-70.824425,321,486,4,"-","",5,"","",2,1,"H","","","","","","","","","","","","","","","","","","","","","","","","","","","","","",94.2,1000,100,"","","","","","","","","","","","","",0
427,"X",7,23,2023,93519,41.15896333,-70.82652333,307,491,4,"-","",5,"","",2,1,"H","","","","","","","","","","","","","","","","","","","","","","","","","","","","","",91.4,1000,100,"","","","","","","","","","","","","",0.129291931
428,"X",7,23,2023,93524,41.15986833,-70.829105,287,499,4,"-","",5,"","",2,1,"H","","","","","","","","","","","","","","","","","","","","","","","","","","","","","",92.1,1000,100,"","","","","","","","","","","","","",0.128729738
429,"X",7,23,2023,93529,41.16010167,-70.83196833,266,507,4,"-","",5,"","",2,1,"H","","","","","","","","","","","","","","","","","","","","","","","","","","","","","",94,1000,100,"","","","","","","","","","","","","",0.13018707
430,"X",7,23,2023,93534,41.159485,-70.83475333,243,511,4,"-","",5,"","",2,1,"H","","","","","","","","","","","","","","","","","","","","","","","","","","","","","",97.1,1000,100,"","","","","","","","","","","","","",0.131222261
431,"X",7,23,2023,93539,41.15807167,-70.83709333,222,504,4,"-","",5,"","",2,1,"H","","","","","","","","","","","","","","","","","","","","","","","","","","","","","",99,1000,100,"","","","","","","","","","","","","",0.135607817
432,"X",7,23,2023,93544,41.15600333,-70.83845833,194,502,4,"-","",5,"","",2,1,"H","","","","","","","","","","","","","","","","","","","","","","","","","","","","","",101.2,1000,100,"","","","","","","","","","","","","",0.138668914
433,"X",7,23,2023,93549,41.15365667,-70.838285,164,488,4,"-","",5,"","",2,1,"H","","","","","","","","","","","","","","","","","","","","","","","","","","","","","",103,1000,100,"","","","","","","","","","","","","",0.141112663
434,"X",7,23,2023,93554,41.151555,-70.83675667,142,479,4,"-","",5,"","",2,1,"H","","","","","","","","","","","","","","","","","","","","","","","","","","","","","",103.6,1000,100,"","","","","","","","","","","","","",0.143862768
435,"X",7,23,2023,93559,41.14992833,-70.83449667,126,485,4,"-","",5,"","",2,1,"H","","","","","","","","","","","","","","","","","","","","","","","","","","","","","",99.1,1000,100,"","","","","","","","","","","","","",0.141343358
436,"X",7,23,2023,93604,41.14893,-70.831895,106,500,4,"-","",5,"","",2,1,"H","","","","","","","","","","","","","","","","","","","","","","","","","","","","","",92.1,1000,100,"","","","","","","","","","","","","",0.132014276
437,"X",7,23,2023,93609,41.14880167,-70.82915,84,499,4,"-","",5,"","",2,1,"H","","","","","","","","","","","","","","","","","","","","","","","","","","","","","",89.8,1000,100,"","","","","","","","","","","","","",0.124342096
438,"X",7,23,2023,93614,41.14933667,-70.82651333,68,498,4,"-","",5,"","",2,1,"H","","","","","","","","","","","","","","","","","","","","","","","","","","","","","",88.3,1000,100,"","","","","","","","","","","","","",0.123456951
439,"X",7,23,2023,93614,41.14933667,-70.82651333,68,498,4,"-","",5,"","",2,1,"H","","","","","","","","","","","","","","","","","","","","","","","","","","","","","",88.3,1000,100,"","","","","","","","","","","","","",0
440,"X",7,23,2023,93619,41.15038167,-70.82425,49,501,4,"-","",5,"","",2,1,"H","","","","","","","","","","","","","","","","","","","","","","","","","","","","","",85.6,1000,100,"","","","","","","","","","","","","",0.120029274
441,"X",7,23,2023,93624,41.15198,-70.82274667,24,499,4,"-","",5,"","",2,1,"H","","","","","","","","","","","","","","","","","","","","","","","","","","","","","",85.1,1000,100,"","","","","","","","","","","","","",0.117594013
442,"X",7,23,2023,93629,41.15392333,-70.8222,1,498,4,"-","",5,"","",2,1,"H","","","","","","","","","","","","","","","","","","","","","","","","","","","","","",86.3,1000,100,"","","","","","","","","","","","","",0.11926719
443,"X",7,23,2023,93634,41.15590667,-70.822645,340,500,4,"-","",5,"","",2,1,"H","","","","","","","","","","","","","","","","","","","","","","","","","","","","","",87.7,1000,100,"","","","","","","","","","","","","",0.120767512
444,"X",7,23,2023,93639,41.15761833,-70.82408167,317,503,4,"-","",5,"","",2,1,"H","","","","","","","","","","","","","","","","","","","","","","","","","","","","","",89.4,1000,100,"","","","","","","","","","","","","",0.121570309
445,"X",7,23,2023,93644,41.158855,-70.826355,296,500,4,"-","",5,"","",2,1,"H","","","","","","","","","","","","","","","","","","","","","","","","","","","","","",92.6,1000,100,"","","","","","","","","","","","","",0.126781417
446,"X",7,23,2023,93649,41.15951,-70.82909667,280,496,4,"-","",5,"","",2,1,"H","","","","","","","","","","","","","","","","","","","","","","","","","","","","","",94.6,1000,100,"","","","","","","","","","","","","",0.130022855
447,"X",7,23,2023,93654,41.159385,-70.83204667,257,496,4,"-","",5,"","",2,1,"H","","","","","","","","","","","","","","","","","","","","","","","","","","","","","",97.1,1000,100,"","","","","","","","","","","","","",0.133560808
448,"X",7,23,2023,93659,41.15837833,-70.83477,233,501,4,"-","",5,"","",2,1,"H","","","","","","","","","","","","","","","","","","","","","","","","","","","","","",99.8,1000,100,"","","","","","","","","","","","","",0.137141761
449,"X",7,23,2023,93704,41.15664,-70.83677167,211,507,4,"-","",5,"","",2,1,"H","","","","","","","","","","","","","","","","","","","","","","","","","","","","","",99.4,1000,100,"","","","","","","","","","","","","",0.138132676
450,"X",7,23,2023,93709,41.15447167,-70.83769833,186,508,4,"-","",5,"","",2,1,"H","","","","","","","","","","","","","","","","","","","","","","","","","","","","","",98.2,1000,100,"","","","","","","","","","","","","",0.136761436
451,"X",7,23,2023,93714,41.15221833,-70.837335,163,500,4,"-","",5,"","",2,1,"H","","","","","","","","","","","","","","","","","","","","","","","","","","","","","",99.3,1000,100,"","","","","","","","","","","","","",0.136284602
452,"X",7,23,2023,93719,41.15038167,-70.835595,130,488,4,"-","",5,"","",2,1,"H","","","","","","","","","","","","","","","","","","","","","","","","","","","","","",98,1000,100,"","","","","","","","","","","","","",0.135456177
453,"X",7,23,2023,93724,41.14942667,-70.83286833,102,490,4,"-","",5,"","",2,1,"H","","","","","","","","","","","","","","","","","","","","","","","","","","","","","",96.1,1000,100,"","","","","","","","","","","","","",0.135955078
454,"X",7,23,2023,93729,41.14924,-70.83006667,91,500,4,"-","",5,"","",2,1,"H","","","","","","","","","","","","","","","","","","","","","","","","","","","","","",88.3,1000,100,"","","","","","","","","","","","","",0.127159031
455,"X",7,23,2023,93734,41.1495,-70.827575,76,514,4,"-","",5,"","",2,1,"H","","","","","","","","","","","","","","","","","","","","","","","","","","","","","",78.8,1000,100,"","","","","","","","","","","","","",0.113725393
456,"X",7,23,2023,93739,41.15038667,-70.82552167,49,523,4,"-","",5,"","",2,1,"H","","","","","","","","","","","","","","","","","","","","","","","","","","","","","",76.5,1000,100,"","","","","","","","","","","","","",0.107012335
457,"X",7,23,2023,93744,41.15193333,-70.824245,20,512,4,"-","",5,"","",2,1,"H","","","","","","","","","","","","","","","","","","","","","","","","","","","","","",80.2,1000,100,"","","","","","","","","","","","","",0.109337522
458,"X",7,23,2023,93744,41.15193333,-70.824245,20,512,4,"-","",5,"","",2,1,"H","","","","","","","","","","","","","","","","","","","","","","","","","","","","","",80.2,1000,100,"","","","","","","","","","","","","",0
459,"X",7,23,2023,93749,41.15386333,-70.82395167,355,500,4,"-","",5,"","",2,1,"H","","","","","","","","","","","","","","","","","","","","","","","","","","","","","",86.8,1000,100,"","","","","","","","","","","","","",0.116634399
460,"X",7,23,2023,93754,41.15584,-70.82470333,333,496,4,"-","",5,"","",2,1,"H","","","","","","","","","","","","","","","","","","","","","","","","","","","","","",90.6,1000,100,"","","","","","","","","","","","","",0.123448734
461,"X",7,23,2023,93759,41.15743,-70.82656,305,495,4,"-","",5,"","",2,1,"H","","","","","","","","","","","","","","","","","","","","","","","","","","","","","",93,1000,100,"","","","","","","","","","","","","",0.127113593
462,"X",7,23,2023,93804,41.15816333,-70.82928333,277,489,4,"-","",5,"","",2,1,"H","","","","","","","","","","","","","","","","","","","","","","","","","","","","","",96.7,1000,100,"","","","","","","","","","","","","",0.130743622
463,"X",7,23,2023,93809,41.157905,-70.83228667,252,492,4,"-","",5,"","",2,1,"H","","","","","","","","","","","","","","","","","","","","","","","","","","","","","",99.3,1000,100,"","","","","","","","","","","","","",0.136646681
464,"P",7,23,2023,93812,41.1572602,-70.83374324,239,495,4,"-","",5,"","",2,1,"H","14","0","","FIWH","2","","","1","3","0","","","","","","","","","","","","","","","","","","","",99.8,1000,100,"","","","","","","","","","NEW FIN WHALE - JUST ONE? -  -  ","","","",0.076381895
465,"X",7,23,2023,93814,41.15673333,-70.83493333,229,498,4,"-","",5,"","",2,1,"H","","","","","","","","","","","","","","","","","","","","","","","","","","","","","",100.2,1000,100,"","","","","","","","","","","","","",0.138791077
466,"X",7,23,2023,93819,41.154825,-70.83666833,201,498,4,"-","",5,"","",2,1,"H","","","","","","","","","","","","","","","","","","","","","","","","","","","","","",101.3,1000,100,"","","","","","","","","","","","","",0.138850772
467,"X",7,23,2023,93824,41.1525,-70.83686333,167,487,4,"-","",5,"","",2,1,"H","","","","","","","","","","","","","","","","","","","","","","","","","","","","","",102.5,1000,100,"","","","","","","","","","","","","",0.139872135
468,"X",7,23,2023,93829,41.15047167,-70.83530833,132,473,4,"-","",5,"","",2,1,"H","","","","","","","","","","","","","","","","","","","","","","","","","","","","","",101.3,1000,100,"","","","","","","","","","","","","",0.140616205
469,"X",7,23,2023,93834,41.14952667,-70.83255833,101,474,4,"-","",5,"","",2,1,"H","","","","","","","","","","","","","","","","","","","","","","","","","","","","","",94.9,1000,100,"","","","","","","","","","","","","",0.136661766
470,"X",7,23,2023,93839,41.14972833,-70.82981333,73,489,4,"-","",5,"","",2,1,"H","","","","","","","","","","","","","","","","","","","","","","","","","","","","","",85.7,1000,100,"","","","","","","","","","","","","",0.124690964
471,"X",7,23,2023,93844,41.15072,-70.82766,47,497,4,"-","",5,"","",2,1,"H","","","","","","","","","","","","","","","","","","","","","","","","","","","","","",80.8,1000,100,"","","","","","","","","","","","","",0.114115471
472,"X",7,23,2023,93844,41.15072,-70.82766,47,497,4,"-","",5,"","",2,1,"H","","","","","","","","","","","","","","","","","","","","","","","","","","","","","",80.8,1000,100,"","","","","","","","","","","","","",0
473,"X",7,23,2023,93849,41.15226833,-70.826275,23,496,4,"-","",5,"","",2,1,"H","","","","","","","","","","","","","","","","","","","","","","","","","","","","","",80.8,1000,100,"","","","","","","","","","","","","",0.112082957
474,"X",7,23,2023,93854,41.15414833,-70.82567833,6,489,4,"-","",5,"","",2,1,"H","","","","","","","","","","","","","","","","","","","","","","","","","","","","","",85,1000,100,"","","","","","","","","","","","","",0.116054276
475,"X",7,23,2023,93859,41.15621333,-70.82582833,349,485,4,"-","",5,"","",2,1,"H","","","","","","","","","","","","","","","","","","","","","","","","","","","","","",90.4,1000,100,"","","","","","","","","","","","","",0.124168838
476,"X",7,23,2023,93904,41.15806,-70.82708167,322,496,4,"-","",5,"","",2,1,"H","","","","","","","","","","","","","","","","","","","","","","","","","","","","","",89.8,1000,100,"","","","","","","","","","","","","",0.124511833
477,"X",7,23,2023,93909,41.15928833,-70.82927833,295,513,4,"-","",5,"","",2,1,"H","","","","","","","","","","","","","","","","","","","","","","","","","","","","","",89.8,1000,100,"","","","","","","","","","","","","",0.123689401
478,"X",7,23,2023,93914,41.159665,-70.83198167,268,524,4,"-","",5,"","",2,1,"H","","","","","","","","","","","","","","","","","","","","","","","","","","","","","",91.2,1000,100,"","","","","","","","","","","","","",0.124274635
479,"X",7,23,2023,93914,41.159665,-70.83198167,268,524,4,"-","",5,"","",2,1,"H","","","","","","","","","","","","","","","","","","","","","","","","","","","","","",91.2,1000,100,"","","","","","","","","","","","","",0
480,"X",7,23,2023,93919,41.15917,-70.83475333,247,525,4,"-","",5,"","",2,1,"H","","","","","","","","","","","","","","","","","","","","","","","","","","","","","",95.9,1000,100,"","","","","","","","","","","","","",0.128765321
481,"X",7,23,2023,93924,41.15788833,-70.837295,227,513,4,"-","",5,"","",2,1,"H","","","","","","","","","","","","","","","","","","","","","","","","","","","","","",102.8,1000,100,"","","","","","","","","","","","","",0.138282586
482,"X",7,23,2023,93929,41.15581,-70.838955,199,510,4,"-","",5,"","",2,1,"H","","","","","","","","","","","","","","","","","","","","","","","","","","","","","",105.5,1000,100,"","","","","","","","","","","","","",0.145609549
483,"X",7,23,2023,93934,41.15334833,-70.83925167,174,511,4,"-","",5,"","",2,1,"H","","","","","","","","","","","","","","","","","","","","","","","","","","","","","",106.7,1000,100,"","","","","","","","","","","","","",0.148406815
484,"X",7,23,2023,93939,41.15098167,-70.83836,155,516,4,"-","",5,"","",2,1,"H","","","","","","","","","","","","","","","","","","","","","","","","","","","","","",106.1,1000,100,"","","","","","","","","","","","","",0.147702944
485,"X",7,23,2023,93944,41.149035,-70.83645,133,518,4,"-","",5,"","",2,1,"H","","","","","","","","","","","","","","","","","","","","","","","","","","","","","",104.6,1000,100,"","","","","","","","","","","","","",0.145317233
486,"X",7,23,2023,93949,41.14793,-70.83363333,106,517,4,"-","",5,"","",2,1,"H","","","","","","","","","","","","","","","","","","","","","","","","","","","","","",102.9,1000,100,"","","","","","","","","","","","","",0.143590063
487,"X",7,23,2023,93954,41.147925,-70.83050167,82,520,4,"-","",5,"","",2,1,"H","","","","","","","","","","","","","","","","","","","","","","","","","","","","","",99.9,1000,100,"","","","","","","","","","","","","",0.141586911
488,"X",7,23,2023,93959,41.14852833,-70.82764,65,533,4,"-","",5,"","",2,1,"H","","","","","","","","","","","","","","","","","","","","","","","","","","","","","",94.6,1000,100,"","","","","","","","","","","","","",0.134354471
489,"X",7,23,2023,94004,41.149845,-70.82547333,37,545,4,"-","",5,"","",2,1,"H","","","","","","","","","","","","","","","","","","","","","","","","","","","","","",90.3,1000,100,"","","","","","","","","","","","","",0.125875999
490,"X",7,23,2023,94009,41.15175667,-70.82444,8,546,4,"-","",5,"","",2,1,"H","","","","","","","","","","","","","","","","","","","","","","","","","","","","","",90.2,1000,100,"","","","","","","","","","","","","",0.123920322
491,"X",7,23,2023,94014,41.15391,-70.82482833,341,532,4,"-","",5,"","",2,1,"H","","","","","","","","","","","","","","","","","","","","","","","","","","","","","",98.2,1000,100,"","","","","","","","","","","","","",0.130473608
492,"X",7,23,2023,94014,41.15391,-70.82482833,341,532,4,"-","",5,"","",2,1,"H","","","","","","","","","","","","","","","","","","","","","","","","","","","","","",98.2,1000,100,"","","","","","","","","","","","","",0
493,"X",7,23,2023,94019,41.155995,-70.82638167,323,500,4,"-","",5,"","",2,1,"H","","","","","","","","","","","","","","","","","","","","","","","","","","","","","",107.3,1000,100,"","","","","","","","","","","","","",0.143534175
494,"X",7,23,2023,94024,41.15773167,-70.82892833,305,482,4,"-","",5,"","",2,1,"H","","","","","","","","","","","","","","","","","","","","","","","","","","","","","",114.3,1000,100,"","","","","","","","","","","","","",0.155323644
495,"X",7,23,2023,94029,41.159025,-70.83201,299,495,4,"-","",5,"","",2,1,"H","","","","","","","","","","","","","","","","","","","","","","","","","","","","","",112.5,1000,100,"","","","","","","","","","","","","",0.159484915
496,"X",7,23,2023,94034,41.16030667,-70.83503667,300,492,4,"-","",5,"","",2,1,"H","","","","","","","","","","","","","","","","","","","","","","","","","","","","","",112.1,1000,100,"","","","","","","","","","","","","",0.15697104
497,"X",7,23,2023,94039,41.161655,-70.837985,302,482,4,"-","",5,"","",2,1,"H","","","","","","","","","","","","","","","","","","","","","","","","","","","","","",112,1000,100,"","","","","","","","","","","","","",0.155932307
498,"X",7,23,2023,94044,41.163055,-70.84086833,303,480,4,"-","",5,"","",2,1,"H","","","","","","","","","","","","","","","","","","","","","","","","","","","","","",110.3,1000,100,"","","","","","","","","","","","","",0.155085599
499,"X",7,23,2023,94049,41.16434833,-70.84368833,298,496,4,"-","",5,"","",2,1,"H","","","","","","","","","","","","","","","","","","","","","","","","","","","","","",105.1,1000,100,"","","","","","","","","","","","","",0.149255581
500,"X",7,23,2023,94054,41.16527833,-70.84658,288,502,4,"-","",5,"","",2,1,"H","","","","","","","","","","","","","","","","","","","","","","","","","","","","","",101.6,1000,100,"","","","","","","","","","","","","",0.142129905
501,"X",7,23,2023,94059,41.16571833,-70.84966667,274,493,4,"-","",5,"","",2,1,"H","","","","","","","","","","","","","","","","","","","","","","","","","","","","","",104.5,1000,100,"","","","","","","","","","","","","",0.141993828
502,"X",7,23,2023,94104,41.16550333,-70.85292,257,482,4,"-","",5,"","",2,1,"H","","","","","","","","","","","","","","","","","","","","","","","","","","","","","",108.8,1000,100,"","","","","","","","","","","","","",0.147613134
503,"X",7,23,2023,94109,41.16447833,-70.85596333,235,481,4,"-","",5,"","",2,1,"H","","","","","","","","","","","","","","","","","","","","","","","","","","","","","",109.5,1000,100,"","","","","","","","","","","","","",0.150696096
504,"X",7,23,2023,94114,41.16261667,-70.85824167,212,475,4,"-","",5,"","",2,1,"H","","","","","","","","","","","","","","","","","","","","","","","","","","","","","",111.3,1000,100,"","","","","","","","","","","","","",0.151983446
505,"X",7,23,2023,94114,41.16261667,-70.85824167,212,475,4,"-","",5,"","",2,1,"H","","","","","","","","","","","","","","","","","","","","","","","","","","","","","",111.3,1000,100,"","","","","","","","","","","","","",0
506,"X",7,23,2023,94119,41.160115,-70.85931667,188,457,4,"-","",5,"","",2,1,"H","","","","","","","","","","","","","","","","","","","","","","","","","","","","","",114.7,1000,100,"","","","","","","","","","","","","",0.157865765
507,"X",7,23,2023,94124,41.15746333,-70.859,163,442,4,"-","",5,"","",2,1,"H","","","","","","","","","","","","","","","","","","","","","","","","","","","","","",114.4,1000,100,"","","","","","","","","","","","","",0.159849502
508,"X",7,23,2023,94129,41.15522167,-70.85708167,136,426,4,"-","",5,"","",2,1,"H","","","","","","","","","","","","","","","","","","","","","","","","","","","","","",114.5,1000,100,"","","","","","","","","","","","","",0.160108908
509,"X",7,23,2023,94134,41.15344,-70.85452,137,439,4,"-","",5,"","",2,1,"H","","","","","","","","","","","","","","","","","","","","","","","","","","","","","",111,1000,100,"","","","","","","","","","","","","",0.157650857
510,"X",7,23,2023,94139,41.15130167,-70.852765,157,457,4,"-","",5,"","",2,1,"H","","","","","","","","","","","","","","","","","","","","","","","","","","","","","",107,1000,100,"","","","","","","","","","","","","",0.150923797
