"rectype","month","day","year","eventno","time","lat","long","heading","alt","legtype","legstage","legno","visiblty","glarel","glarer","beaufort","cloud","wx","sightno","anglel","angler","speccode","number","numcalf","anhead","photos","idrel","confidnc","b1","b2","b3","b4","b5","b6","b7","b8","b9","b10","b11","b12","b13","b14","b15","refno","stratum","utc","radalt","gpsspeed","setalt","setvel","lensfl","ggf","int","gpsq","gpssats","roll","pitch","yaw","maghead","notes","edits","glarev","ph_qual","TrackDist"
"S",9,17,2023,686,111504,42.77769778,-69.7515491,55,296,1,"-","",5,"","",3,1,"C","1","","","","","","","","","","","","","","","","","","","","","","","","","","","","",111.3,1000,100,"","","","","","","","","","","ON WATCH, BEGIN SURVEY - ","","",0.066094861
"X",9,17,2023,687,111507,42.77853667,-69.74996,54,301,1,"-","",5,"","",3,1,"C","","","","","","","","","","","","","","","","","","","","","","","","","","","","","",109.2,1000,100,"","","","","","","","","","","","","",0.152356621
"X",9,17,2023,688,111512,42.78000833,-69.74720833,54,299,1,"-","",5,"","",3,1,"C","","","","","","","","","","","","","","","","","","","","","","","","","","","","","",108.4,1000,100,"","","","","","","","","","","","","",0.150038857
"X",9,17,2023,689,111517,42.781495,-69.744455,54,298,1,"-","",5,"","",3,1,"C","","","","","","","","","","","","","","","","","","","","","","","","","","","","","",108.4,1000,100,"","","","","","","","","","","","","",0.150627815
"X",9,17,2023,690,111522,42.783015,-69.74174167,53,301,1,"-","",5,"","",3,1,"C","","","","","","","","","","","","","","","","","","","","","","","","","","","","","",107.7,1000,100,"","","","","","","","","","","","","",0.150415088
"X",9,17,2023,691,111522,42.783015,-69.74174167,53,301,1,"-","",5,"","",3,1,"C","","","","","","","","","","","","","","","","","","","","","","","","","","","","","",107.7,1000,100,"","","","","","","","","","","","","",0
"X",9,17,2023,692,111527,42.78451333,-69.739095,53,308,1,"-","",5,"","",3,1,"C","","","","","","","","","","","","","","","","","","","","","","","","","","","","","",105.2,1000,100,"","","","","","","","","","","","","",0.147290225
"X",9,17,2023,693,111532,42.78600167,-69.73650167,52,309,1,"-","",5,"","",3,1,"C","","","","","","","","","","","","","","","","","","","","","","","","","","","","","",103.8,1000,100,"","","","","","","","","","","","","",0.145063666
"X",9,17,2023,694,111537,42.78754167,-69.73395833,50,300,1,"-","",5,"","",3,1,"C","","","","","","","","","","","","","","","","","","","","","","","","","","","","","",105.3,1000,100,"","","","","","","","","","","","","",0.145286635
"X",9,17,2023,695,111542,42.78917333,-69.73145167,48,291,1,"-","",5,"","",3,1,"C","","","","","","","","","","","","","","","","","","","","","","","","","","","","","",107.1,1000,100,"","","","","","","","","","","","","",0.147635142
"X",9,17,2023,696,111547,42.79085667,-69.72895667,48,288,1,"-","",5,"","",3,1,"C","","","","","","","","","","","","","","","","","","","","","","","","","","","","","",106.7,1000,100,"","","","","","","","","","","","","",0.149330577
"X",9,17,2023,697,111552,42.79252,-69.72650333,48,294,1,"-","",5,"","",3,1,"C","","","","","","","","","","","","","","","","","","","","","","","","","","","","","",105.1,1000,100,"","","","","","","","","","","","","",0.147164666
"X",9,17,2023,698,111557,42.79413333,-69.724055,48,293,1,"-","",5,"","",3,1,"C","","","","","","","","","","","","","","","","","","","","","","","","","","","","","",105.1,1000,100,"","","","","","","","","","","","","",0.144978105
"X",9,17,2023,699,111602,42.79576333,-69.72157333,49,292,1,"-","",5,"","",3,1,"C","","","","","","","","","","","","","","","","","","","","","","","","","","","","","",106.3,1000,100,"","","","","","","","","","","","","",0.146737449
"X",9,17,2023,700,111607,42.79731333,-69.71898333,52,298,1,"-","",5,"","",3,1,"C","","","","","","","","","","","","","","","","","","","","","","","","","","","","","",106.3,1000,100,"","","","","","","","","","","","","",0.147243312
"X",9,17,2023,701,111612,42.79867833,-69.71626167,57,305,1,"-","",5,"","",3,1,"C","","","","","","","","","","","","","","","","","","","","","","","","","","","","","",104.1,1000,100,"","","","","","","","","","","","","",0.145235433
"X",9,17,2023,702,111617,42.799985,-69.713545,56,307,1,"-","",5,"","",3,1,"C","","","","","","","","","","","","","","","","","","","","","","","","","","","","","",103,1000,100,"","","","","","","","","","","","","",0.143101821
"X",9,17,2023,703,111622,42.80135167,-69.71085167,55,305,1,"-","",5,"","",3,1,"C","","","","","","","","","","","","","","","","","","","","","","","","","","","","","",104.1,1000,100,"","","","","","","","","","","","","",0.144259331
"X",9,17,2023,704,111622,42.80135167,-69.71085167,55,305,1,"-","",5,"","",3,1,"C","","","","","","","","","","","","","","","","","","","","","","","","","","","","","",104.1,1000,100,"","","","","","","","","","","","","",0
"X",9,17,2023,705,111627,42.8026,-69.70800667,61,304,1,"-","",5,"","",3,1,"C","","","","","","","","","","","","","","","","","","","","","","","","","","","","","",105.2,1000,100,"","","","","","","","","","","","","",0.146029861
"X",9,17,2023,706,111632,42.80367833,-69.705025,65,303,1,"-","",5,"","",3,1,"C","","","","","","","","","","","","","","","","","","","","","","","","","","","","","",105.4,1000,100,"","","","","","","","","","","","","",0.146436129
"X",9,17,2023,707,111637,42.80465,-69.70197667,67,301,1,"-","",5,"","",3,1,"C","","","","","","","","","","","","","","","","","","","","","","","","","","","","","",105.2,1000,100,"","","","","","","","","","","","","",0.146406169
"X",9,17,2023,708,111642,42.80552333,-69.6989,70,302,1,"-","",5,"","",3,1,"C","","","","","","","","","","","","","","","","","","","","","","","","","","","","","",104.2,1000,100,"","","","","","","","","","","","","",0.145316743
"X",9,17,2023,709,111647,42.80631167,-69.69581,71,302,1,"-","",5,"","",3,1,"C","","","","","","","","","","","","","","","","","","","","","","","","","","","","","",103.7,1000,100,"","","","","","","","","","","","","",0.144107062
"X",9,17,2023,710,111652,42.807125,-69.69273667,69,302,1,"-","",5,"","",3,1,"C","","","","","","","","","","","","","","","","","","","","","","","","","","","","","",103.5,1000,100,"","","","","","","","","","","","","",0.143914556
"X",9,17,2023,711,111652,42.807125,-69.69273667,69,302,1,"-","",5,"","",3,1,"C","","","","","","","","","","","","","","","","","","","","","","","","","","","","","",103.5,1000,100,"","","","","","","","","","","","","",0
"X",9,17,2023,712,111657,42.80800333,-69.68969667,68,300,1,"-","",5,"","",3,1,"C","","","","","","","","","","","","","","","","","","","","","","","","","","","","","",104,1000,100,"","","","","","","","","","","","","",0.143916315
"X",9,17,2023,713,111702,42.80894,-69.68666833,67,298,1,"-","",5,"","",3,1,"C","","","","","","","","","","","","","","","","","","","","","","","","","","","","","",104.3,1000,100,"","","","","","","","","","","","","",0.144760784
"X",9,17,2023,714,111707,42.80988167,-69.68362833,67,297,1,"-","",5,"","",3,1,"C","","","","","","","","","","","","","","","","","","","","","","","","","","","","","",105.3,1000,100,"","","","","","","","","","","","","",0.14534908
"X",9,17,2023,715,111712,42.81075,-69.68056,70,294,1,"-","",5,"","",3,1,"C","","","","","","","","","","","","","","","","","","","","","","","","","","","","","",105,1000,100,"","","","","","","","","","","","","",0.144855483
"X",9,17,2023,716,111717,42.81148167,-69.67739667,74,292,1,"-","",5,"","",3,1,"C","","","","","","","","","","","","","","","","","","","","","","","","","","","","","",105.9,1000,100,"","","","","","","","","","","","","",0.146092024
"X",9,17,2023,717,111722,42.81217333,-69.67422333,74,295,1,"-","",5,"","",3,1,"C","","","","","","","","","","","","","","","","","","","","","","","","","","","","","",105,1000,100,"","","","","","","","","","","","","",0.145808524
"X",9,17,2023,718,111722,42.81217333,-69.67422333,74,295,1,"-","",5,"","",3,1,"C","","","","","","","","","","","","","","","","","","","","","","","","","","","","","",105,1000,100,"","","","","","","","","","","","","",0
"X",9,17,2023,719,111727,42.81286667,-69.67109667,73,298,1,"-","",5,"","",3,1,"C","","","","","","","","","","","","","","","","","","","","","","","","","","","","","",104,1000,100,"","","","","","","","","","","","","",0.143866854
"X",9,17,2023,720,111732,42.813605,-69.66797333,72,294,1,"-","",5,"","",3,1,"C","","","","","","","","","","","","","","","","","","","","","","","","","","","","","",104.6,1000,100,"","","","","","","","","","","","","",0.144530487
"X",9,17,2023,721,111737,42.81433667,-69.66482833,73,292,1,"-","",5,"","",3,1,"C","","","","","","","","","","","","","","","","","","","","","","","","","","","","","",105.1,1000,100,"","","","","","","","","","","","","",0.145316002
"X",9,17,2023,722,111742,42.81505833,-69.66167,72,293,1,"-","",5,"","",3,1,"C","","","","","","","","","","","","","","","","","","","","","","","","","","","","","",104.9,1000,100,"","","","","","","","","","","","","",0.145694637
"X",9,17,2023,723,111747,42.81579667,-69.65855167,72,293,1,"-","",5,"","",3,1,"C","","","","","","","","","","","","","","","","","","","","","","","","","","","","","",104.2,1000,100,"","","","","","","","","","","","","",0.144316264
"X",9,17,2023,724,111752,42.81654,-69.65543,72,294,1,"-","",5,"","",3,1,"C","","","","","","","","","","","","","","","","","","","","","","","","","","","","","",104.2,1000,100,"","","","","","","","","","","","","",0.144546822
"X",9,17,2023,725,111757,42.81728667,-69.65234333,72,294,1,"-","",5,"","",3,1,"C","","","","","","","","","","","","","","","","","","","","","","","","","","","","","",103.5,1000,100,"","","","","","","","","","","","","",0.143142458
"X",9,17,2023,726,111802,42.81800667,-69.64924833,73,293,1,"-","",5,"","",3,1,"C","","","","","","","","","","","","","","","","","","","","","","","","","","","","","",103.3,1000,100,"","","","","","","","","","","","","",0.142997383
"X",9,17,2023,727,111807,42.81876833,-69.64615,70,290,1,"-","",5,"","",3,1,"C","","","","","","","","","","","","","","","","","","","","","","","","","","","","","",103.8,1000,100,"","","","","","","","","","","","","",0.143911074
"X",9,17,2023,728,111812,42.81968667,-69.64308667,67,288,1,"-","",5,"","",3,1,"C","","","","","","","","","","","","","","","","","","","","","","","","","","","","","",105.2,1000,100,"","","","","","","","","","","","","",0.145740933
"X",9,17,2023,729,111817,42.82068,-69.64008667,66,288,1,"-","",5,"","",3,1,"C","","","","","","","","","","","","","","","","","","","","","","","","","","","","","",104.2,1000,100,"","","","","","","","","","","","","",0.144954944
"X",9,17,2023,730,111822,42.82161,-69.63707,68,292,1,"-","",5,"","",3,1,"C","","","","","","","","","","","","","","","","","","","","","","","","","","","","","",103.3,1000,100,"","","","","","","","","","","","","",0.144106759
"X",9,17,2023,731,111827,42.822525,-69.634055,67,295,1,"-","",5,"","",3,1,"C","","","","","","","","","","","","","","","","","","","","","","","","","","","","","",103.5,1000,100,"","","","","","","","","","","","","",0.14369054
"X",9,17,2023,732,111832,42.823445,-69.63104,68,296,1,"-","",5,"","",3,1,"C","","","","","","","","","","","","","","","","","","","","","","","","","","","","","",103.1,1000,100,"","","","","","","","","","","","","",0.143803765
"X",9,17,2023,733,111837,42.824375,-69.62805333,66,296,1,"-","",5,"","",3,1,"C","","","","","","","","","","","","","","","","","","","","","","","","","","","","","",102.8,1000,100,"","","","","","","","","","","","","",0.142884317
"X",9,17,2023,734,111842,42.82536667,-69.62511167,65,296,1,"-","",5,"","",3,1,"C","","","","","","","","","","","","","","","","","","","","","","","","","","","","","",103.2,1000,100,"","","","","","","","","","","","","",0.142566684
"X",9,17,2023,735,111847,42.826405,-69.622225,64,300,1,"-","",5,"","",3,1,"C","","","","","","","","","","","","","","","","","","","","","","","","","","","","","",102.1,1000,100,"","","","","","","","","","","","","",0.141579019
"X",9,17,2023,736,111852,42.82744667,-69.61936167,64,302,1,"-","",5,"","",3,1,"C","","","","","","","","","","","","","","","","","","","","","","","","","","","","","",101.4,1000,100,"","","","","","","","","","","","","",0.140744154
"X",9,17,2023,737,111852,42.82744667,-69.61936167,64,302,1,"-","",5,"","",3,1,"C","","","","","","","","","","","","","","","","","","","","","","","","","","","","","",101.4,1000,100,"","","","","","","","","","","","","",0
"X",9,17,2023,738,111857,42.82844333,-69.616465,65,301,1,"-","",5,"","",3,1,"C","","","","","","","","","","","","","","","","","","","","","","","","","","","","","",101.3,1000,100,"","","","","","","","","","","","","",0.140890087
"X",9,17,2023,739,111902,42.82946167,-69.61354667,64,298,1,"-","",5,"","",3,1,"C","","","","","","","","","","","","","","","","","","","","","","","","","","","","","",102.6,1000,100,"","","","","","","","","","","","","",0.142306545
"X",9,17,2023,740,111907,42.83054,-69.61064667,63,298,1,"-","",5,"","",3,1,"C","","","","","","","","","","","","","","","","","","","","","","","","","","","","","",103.7,1000,100,"","","","","","","","","","","","","",0.143168677
"X",9,17,2023,741,111912,42.831695,-69.60779833,61,297,1,"-","",5,"","",3,1,"C","","","","","","","","","","","","","","","","","","","","","","","","","","","","","",103.5,1000,100,"","","","","","","","","","","","","",0.143311224
"X",9,17,2023,742,111917,42.83293667,-69.605035,58,299,1,"-","",5,"","",3,1,"C","","","","","","","","","","","","","","","","","","","","","","","","","","","","","",103.4,1000,100,"","","","","","","","","","","","","",0.142693836
"X",9,17,2023,743,111922,42.83424167,-69.60237833,56,302,1,"-","",5,"","",3,1,"C","","","","","","","","","","","","","","","","","","","","","","","","","","","","","",102,1000,100,"","","","","","","","","","","","","",0.140789112
"X",9,17,2023,744,111927,42.83561,-69.599765,54,301,1,"-","",5,"","",3,1,"C","","","","","","","","","","","","","","","","","","","","","","","","","","","","","",102.5,1000,100,"","","","","","","","","","","","","",0.141381157
"X",9,17,2023,745,111932,42.837035,-69.59716167,53,297,1,"-","",5,"","",3,1,"C","","","","","","","","","","","","","","","","","","","","","","","","","","","","","",103.8,1000,100,"","","","","","","","","","","","","",0.143029788
"X",9,17,2023,746,111937,42.83849,-69.59458,53,301,1,"-","",5,"","",3,1,"C","","","","","","","","","","","","","","","","","","","","","","","","","","","","","",102.7,1000,100,"","","","","","","","","","","","","",0.143354844
"X",9,17,2023,747,111942,42.83995,-69.59209,51,308,1,"-","",5,"","",3,1,"C","","","","","","","","","","","","","","","","","","","","","","","","","","","","","",100.7,1000,100,"","","","","","","","","","","","","",0.140361838
"X",9,17,2023,748,111947,42.84138,-69.58960167,53,308,1,"-","",5,"","",3,1,"C","","","","","","","","","","","","","","","","","","","","","","","","","","","","","",100.5,1000,100,"","","","","","","","","","","","","",0.139184271
"X",9,17,2023,749,111952,42.84272667,-69.58699167,56,306,1,"-","",5,"","",3,1,"C","","","","","","","","","","","","","","","","","","","","","","","","","","","","","",102,1000,100,"","","","","","","","","","","","","",0.14049832
"X",9,17,2023,750,111952,42.84272667,-69.58699167,56,306,1,"-","",5,"","",3,1,"C","","","","","","","","","","","","","","","","","","","","","","","","","","","","","",102,1000,100,"","","","","","","","","","","","","",0
"X",9,17,2023,751,111957,42.84400167,-69.58427833,58,303,1,"-","",5,"","",3,1,"C","","","","","","","","","","","","","","","","","","","","","","","","","","","","","",102.2,1000,100,"","","","","","","","","","","","","",0.14187304
"X",9,17,2023,752,112002,42.84525667,-69.58157833,57,309,1,"-","",5,"","",3,1,"C","","","","","","","","","","","","","","","","","","","","","","","","","","","","","",100.6,1000,100,"","","","","","","","","","","","","",0.140730578
"X",9,17,2023,753,112007,42.84649167,-69.57894833,58,313,1,"-","",5,"","",3,1,"C","","","","","","","","","","","","","","","","","","","","","","","","","","","","","",99,1000,100,"","","","","","","","","","","","","",0.137484543
"X",9,17,2023,754,112012,42.84768833,-69.57628333,60,313,1,"-","",5,"","",3,1,"C","","","","","","","","","","","","","","","","","","","","","","","","","","","","","",99.3,1000,100,"","","","","","","","","","","","","",0.137566579
"X",9,17,2023,755,112017,42.84876333,-69.57350167,64,312,1,"-","",5,"","",3,1,"C","","","","","","","","","","","","","","","","","","","","","","","","","","","","","",100.1,1000,100,"","","","","","","","","","","","","",0.138416095
"X",9,17,2023,756,112022,42.84950667,-69.57121667,68,313,1,"-","",5,"","",3,1,"C","","","","","","","","","","","","","","","","","","","","","","","","","","","","","",99.3,1000,100,"","","","","","","","","","","","","",0.110039203
"X",9,17,2023,757,112027,42.850405,-69.56772333,72,318,1,"-","",5,"","",3,1,"C","","","","","","","","","","","","","","","","","","","","","","","","","","","","","",97.6,1000,100,"","","","","","","","","","","","","",0.162954246
"X",9,17,2023,758,112032,42.85104333,-69.56477,74,317,1,"-","",5,"","",3,1,"C","","","","","","","","","","","","","","","","","","","","","","","","","","","","","",98.1,1000,100,"","","","","","","","","","","","","",0.135529776
"X",9,17,2023,759,112037,42.85159,-69.56175833,77,315,1,"-","",5,"","",3,1,"C","","","","","","","","","","","","","","","","","","","","","","","","","","","","","",98.7,1000,100,"","","","","","","","","","","","","",0.136567141
"X",9,17,2023,760,112042,42.85205667,-69.55868667,79,314,1,"-","",5,"","",3,1,"C","","","","","","","","","","","","","","","","","","","","","","","","","","","","","",99.6,1000,100,"","","","","","","","","","","","","",0.138076914
"X",9,17,2023,761,112047,42.85249167,-69.55561,79,314,1,"-","",5,"","",3,1,"C","","","","","","","","","","","","","","","","","","","","","","","","","","","","","",100,1000,100,"","","","","","","","","","","","","",0.137918811
"X",9,17,2023,762,112052,42.852935,-69.55252333,78,313,1,"-","",5,"","",3,1,"C","","","","","","","","","","","","","","","","","","","","","","","","","","","","","",100,1000,100,"","","","","","","","","","","","","",0.13844541
"X",9,17,2023,763,112057,42.85344167,-69.54945333,77,311,1,"-","",5,"","",3,1,"C","","","","","","","","","","","","","","","","","","","","","","","","","","","","","",100.8,1000,100,"","","","","","","","","","","","","",0.138509725
"X",9,17,2023,764,112102,42.85398167,-69.54636167,76,310,1,"-","",5,"","",3,1,"C","","","","","","","","","","","","","","","","","","","","","","","","","","","","","",101,1000,100,"","","","","","","","","","","","","",0.1398894
"X",9,17,2023,765,112107,42.85454667,-69.54328667,75,311,1,"-","",5,"","",3,1,"C","","","","","","","","","","","","","","","","","","","","","","","","","","","","","",100.1,1000,100,"","","","","","","","","","","","","",0.139532022
"X",9,17,2023,766,112112,42.855175,-69.54021833,74,309,1,"-","",5,"","",3,1,"C","","","","","","","","","","","","","","","","","","","","","","","","","","","","","",101.4,1000,100,"","","","","","","","","","","","","",0.140221027
"X",9,17,2023,767,112117,42.855875,-69.53712833,72,304,1,"-","",5,"","",3,1,"C","","","","","","","","","","","","","","","","","","","","","","","","","","","","","",102.8,1000,100,"","","","","","","","","","","","","",0.142348872
"X",9,17,2023,768,112122,42.85666667,-69.53404833,70,302,1,"-","",5,"","",3,1,"C","","","","","","","","","","","","","","","","","","","","","","","","","","","","","",103.8,1000,100,"","","","","","","","","","","","","",0.143652862
"X",9,17,2023,769,112122,42.85666667,-69.53404833,70,302,1,"-","",5,"","",3,1,"C","","","","","","","","","","","","","","","","","","","","","","","","","","","","","",103.8,1000,100,"","","","","","","","","","","","","",0
"X",9,17,2023,770,112127,42.85743667,-69.53097333,71,305,1,"-","",5,"","",3,1,"C","","","","","","","","","","","","","","","","","","","","","","","","","","","","","",102.7,1000,100,"","","","","","","","","","","","","",0.143017798
"X",9,17,2023,771,112132,42.858205,-69.52792,71,303,1,"-","",5,"","",3,1,"C","","","","","","","","","","","","","","","","","","","","","","","","","","","","","",101.9,1000,100,"","","","","","","","","","","","","",0.142081614
"X",9,17,2023,772,112137,42.85900833,-69.52482833,70,298,1,"-","",5,"","",3,1,"C","","","","","","","","","","","","","","","","","","","","","","","","","","","","","",104.6,1000,100,"","","","","","","","","","","","","",0.144365185
"X",9,17,2023,773,112142,42.85980167,-69.52168667,71,294,1,"-","",5,"","",3,1,"C","","","","","","","","","","","","","","","","","","","","","","","","","","","","","",105.4,1000,100,"","","","","","","","","","","","","",0.146242822
"X",9,17,2023,774,112147,42.86060333,-69.51855333,70,298,1,"-","",5,"","",3,1,"C","","","","","","","","","","","","","","","","","","","","","","","","","","","","","",104.6,1000,100,"","","","","","","","","","","","","",0.146058544
"X",9,17,2023,775,112152,42.86143333,-69.51549667,70,304,1,"-","",5,"","",3,1,"C","","","","","","","","","","","","","","","","","","","","","","","","","","","","","",102.5,1000,100,"","","","","","","","","","","","","",0.143457559
"X",9,17,2023,776,112152,42.86143333,-69.51549667,70,304,1,"-","",5,"","",3,1,"C","","","","","","","","","","","","","","","","","","","","","","","","","","","","","",102.5,1000,100,"","","","","","","","","","","","","",0
"X",9,17,2023,777,112157,42.86229667,-69.51248167,69,306,1,"-","",5,"","",3,1,"C","","","","","","","","","","","","","","","","","","","","","","","","","","","","","",103.5,1000,100,"","","","","","","","","","","","","",0.142453707
"X",9,17,2023,778,112202,42.86324,-69.50948833,67,304,1,"-","",5,"","",3,1,"C","","","","","","","","","","","","","","","","","","","","","","","","","","","","","",103.8,1000,100,"","","","","","","","","","","","","",0.143392592
"X",9,17,2023,779,112207,42.86414333,-69.50646667,68,306,1,"-","",5,"","",3,1,"C","","","","","","","","","","","","","","","","","","","","","","","","","","","","","",103.6,1000,100,"","","","","","","","","","","","","",0.143613028
"X",9,17,2023,780,112212,42.86497333,-69.50345667,70,311,1,"-","",5,"","",3,1,"C","","","","","","","","","","","","","","","","","","","","","","","","","","","","","",101,1000,100,"","","","","","","","","","","","","",0.141526345
"X",9,17,2023,781,112217,42.86571333,-69.50044667,72,313,1,"-","",5,"","",3,1,"C","","","","","","","","","","","","","","","","","","","","","","","","","","","","","",100.5,1000,100,"","","","","","","","","","","","","",0.139713614
"X",9,17,2023,782,112222,42.86642833,-69.49742833,72,309,1,"-","",5,"","",3,1,"C","","","","","","","","","","","","","","","","","","","","","","","","","","","","","",100.6,1000,100,"","","","","","","","","","","","","",0.139590971
"X",9,17,2023,783,112227,42.86711833,-69.49433667,73,302,1,"-","",5,"","",3,1,"C","","","","","","","","","","","","","","","","","","","","","","","","","","","","","",102.9,1000,100,"","","","","","","","","","","","","",0.142219222
"X",9,17,2023,784,112232,42.86779,-69.491195,74,302,1,"-","",5,"","",3,1,"C","","","","","","","","","","","","","","","","","","","","","","","","","","","","","",103.8,1000,100,"","","","","","","","","","","","","",0.144011953
"X",9,17,2023,785,112237,42.868465,-69.48805667,73,305,1,"-","",5,"","",3,1,"C","","","","","","","","","","","","","","","","","","","","","","","","","","","","","",103.3,1000,100,"","","","","","","","","","","","","",0.143925924
"X",9,17,2023,786,112242,42.86919167,-69.48493667,71,306,1,"-","",5,"","",3,1,"C","","","","","","","","","","","","","","","","","","","","","","","","","","","","","",104,1000,100,"","","","","","","","","","","","","",0.144059454
"X",9,17,2023,787,112247,42.87001,-69.48184333,70,308,1,"-","",5,"","",3,1,"C","","","","","","","","","","","","","","","","","","","","","","","","","","","","","",104.5,1000,100,"","","","","","","","","","","","","",0.14471476
"X",9,17,2023,788,112252,42.87088,-69.47881,68,312,1,"-","",5,"","",3,1,"C","","","","","","","","","","","","","","","","","","","","","","","","","","","","","",103.1,1000,100,"","","","","","","","","","","","","",0.143333627
"X",9,17,2023,789,112252,42.87088,-69.47881,68,312,1,"-","",5,"","",3,1,"C","","","","","","","","","","","","","","","","","","","","","","","","","","","","","",103.1,1000,100,"","","","","","","","","","","","","",0
"X",9,17,2023,790,112257,42.87172667,-69.475795,69,314,1,"-","",5,"","",3,1,"C","","","","","","","","","","","","","","","","","","","","","","","","","","","","","",102.5,1000,100,"","","","","","","","","","","","","",0.142073703
"X",9,17,2023,791,112302,42.87253833,-69.47273333,70,314,1,"-","",5,"","",3,1,"C","","","","","","","","","","","","","","","","","","","","","","","","","","","","","",104.4,1000,100,"","","","","","","","","","","","","",0.143263013
"X",9,17,2023,792,112307,42.873375,-69.46971,69,316,1,"-","",5,"","",3,1,"C","","","","","","","","","","","","","","","","","","","","","","","","","","","","","",102.2,1000,100,"","","","","","","","","","","","","",0.142199639
"X",9,17,2023,793,112312,42.87422833,-69.46672333,69,319,1,"-","",5,"","",3,1,"C","","","","","","","","","","","","","","","","","","","","","","","","","","","","","",101.3,1000,100,"","","","","","","","","","","","","",0.141050141
"X",9,17,2023,794,112317,42.87510833,-69.46376333,68,321,1,"-","",5,"","",3,1,"C","","","","","","","","","","","","","","","","","","","","","","","","","","","","","",101,1000,100,"","","","","","","","","","","","","",0.140549889
"X",9,17,2023,795,112322,42.876005,-69.46080833,68,320,1,"-","",5,"","",3,1,"C","","","","","","","","","","","","","","","","","","","","","","","","","","","","","",101.8,1000,100,"","","","","","","","","","","","","",0.140724094
"X",9,17,2023,796,112322,42.876005,-69.46080833,68,320,1,"-","",5,"","",3,1,"C","","","","","","","","","","","","","","","","","","","","","","","","","","","","","",101.8,1000,100,"","","","","","","","","","","","","",0
"X",9,17,2023,797,112327,42.87683167,-69.45778833,70,316,1,"-","",5,"","",3,1,"C","","","","","","","","","","","","","","","","","","","","","","","","","","","","","",102.9,1000,100,"","","","","","","","","","","","","",0.141844257
"X",9,17,2023,798,112332,42.87763,-69.45472333,71,314,1,"-","",5,"","",3,1,"C","","","","","","","","","","","","","","","","","","","","","","","","","","","","","",103.5,1000,100,"","","","","","","","","","","","","",0.143120378
"X",9,17,2023,799,112337,42.87838167,-69.45164,72,317,1,"-","",5,"","",3,1,"C","","","","","","","","","","","","","","","","","","","","","","","","","","","","","",102.8,1000,100,"","","","","","","","","","","","","",0.142970062
"X",9,17,2023,800,112342,42.87910833,-69.44857167,72,319,1,"-","",5,"","",3,1,"C","","","","","","","","","","","","","","","","","","","","","","","","","","","","","",102.3,1000,100,"","","","","","","","","","","","","",0.141873694
"X",9,17,2023,801,112347,42.87985333,-69.44548833,71,317,1,"-","",5,"","",3,1,"C","","","","","","","","","","","","","","","","","","","","","","","","","","","","","",103.4,1000,100,"","","","","","","","","","","","","",0.142841136
"X",9,17,2023,802,112352,42.880635,-69.44240167,71,315,1,"-","",5,"","",3,1,"C","","","","","","","","","","","","","","","","","","","","","","","","","","","","","",103.8,1000,100,"","","","","","","","","","","","","",0.143682766
"X",9,17,2023,803,112357,42.88137833,-69.43929833,72,315,1,"-","",5,"","",3,1,"C","","","","","","","","","","","","","","","","","","","","","","","","","","","","","",103.9,1000,100,"","","","","","","","","","","","","",0.14364275
"X",9,17,2023,804,112402,42.88208667,-69.43619833,73,315,1,"-","",5,"","",3,1,"C","","","","","","","","","","","","","","","","","","","","","","","","","","","","","",102.8,1000,100,"","","","","","","","","","","","","",0.142862244
"X",9,17,2023,805,112407,42.882805,-69.43312,72,313,1,"-","",5,"","",3,1,"C","","","","","","","","","","","","","","","","","","","","","","","","","","","","","",102.5,1000,100,"","","","","","","","","","","","","",0.142132056
"X",9,17,2023,806,112412,42.88358,-69.43004667,71,310,1,"-","",5,"","",3,1,"C","","","","","","","","","","","","","","","","","","","","","","","","","","","","","",103.7,1000,100,"","","","","","","","","","","","","",0.142991594
"X",9,17,2023,807,112417,42.88444167,-69.42699167,68,309,1,"-","",5,"","",3,1,"C","","","","","","","","","","","","","","","","","","","","","","","","","","","","","",104.2,1000,100,"","","","","","","","","","","","","",0.144013847
"X",9,17,2023,808,112422,42.88532167,-69.423945,68,310,1,"-","",5,"","",3,1,"C","","","","","","","","","","","","","","","","","","","","","","","","","","","","","",104.3,1000,100,"","","","","","","","","","","","","",0.144070032
"X",9,17,2023,809,112422,42.88532167,-69.423945,68,310,1,"-","",5,"","",3,1,"C","","","","","","","","","","","","","","","","","","","","","","","","","","","","","",104.3,1000,100,"","","","","","","","","","","","","",0
"X",9,17,2023,810,112427,42.88621167,-69.420895,69,312,1,"-","",5,"","",3,1,"C","","","","","","","","","","","","","","","","","","","","","","","","","","","","","",104.2,1000,100,"","","","","","","","","","","","","",0.144425742
"X",9,17,2023,811,112432,42.88706,-69.41783,70,313,1,"-","",5,"","",3,1,"C","","","","","","","","","","","","","","","","","","","","","","","","","","","","","",104.1,1000,100,"","","","","","","","","","","","","",0.144134308
"X",9,17,2023,812,112437,42.88774667,-69.41468833,75,314,1,"-","",5,"","",3,1,"C","","","","","","","","","","","","","","","","","","","","","","","","","","","","","",103.8,1000,100,"","","","","","","","","","","","","",0.144223914
"X",9,17,2023,813,112442,42.88806167,-69.41140833,84,312,1,"-","",5,"","",3,1,"C","","","","","","","","","","","","","","","","","","","","","","","","","","","","","",104.9,1000,100,"","","","","","","","","","","","","",0.14552416
"X",9,17,2023,814,112447,42.88807667,-69.40809667,92,312,1,"-","",5,"","",3,1,"C","","","","","","","","","","","","","","","","","","","","","","","","","","","","","",104.7,1000,100,"","","","","","","","","","","","","",0.145685385
"X",9,17,2023,815,112452,42.88779333,-69.40483667,98,316,1,"-","",5,"","",3,1,"C","","","","","","","","","","","","","","","","","","","","","","","","","","","","","",102.9,1000,100,"","","","","","","","","","","","","",0.144415495
"X",9,17,2023,816,112457,42.88728,-69.40168167,104,318,1,"-","",5,"","",3,1,"C","","","","","","","","","","","","","","","","","","","","","","","","","","","","","",102.8,1000,100,"","","","","","","","","","","","","",0.142172842
"X",9,17,2023,817,112502,42.886605,-69.39856167,107,317,1,"-","",5,"","",3,1,"C","","","","","","","","","","","","","","","","","","","","","","","","","","","","","",103.1,1000,100,"","","","","","","","","","","","","",0.143111847
"X",9,17,2023,818,112507,42.885895,-69.395465,107,317,1,"-","",5,"","",3,1,"C","","","","","","","","","","","","","","","","","","","","","","","","","","","","","",102.7,1000,100,"","","","","","","","","","","","","",0.142742578
"X",9,17,2023,819,112512,42.88519667,-69.39237167,107,315,1,"-","",5,"","",3,1,"C","","","","","","","","","","","","","","","","","","","","","","","","","","","","","",102.4,1000,100,"","","","","","","","","","","","","",0.142396295
"X",9,17,2023,820,112517,42.88447833,-69.38928,108,313,1,"-","",5,"","",3,1,"C","","","","","","","","","","","","","","","","","","","","","","","","","","","","","",102.8,1000,100,"","","","","","","","","","","","","",0.142686079
"X",9,17,2023,821,112522,42.883535,-69.38632,117,308,1,"-","",5,"","",3,1,"C","","","","","","","","","","","","","","","","","","","","","","","","","","","","","",103,1000,100,"","","","","","","","","","","","","",0.142004995
"X",9,17,2023,822,112527,42.88199833,-69.38395,136,306,1,"-","",5,"","",3,1,"C","","","","","","","","","","","","","","","","","","","","","","","","","","","","","",100.4,1000,100,"","","","","","","","","","","","","",0.139226106
"X",9,17,2023,823,112532,42.88022167,-69.38205,144,314,1,"-","",5,"","",3,1,"C","","","","","","","","","","","","","","","","","","","","","","","","","","","","","",97.2,1000,100,"","","","","","","","","","","","","",0.135522981
"X",9,17,2023,824,112537,42.87830333,-69.38058,153,313,1,"-","",5,"","",3,1,"C","","","","","","","","","","","","","","","","","","","","","","","","","","","","","",95,1000,100,"","","","","","","","","","","","","",0.132093959
"X",9,17,2023,825,112542,42.87620333,-69.37964333,165,312,1,"-","",5,"","",3,1,"C","","","","","","","","","","","","","","","","","","","","","","","","","","","","","",95,1000,100,"","","","","","","","","","","","","",0.132649293
"X",9,17,2023,826,112547,42.87401667,-69.37936833,177,312,1,"-","",5,"","",3,1,"C","","","","","","","","","","","","","","","","","","","","","","","","","","","","","",94.2,1000,100,"","","","","","","","","","","","","",0.131844875
"X",9,17,2023,827,112552,42.871915,-69.37964167,187,317,1,"-","",5,"","",3,1,"C","","","","","","","","","","","","","","","","","","","","","","","","","","","","","",91.3,1000,100,"","","","","","","","","","","","","",0.1267569
"X",9,17,2023,828,112552,42.871915,-69.37964167,187,317,1,"-","",5,"","",3,1,"C","","","","","","","","","","","","","","","","","","","","","","","","","","","","","",91.3,1000,100,"","","","","","","","","","","","","",0
"X",9,17,2023,829,112557,42.86994667,-69.38041333,198,321,1,"-","",5,"","",3,1,"C","","","","","","","","","","","","","","","","","","","","","","","","","","","","","",87.4,1000,100,"","","","","","","","","","","","","",0.122961005
"X",9,17,2023,830,112602,42.868135,-69.38167,210,316,1,"-","",5,"","",3,1,"C","","","","","","","","","","","","","","","","","","","","","","","","","","","","","",88,1000,100,"","","","","","","","","","","","","",0.12202286
"X",9,17,2023,831,112607,42.866505,-69.38336333,220,314,1,"-","",5,"","",3,1,"C","","","","","","","","","","","","","","","","","","","","","","","","","","","","","",88.4,1000,100,"","","","","","","","","","","","","",0.123005603
"S",9,17,2023,832,112611,42.86521099,-69.38542657,232,313,1,"-","",5,"","",3,1,"C","2","","","","","","","","","","","","","","","","","","","","","","","","","","","","",88,1000,100,"","","","","","","","","","","","","",0.119499375
"X",9,17,2023,833,112612,42.86518167,-69.38547333,232,313,1,"-","",5,"","",3,1,"C","","","","","","","","","","","","","","","","","","","","","","","","","","","","","",88,1000,100,"","","","","","","","","","","","","",0.122207625
"X",9,17,2023,834,112617,42.86417,-69.38792,242,313,1,"-","",5,"","",3,1,"C","","","","","","","","","","","","","","","","","","","","","","","","","","","","","",88.4,1000,100,"","","","","","","","","","","","","",0.12362281
"X",9,17,2023,835,112622,42.86354167,-69.390575,255,316,1,"-","",5,"","",3,1,"C","","","","","","","","","","","","","","","","","","","","","","","","","","","","","",88.6,1000,100,"","","","","","","","","","","","","",0.122780589
"X",9,17,2023,836,112622,42.86354167,-69.390575,255,316,1,"-","",5,"","",3,1,"C","","","","","","","","","","","","","","","","","","","","","","","","","","","","","",88.6,1000,100,"","","","","","","","","","","","","",0
"X",9,17,2023,837,112627,42.863455,-69.39333167,270,314,1,"-","",5,"","",3,1,"C","","","","","","","","","","","","","","","","","","","","","","","","","","","","","",86.9,1000,100,"","","","","","","","","","","","","",0.12142759
"X",9,17,2023,838,112632,42.86397167,-69.39606833,287,311,1,"-","",5,"","",3,1,"C","","","","","","","","","","","","","","","","","","","","","","","","","","","","","",89,1000,100,"","","","","","","","","","","","","",0.124366382
"X",9,17,2023,839,112637,42.86500167,-69.39862667,300,307,1,"-","",5,"","",3,1,"C","","","","","","","","","","","","","","","","","","","","","","","","","","","","","",92.3,1000,100,"","","","","","","","","","","","","",0.128452275
"X",9,17,2023,840,112642,42.86637833,-69.40095333,309,306,1,"-","",5,"","",3,1,"C","","","","","","","","","","","","","","","","","","","","","","","","","","","","","",95.4,1000,100,"","","","","","","","","","","","","",0.131588162
"X",9,17,2023,841,112647,42.86809,-69.4027,322,310,1,"-","",5,"","",3,1,"C","","","","","","","","","","","","","","","","","","","","","","","","","","","","","",91.8,1000,100,"","","","","","","","","","","","","",0.128333357
"X",9,17,2023,842,112652,42.87001833,-69.40390667,335,319,1,"-","",5,"","",3,1,"C","","","","","","","","","","","","","","","","","","","","","","","","","","","","","",92.5,1000,100,"","","","","","","","","","","","","",0.127373463
"X",9,17,2023,843,112657,42.87208333,-69.40477667,344,316,1,"-","",5,"","",3,1,"C","","","","","","","","","","","","","","","","","","","","","","","","","","","","","",94.3,1000,100,"","","","","","","","","","","","","",0.129759269
"X",9,17,2023,844,112702,42.87427167,-69.40550833,345,306,1,"-","",5,"","",3,1,"C","","","","","","","","","","","","","","","","","","","","","","","","","","","","","",98.3,1000,100,"","","","","","","","","","","","","",0.135275351
"X",9,17,2023,845,112707,42.87651,-69.40640333,342,301,1,"-","",5,"","",3,1,"C","","","","","","","","","","","","","","","","","","","","","","","","","","","","","",100.6,1000,100,"","","","","","","","","","","","","",0.140041384
"X",9,17,2023,846,112712,42.87871167,-69.40750167,338,304,1,"-","",5,"","",3,1,"C","","","","","","","","","","","","","","","","","","","","","","","","","","","","","",100.2,1000,100,"","","","","","","","","","","","","",0.140745246
"X",9,17,2023,847,112717,42.88081167,-69.40868,337,310,1,"-","",5,"","",3,1,"C","","","","","","","","","","","","","","","","","","","","","","","","","","","","","",97.8,1000,100,"","","","","","","","","","","","","",0.136327121
"X",9,17,2023,848,112722,42.88286333,-69.40991833,336,313,1,"-","",5,"","",3,1,"C","","","","","","","","","","","","","","","","","","","","","","","","","","","","","",96.8,1000,100,"","","","","","","","","","","","","",0.134692973
"X",9,17,2023,849,112722,42.88286333,-69.40991833,336,313,1,"-","",5,"","",3,1,"C","","","","","","","","","","","","","","","","","","","","","","","","","","","","","",96.8,1000,100,"","","","","","","","","","","","","",0
"X",9,17,2023,850,112727,42.884875,-69.41114333,336,322,1,"-","",5,"","",3,1,"C","","","","","","","","","","","","","","","","","","","","","","","","","","","","","",94.3,1000,100,"","","","","","","","","","","","","",0.132259304
"X",9,17,2023,851,112732,42.88683,-69.41233833,336,326,1,"-","",5,"","",3,1,"C","","","","","","","","","","","","","","","","","","","","","","","","","","","","","",92.6,1000,100,"","","","","","","","","","","","","",0.128613921
"S",9,17,2023,852,112733,42.88721328,-69.41257658,336,325,2,"1","112",5,"2","2",3,1,"C","3","","","","","","","","","","","","","","","","","","","","","","","","","","","","",93,1000,100,"","","","","","","","","","","","","",0.025286465
"X",9,17,2023,853,112737,42.88880333,-69.413565,336,322,2,"2","112",5,"2","2",3,1,"C","","","","","","","","","","","","","","","","","","","","","","","","","","","","","",94.5,1000,100,"","","","","","","","","","","","","",0.130189813
"X",9,17,2023,854,112737,42.88886867,-69.41360247,336,322,2,"2","112",5,"2","2",3,1,"C","","","","","","","","","","","","","","","","","","","","","","","","","","","","","",94.5,1000,100,"","","","","","","","","","","","","",0.004255094
"X",9,17,2023,855,112737,42.88899057,-69.41367238,336,322,2,"2","112",5,"2","2",3,1,"C","","","","","","","","","","","","","","","","","","","","","","","","","","","","","",94.6,1000,100,"","","","","","","","","","","","","",0.012193709
"X",9,17,2023,856,112742,42.89083167,-69.41472833,338,317,2,"2","112",5,"2","2",3,1,"C","","","","","","","","","","","","","","","","","","","","","","","","","","","","","",95.7,1000,100,"","","","","","","","","","","","","",0.132097281
"X",9,17,2023,857,112746,42.89286538,-69.41579207,339,317,2,"2","112",5,"2","2",3,1,"C","","","","","","","","","","","","","","","","","","","","","","","","","","","","","",96.6,1000,100,"","","","","","","","","","","","","",0.130763604
"X",9,17,2023,858,112747,42.89292833,-69.415825,339,317,2,"2","112",5,"2","2",3,1,"C","","","","","","","","","","","","","","","","","","","","","","","","","","","","","",96.6,1000,100,"","","","","","","","","","","","","",0.134811364
"X",9,17,2023,859,112752,42.89499667,-69.41704333,336,316,2,"2","112",5,"2","2",3,1,"C","","","","","","","","","","","","","","","","","","","","","","","","","","","","","",97.1,1000,100,"","","","","","","","","","","","","",0.135253465
"X",9,17,2023,860,112757,42.89701333,-69.418395,333,316,2,"2","112",5,"2","2",3,1,"C","","","","","","","","","","","","","","","","","","","","","","","","","","","","","",96.9,1000,100,"","","","","","","","","","","","","",0.134890426
"X",9,17,2023,861,112802,42.89897,-69.41978833,332,319,2,"2","112",5,"2","2",3,1,"C","","","","","","","","","","","","","","","","","","","","","","","","","","","","","",95.8,1000,100,"","","","","","","","","","","","","",0.132503082
"X",9,17,2023,862,112807,42.90091333,-69.42116667,332,321,2,"2","112",5,"2","2",3,1,"C","","","","","","","","","","","","","","","","","","","","","","","","","","","","","",94.9,1000,100,"","","","","","","","","","","","","",0.131487461
"X",9,17,2023,863,112812,42.90285833,-69.422545,333,319,2,"2","112",5,"2","2",3,1,"C","","","","","","","","","","","","","","","","","","","","","","","","","","","","","",95.2,1000,100,"","","","","","","","","","","","","",0.131575386
"X",9,17,2023,864,112817,42.904835,-69.423905,333,317,2,"2","112",5,"2","2",3,1,"C","","","","","","","","","","","","","","","","","","","","","","","","","","","","","",95.9,1000,100,"","","","","","","","","","","","","",0.132900036
"X",9,17,2023,865,112822,42.90683333,-69.42531333,333,318,2,"2","112",5,"2","2",3,1,"C","","","","","","","","","","","","","","","","","","","","","","","","","","","","","",97.7,1000,100,"","","","","","","","","","","","","",0.135023853
"X",9,17,2023,866,112822,42.90683333,-69.42531333,333,318,2,"2","112",5,"2","2",3,1,"C","","","","","","","","","","","","","","","","","","","","","","","","","","","","","",97.7,1000,100,"","","","","","","","","","","","","",0
"X",9,17,2023,867,112827,42.90884667,-69.426685,334,320,2,"2","112",5,"2","2",3,1,"C","","","","","","","","","","","","","","","","","","","","","","","","","","","","","",97.2,1000,100,"","","","","","","","","","","","","",0.135096189
"X",9,17,2023,868,112832,42.91086667,-69.42793,336,324,2,"2","112",5,"2","2",3,1,"C","","","","","","","","","","","","","","","","","","","","","","","","","","","","","",95.9,1000,100,"","","","","","","","","","","","","",0.1330666
"X",9,17,2023,869,112837,42.912855,-69.42918,335,326,2,"2","112",5,"2","2",3,1,"C","","","","","","","","","","","","","","","","","","","","","","","","","","","","","",94.4,1000,100,"","","","","","","","","","","","","",0.131427096
"X",9,17,2023,870,112842,42.91482333,-69.43043667,335,329,2,"2","112",5,"2","2",3,1,"C","","","","","","","","","","","","","","","","","","","","","","","","","","","","","",93.7,1000,100,"","","","","","","","","","","","","",0.130460474
"X",9,17,2023,871,112847,42.91679333,-69.43169167,335,330,2,"2","112",5,"2","2",3,1,"C","","","","","","","","","","","","","","","","","","","","","","","","","","","","","",94.2,1000,100,"","","","","","","","","","","","","",0.13051938
"X",9,17,2023,872,112852,42.91877333,-69.432935,336,330,2,"2","112",5,"2","2",3,1,"C","","","","","","","","","","","","","","","","","","","","","","","","","","","","","",94.5,1000,100,"","","","","","","","","","","","","",0.130847829
"X",9,17,2023,873,112857,42.92075667,-69.43416333,335,330,2,"2","112",5,"2","2",3,1,"C","","","","","","","","","","","","","","","","","","","","","","","","","","","","","",94.2,1000,100,"","","","","","","","","","","","","",0.130755164
"P",9,17,2023,874,112858,42.92131944,-69.43453404,335,330,2,"2","112",5,"2","2",3,1,"C","4","21","","UNDO","25","","","1","3","3","","","","","","","","","","","","","","","","","","","",94.1,1000,100,"","","","","","","","","","","","","",0.037514921
"X",9,17,2023,875,112902,42.922715,-69.43545333,333,329,2,"2","112",5,"2","2",3,1,"C","","","","","","","","","","","","","","","","","","","","","","","","","","","","","",94.1,1000,100,"","","","","","","","","","","","","",0.130543856
"X",9,17,2023,876,112907,42.92419833,-69.43743667,305,320,2,"2","112",5,"2","2",3,1,"C","","","","","","","","","","","","","","","","","","","","","","","","","","","","","",90.3,1000,100,"","","","","","","","","","","","","",0.124640323
"X",9,17,2023,877,112912,42.92438167,-69.44022167,267,313,2,"2","112",5,"2","2",3,1,"C","","","","","","","","","","","","","","","","","","","","","","","","","","","","","",89.6,1000,100,"","","","","","","","","","","","","",0.122935972
"X",9,17,2023,878,112917,42.923375,-69.44257167,233,309,2,"2","112",5,"2","2",3,1,"C","","","","","","","","","","","","","","","","","","","","","","","","","","","","","",86.9,1000,100,"","","","","","","","","","","","","",0.119698468
"X",9,17,2023,879,112922,42.921645,-69.44394833,204,305,2,"2","112",5,"2","2",3,1,"C","","","","","","","","","","","","","","","","","","","","","","","","","","","","","",87.6,1000,100,"","","","","","","","","","","","","",0.120218387
"X",9,17,2023,880,112927,42.91958833,-69.44430667,180,298,2,"2","112",5,"2","2",3,1,"C","","","","","","","","","","","","","","","","","","","","","","","","","","","","","",91.3,1000,100,"","","","","","","","","","","","","",0.124484228
"S",9,17,2023,881,112929,42.91867524,-69.443972,171,296,2,"3","112",5,"2","2",3,1,"C","5","","","","","","","","","","","","","","","","","","","","","","","","","","","","",92.9,1000,100,"","","","","","","","","","","999 FOR UNDO - MOVE BACK - ","","",0.056762762
"X",9,17,2023,882,112930,42.91812137,-69.44376901,166,295,4,"-","112",5,"","",3,1,"C","","","","","","","","","","","","","","","","","","","","","","","","","","","","","",93.8,1000,100,"","","","","","","","","","","","","",0.09119456
"X",9,17,2023,883,112932,42.91747833,-69.44353333,160,293,4,"-","112",5,"","",3,1,"C","","","","","","","","","","","","","","","","","","","","","","","","","","","","","",94.9,1000,100,"","","","","","","","","","","","","",0.131169219
"X",9,17,2023,884,112937,42.91556667,-69.44189833,144,292,4,"-","112",5,"","",3,1,"C","","","","","","","","","","","","","","","","","","","","","","","","","","","","","",97.8,1000,100,"","","","","","","","","","","","","",0.135433548
"X",9,17,2023,885,112942,42.91409167,-69.439505,126,294,4,"-","112",5,"","",3,1,"C","","","","","","","","","","","","","","","","","","","","","","","","","","","","","",99,1000,100,"","","","","","","","","","","","","",0.137542774
"X",9,17,2023,886,112947,42.91325667,-69.43655,105,299,4,"-","112",5,"","",3,1,"C","","","","","","","","","","","","","","","","","","","","","","","","","","","","","",101,1000,100,"","","","","","","","","","","","","",0.139274682
"X",9,17,2023,887,112952,42.91330167,-69.433395,84,302,4,"-","112",5,"","",3,1,"C","","","","","","","","","","","","","","","","","","","","","","","","","","","","","",99.5,1000,100,"","","","","","","","","","","","","",0.138760291
"X",9,17,2023,888,112952,42.91330167,-69.433395,84,302,4,"-","112",5,"","",3,1,"C","","","","","","","","","","","","","","","","","","","","","","","","","","","","","",99.5,1000,100,"","","","","","","","","","","","","",0
"X",9,17,2023,889,112957,42.914375,-69.43065333,55,310,4,"-","112",5,"","",3,1,"C","","","","","","","","","","","","","","","","","","","","","","","","","","","","","",98.2,1000,100,"","","","","","","","","","","","","",0.136700637
"X",9,17,2023,890,113002,42.91632167,-69.429375,15,313,4,"-","112",5,"","",3,1,"C","","","","","","","","","","","","","","","","","","","","","","","","","","","","","",93.5,1000,100,"","","","","","","","","","","","","",0.129692713
"X",9,17,2023,891,113007,42.91838333,-69.42981333,341,304,4,"-","112",5,"","",3,1,"C","","","","","","","","","","","","","","","","","","","","","","","","","","","","","",91.6,1000,100,"","","","","","","","","","","","","",0.12527489
"X",9,17,2023,892,113012,42.91992167,-69.431735,309,294,4,"-","112",5,"","",3,1,"C","","","","","","","","","","","","","","","","","","","","","","","","","","","","","",89.1,1000,100,"","","","","","","","","","","","","",0.125179196
"X",9,17,2023,893,113017,42.92070833,-69.43436667,286,291,4,"-","112",5,"","",3,1,"C","","","","","","","","","","","","","","","","","","","","","","","","","","","","","",89.4,1000,100,"","","","","","","","","","","","","",0.124977091
"X",9,17,2023,894,113022,42.92082667,-69.43712667,270,296,4,"-","112",5,"","",3,1,"C","","","","","","","","","","","","","","","","","","","","","","","","","","","","","",87.4,1000,100,"","","","","","","","","","","","","",0.121557814
"X",9,17,2023,895,113027,42.92055333,-69.43982,260,291,4,"-","112",5,"","",3,1,"C","","","","","","","","","","","","","","","","","","","","","","","","","","","","","",85.8,1000,100,"","","","","","","","","","","","","",0.119550748
"X",9,17,2023,896,113032,42.91987,-69.44237667,247,288,4,"-","112",5,"","",3,1,"C","","","","","","","","","","","","","","","","","","","","","","","","","","","","","",87.3,1000,100,"","","","","","","","","","","","","",0.119664101
"X",9,17,2023,897,113037,42.91861333,-69.44458667,226,285,4,"-","112",5,"","",3,1,"C","","","","","","","","","","","","","","","","","","","","","","","","","","","","","",88.6,1000,100,"","","","","","","","","","","","","",0.123024004
"X",9,17,2023,898,113042,42.916745,-69.44586333,199,286,4,"-","112",5,"","",3,1,"C","","","","","","","","","","","","","","","","","","","","","","","","","","","","","",91.6,1000,100,"","","","","","","","","","","","","",0.125437023
"X",9,17,2023,899,113047,42.91462667,-69.44580167,170,294,4,"-","112",5,"","",3,1,"C","","","","","","","","","","","","","","","","","","","","","","","","","","","","","",93.5,1000,100,"","","","","","","","","","","","","",0.127214603
"X",9,17,2023,900,113052,42.912785,-69.44423667,140,295,4,"-","112",5,"","",3,1,"C","","","","","","","","","","","","","","","","","","","","","","","","","","","","","",95.3,1000,100,"","","","","","","","","","","","","",0.130240093
"X",9,17,2023,901,113057,42.91167,-69.44155333,113,295,4,"-","112",5,"","",3,1,"C","","","","","","","","","","","","","","","","","","","","","","","","","","","","","",99.2,1000,100,"","","","","","","","","","","","","",0.135663523
"X",9,17,2023,902,113102,42.91147333,-69.4384,89,291,4,"-","112",5,"","",3,1,"C","","","","","","","","","","","","","","","","","","","","","","","","","","","","","",101.8,1000,100,"","","","","","","","","","","","","",0.139166383
"X",9,17,2023,903,113107,42.912195,-69.43536,66,293,4,"-","112",5,"","",3,1,"C","","","","","","","","","","","","","","","","","","","","","","","","","","","","","",101.7,1000,100,"","","","","","","","","","","","","",0.140526972
"P",9,17,2023,904,113111,42.91352364,-69.43314712,47,297,4,"-","112",5,"","",3,1,"C","6","","","OCSU","1","","","1","3","0","","","","","","","","","","","","","","","","","","","",99.9,1000,100,"","","","","","","","","","","","","",0.125826163
"X",9,17,2023,905,113112,42.91367,-69.43290333,45,297,4,"-","112",5,"","",3,1,"C","","","","","","","","","","","","","","","","","","","","","","","","","","","","","",99.7,1000,100,"","","","","","","","","","","","","",0.139687655
"X",9,17,2023,906,113117,42.915615,-69.43136167,24,300,4,"-","112",5,"","",3,1,"C","","","","","","","","","","","","","","","","","","","","","","","","","","","","","",96.8,1000,100,"","","","","","","","","","","","","",0.135028588
"X",9,17,2023,907,113122,42.91781333,-69.430955,2,299,4,"-","112",5,"","",3,1,"C","","","","","","","","","","","","","","","","","","","","","","","","","","","","","",95.7,1000,100,"","","","","","","","","","","","","",0.133194666
"X",9,17,2023,908,113127,42.92001,-69.43153167,345,302,4,"-","112",5,"","",3,1,"C","","","","","","","","","","","","","","","","","","","","","","","","","","","","","",95.6,1000,100,"","","","","","","","","","","","","",0.134304003
"X",9,17,2023,909,113132,42.92189667,-69.43299833,325,305,4,"-","112",5,"","",3,1,"C","","","","","","","","","","","","","","","","","","","","","","","","","","","","","",93.2,1000,100,"","","","","","","","","","","","","",0.130345244
"X",9,17,2023,910,113137,42.92326167,-69.43511667,307,308,4,"-","112",5,"","",3,1,"C","","","","","","","","","","","","","","","","","","","","","","","","","","","","","",88.5,1000,100,"","","","","","","","","","","","","",0.124059503
"X",9,17,2023,911,113142,42.92407167,-69.43761,291,307,4,"-","112",5,"","",3,1,"C","","","","","","","","","","","","","","","","","","","","","","","","","","","","","",86.3,1000,100,"","","","","","","","","","","","","",0.119923879
"X",9,17,2023,912,113147,42.92426333,-69.44030167,270,304,4,"-","112",5,"","",3,1,"C","","","","","","","","","","","","","","","","","","","","","","","","","","","","","",85.9,1000,100,"","","","","","","","","","","","","",0.11889725
"X",9,17,2023,913,113152,42.92388667,-69.442895,256,308,4,"-","112",5,"","",3,1,"C","","","","","","","","","","","","","","","","","","","","","","","","","","","","","",83.6,1000,100,"","","","","","","","","","","","","",0.116237232
"X",9,17,2023,914,113152,42.92388667,-69.442895,256,308,4,"-","112",5,"","",3,1,"C","","","","","","","","","","","","","","","","","","","","","","","","","","","","","",83.6,1000,100,"","","","","","","","","","","","","",0
"X",9,17,2023,915,113157,42.92294333,-69.44513167,236,307,4,"-","112",5,"","",3,1,"C","","","","","","","","","","","","","","","","","","","","","","","","","","","","","",81.5,1000,100,"","","","","","","","","","","","","",0.113480772
"X",9,17,2023,916,113202,42.92148,-69.44683167,216,302,4,"-","112",5,"","",3,1,"C","","","","","","","","","","","","","","","","","","","","","","","","","","","","","",83.5,1000,100,"","","","","","","","","","","","","",0.115350458
"X",9,17,2023,917,113207,42.91963833,-69.44788167,199,298,4,"-","112",5,"","",3,1,"C","","","","","","","","","","","","","","","","","","","","","","","","","","","","","",86.8,1000,100,"","","","","","","","","","","","","",0.119824931
"X",9,17,2023,918,113212,42.91763,-69.44817,182,298,4,"-","112",5,"","",3,1,"C","","","","","","","","","","","","","","","","","","","","","","","","","","","","","",87.6,1000,100,"","","","","","","","","","","","","",0.121245876
"X",9,17,2023,919,113217,42.91565167,-69.44759167,165,301,4,"-","112",5,"","",3,1,"C","","","","","","","","","","","","","","","","","","","","","","","","","","","","","",87.3,1000,100,"","","","","","","","","","","","","",0.121471632
"X",9,17,2023,920,113222,42.91381833,-69.44630333,149,305,4,"-","112",5,"","",3,1,"C","","","","","","","","","","","","","","","","","","","","","","","","","","","","","",88.5,1000,100,"","","","","","","","","","","","","",0.123796482
"X",9,17,2023,921,113227,42.912245,-69.44442833,135,305,4,"-","112",5,"","",3,1,"C","","","","","","","","","","","","","","","","","","","","","","","","","","","","","",91.1,1000,100,"","","","","","","","","","","","","",0.125384426
"X",9,17,2023,922,113232,42.911045,-69.441975,120,305,4,"-","112",5,"","",3,1,"C","","","","","","","","","","","","","","","","","","","","","","","","","","","","","",94.5,1000,100,"","","","","","","","","","","","","",0.129729171
"X",9,17,2023,923,113237,42.91030167,-69.43915333,108,304,4,"-","112",5,"","",3,1,"C","","","","","","","","","","","","","","","","","","","","","","","","","","","","","",94.8,1000,100,"","","","","","","","","","","","","",0.131863944
"X",9,17,2023,924,113242,42.91015167,-69.43607,91,307,4,"-","112",5,"","",3,1,"C","","","","","","","","","","","","","","","","","","","","","","","","","","","","","",97.1,1000,100,"","","","","","","","","","","","","",0.135888091
"X",9,17,2023,925,113247,42.91063833,-69.43306,74,312,4,"-","112",5,"","",3,1,"C","","","","","","","","","","","","","","","","","","","","","","","","","","","","","",97.2,1000,100,"","","","","","","","","","","","","",0.135550927
"X",9,17,2023,926,113252,42.91174333,-69.43035667,56,312,4,"-","112",5,"","",3,1,"C","","","","","","","","","","","","","","","","","","","","","","","","","","","","","",98.6,1000,100,"","","","","","","","","","","","","",0.136137282
"X",9,17,2023,927,113257,42.91345333,-69.428285,36,311,4,"-","112",5,"","",3,1,"C","","","","","","","","","","","","","","","","","","","","","","","","","","","","","",98.9,1000,100,"","","","","","","","","","","","","",0.137258081
"X",9,17,2023,928,113302,42.91553333,-69.42722667,15,318,4,"-","112",5,"","",3,1,"C","","","","","","","","","","","","","","","","","","","","","","","","","","","","","",95,1000,100,"","","","","","","","","","","","","",0.133273155
"X",9,17,2023,929,113307,42.91765333,-69.427275,353,321,4,"-","112",5,"","",3,1,"C","","","","","","","","","","","","","","","","","","","","","","","","","","","","","",91.4,1000,100,"","","","","","","","","","","","","",0.12730351
"X",9,17,2023,930,113312,42.91959167,-69.42841167,331,319,4,"-","112",5,"","",3,1,"C","","","","","","","","","","","","","","","","","","","","","","","","","","","","","",90.2,1000,100,"","","","","","","","","","","","","",0.126655983
"X",9,17,2023,931,113317,42.92119,-69.43023,316,316,4,"-","112",5,"","",3,1,"C","","","","","","","","","","","","","","","","","","","","","","","","","","","","","",90,1000,100,"","","","","","","","","","","","","",0.124903475
"X",9,17,2023,932,113322,42.92251167,-69.43243667,307,311,4,"-","112",5,"","",3,1,"C","","","","","","","","","","","","","","","","","","","","","","","","","","","","","",90.6,1000,100,"","","","","","","","","","","","","",0.125338705
"X",9,17,2023,933,113322,42.92251167,-69.43243667,307,311,4,"-","112",5,"","",3,1,"C","","","","","","","","","","","","","","","","","","","","","","","","","","","","","",90.6,1000,100,"","","","","","","","","","","","","",0
"X",9,17,2023,934,113327,42.923645,-69.43485333,300,309,4,"-","112",5,"","",3,1,"C","","","","","","","","","","","","","","","","","","","","","","","","","","","","","",90,1000,100,"","","","","","","","","","","","","",0.126172172
"X",9,17,2023,935,113332,42.92439333,-69.43746833,288,315,4,"-","112",5,"","",3,1,"C","","","","","","","","","","","","","","","","","","","","","","","","","","","","","",88,1000,100,"","","","","","","","","","","","","",0.123436315
"X",9,17,2023,936,113337,42.92473667,-69.44015833,277,319,4,"-","112",5,"","",3,1,"C","","","","","","","","","","","","","","","","","","","","","","","","","","","","","",86.3,1000,100,"","","","","","","","","","","","","",0.120048084
"X",9,17,2023,937,113342,42.924585,-69.44290167,264,317,4,"-","112",5,"","",3,1,"C","","","","","","","","","","","","","","","","","","","","","","","","","","","","","",87,1000,100,"","","","","","","","","","","","","",0.120952867
"X",9,17,2023,938,113347,42.92394,-69.44546,249,316,4,"-","112",5,"","",3,1,"C","","","","","","","","","","","","","","","","","","","","","","","","","","","","","",85.5,1000,100,"","","","","","","","","","","","","",0.118956951
