"rectype","month","day","year","eventno","time","lat","long","heading","alt","legtype","legstage","legno","visiblty","glarel","glarer","beaufort","cloud","wx","sightno","anglel","angler","speccode","number","numcalf","anhead","photos","idrel","confidnc","b1","b2","b3","b4","b5","b6","b7","b8","b9","b10","b11","b12","b13","b14","b15","refno","stratum","utc","radalt","gpsspeed","setalt","setvel","lensfl","ggf","int","gpsq","gpssats","roll","pitch","yaw","maghead","notes","edits","glarev","ph_qual","TrackDist"
"S",3,17,2023,536,84704,41.11121074428,-69.9443911700753,103,319,1,"-","",5,"","",3,3,"C","","","","","","","","","","","","","","","","","","","","","","","","","","","","","",95.3,1000,100,"","","","","","","","","","","","","",0.1055201862
"X",3,17,2023,537,84705,41.1111116666667,-69.943825,104,320,1,"-","",5,"","",3,3,"C","","","","","","","","","","","","","","","","","","","","","","","","","","","","","",95.2,1000,100,"","","","","","","","","","","","","",0.1318135537
"X",3,17,2023,538,84710,41.11061,-69.9410433333333,104,323,1,"-","",5,"","",3,3,"C","","","","","","","","","","","","","","","","","","","","","","","","","","","","","",93.5,1000,100,"","","","","","","","","","","","","",0.1293883983
"X",3,17,2023,539,84715,41.1100866666667,-69.93828,104,325,1,"-","",5,"","",3,3,"C","","","","","","","","","","","","","","","","","","","","","","","","","","","","","",93,1000,100,"","","","","","","","","","","","","",0.1288938671
"X",3,17,2023,540,84720,41.1095716666667,-69.93553,104,326,1,"-","",5,"","",3,3,"C","","","","","","","","","","","","","","","","","","","","","","","","","","","","","",92.7,1000,100,"","","","","","","","","","","","","",0.1281883322
"X",3,17,2023,541,84725,41.1090466666667,-69.932785,104,327,1,"-","",5,"","",3,3,"C","","","","","","","","","","","","","","","","","","","","","","","","","","","","","",93,1000,100,"","","","","","","","","","","","","",0.1281161876
"X",3,17,2023,542,84730,41.108545,-69.9300416666667,103,327,1,"-","",5,"","",3,3,"C","","","","","","","","","","","","","","","","","","","","","","","","","","","","","",92.1,1000,100,"","","","","","","","","","","","","",0.1277063919
"X",3,17,2023,543,84735,41.108075,-69.92728,103,325,1,"-","",5,"","",3,3,"C","","","","","","","","","","","","","","","","","","","","","","","","","","","","","",93,1000,100,"","","","","","","","","","","","","",0.1280811339
"X",3,17,2023,544,84740,41.1076216666667,-69.9244966666667,102,325,1,"-","",5,"","",3,3,"C","","","","","","","","","","","","","","","","","","","","","","","","","","","","","",93.1,1000,100,"","","","","","","","","","","","","",0.1288231281
"X",3,17,2023,545,84745,41.107215,-69.9216866666667,100,325,1,"-","",5,"","",3,3,"C","","","","","","","","","","","","","","","","","","","","","","","","","","","","","",93.4,1000,100,"","","","","","","","","","","","","",0.1294457043
"X",3,17,2023,546,84750,41.1069483333333,-69.918845,96,326,1,"-","",5,"","",3,3,"C","","","","","","","","","","","","","","","","","","","","","","","","","","","","","",93.6,1000,100,"","","","","","","","","","","","","",0.1295485157
"X",3,17,2023,547,84755,41.1068466666667,-69.9159816666667,92,326,1,"-","",5,"","",3,3,"C","","","","","","","","","","","","","","","","","","","","","","","","","","","","","",93.8,1000,100,"","","","","","","","","","","","","",0.1296796215
"X",3,17,2023,548,84800,41.10677,-69.9131066666667,92,326,1,"-","",5,"","",3,3,"C","","","","","","","","","","","","","","","","","","","","","","","","","","","","","",94.3,1000,100,"","","","","","","","","","","","","",0.1301452795
"X",3,17,2023,549,84805,41.1067183333333,-69.9102266666667,91,325,1,"-","",5,"","",3,3,"C","","","","","","","","","","","","","","","","","","","","","","","","","","","","","",94.2,1000,100,"","","","","","","","","","","","","",0.1303270997
"X",3,17,2023,550,84810,41.1067,-69.9073216666667,90,324,1,"-","",5,"","",3,3,"C","","","","","","","","","","","","","","","","","","","","","","","","","","","","","",95.2,1000,100,"","","","","","","","","","","","","",0.1314258468
"X",3,17,2023,551,84815,41.1065466666667,-69.9044016666667,96,329,1,"-","",5,"","",3,3,"C","","","","","","","","","","","","","","","","","","","","","","","","","","","","","",95.6,1000,100,"","","","","","","","","","","","","",0.1324204118
"X",3,17,2023,552,84820,41.10594,-69.901685,110,331,1,"-","",5,"","",3,3,"C","","","","","","","","","","","","","","","","","","","","","","","","","","","","","",92.5,1000,100,"","","","","","","","","","","","","",0.1281859664
"X",3,17,2023,553,84825,41.1047283333333,-69.8994466666667,131,322,1,"-","",5,"","",3,3,"C","","","","","","","","","","","","","","","","","","","","","","","","","","","","","",90.3,1000,100,"","","","","","","","","","","","","",0.1246865362
"X",3,17,2023,554,84830,41.1029633333333,-69.89795,152,315,1,"-","",5,"","",3,3,"C","","","","","","","","","","","","","","","","","","","","","","","","","","","","","",91.6,1000,100,"","","","","","","","","","","","","",0.1257569381
"X",3,17,2023,555,84830,41.1029633333333,-69.89795,152,315,1,"-","",5,"","",3,3,"C","","","","","","","","","","","","","","","","","","","","","","","","","","","","","",91.6,1000,100,"","","","","","","","","","","","","",0
"X",3,17,2023,556,84835,41.100905,-69.8973783333333,174,317,1,"-","",5,"","",3,3,"C","","","","","","","","","","","","","","","","","","","","","","","","","","","","","",91.8,1000,100,"","","","","","","","","","","","","",0.1262607087
"S",3,17,2023,557,84840,41.098844001475,-69.8979108955368,197,314,2,"1","5",5,"2","2",3,3,"C","","","","","","","","","","","","","","","","","","","","","","","","","","","","","",92.5,1000,100,"","","","","","","","","","","","","",0.1260674153
"X",3,17,2023,558,84840,41.0988216666667,-69.8979166666667,197,314,2,"1","5",5,"2","2",3,3,"C","","","","","","","","","","","","","","","","","","","","","","","","","","","","","",92.5,1000,100,"","","","","","","","","","","","","",0.1274335928
"X",3,17,2023,559,84845,41.0968583333333,-69.89925,207,308,2,"1","5",5,"2","2",3,3,"C","","","","","","","","","","","","","","","","","","","","","","","","","","","","","",95.2,1000,100,"","","","","","","","","","","","","",0.1324197575
"X",3,17,2023,560,84850,41.094795,-69.900165,196,311,2,"1","5",5,"2","2",3,3,"C","","","","","","","","","","","","","","","","","","","","","","","","","","","","","",92.3,1000,100,"","","","","","","","","","","","","",0.1306184195
"X",3,17,2023,561,84853,41.0934329278389,-69.9004029286893,189,318,2,"2","5",5,"2","2",3,3,"C","","","","","","","","","","","","","","","","","","","","","","","","","","","","","",90.1,1000,100,"","","","","","","","","","","","","",0.0824850301
"X",3,17,2023,562,84855,41.092715,-69.9005283333333,186,322,2,"2","5",5,"2","2",3,3,"C","","","","","","","","","","","","","","","","","","","","","","","","","","","","","",89,1000,100,"","","","","","","","","","","","","",0.1259616423
"X",3,17,2023,563,84900,41.0906783333333,-69.90074,184,325,2,"2","5",5,"2","2",3,3,"C","","","","","","","","","","","","","","","","","","","","","","","","","","","","","",87.9,1000,100,"","","","","","","","","","","","","",0.1226569253
"X",3,17,2023,564,84905,41.08864,-69.900815,181,324,2,"2","5",5,"2","2",3,3,"C","","","","","","","","","","","","","","","","","","","","","","","","","","","","","",88.2,1000,100,"","","","","","","","","","","","","",0.1224295146
"X",3,17,2023,565,84910,41.0865866666667,-69.9007916666667,179,322,2,"2","5",5,"2","2",3,3,"C","","","","","","","","","","","","","","","","","","","","","","","","","","","","","",88.8,1000,100,"","","","","","","","","","","","","",0.1232875937
"X",3,17,2023,566,84915,41.0845233333333,-69.9007366666667,179,320,2,"2","5",5,"2","2",3,3,"C","","","","","","","","","","","","","","","","","","","","","","","","","","","","","",89,1000,100,"","","","","","","","","","","","","",0.1239084776
"X",3,17,2023,567,84920,41.0824416666667,-69.9006833333333,179,318,2,"2","5",5,"2","2",3,3,"C","","","","","","","","","","","","","","","","","","","","","","","","","","","","","",90.4,1000,100,"","","","","","","","","","","","","",0.1250075216
"X",3,17,2023,568,84925,41.0803433333333,-69.9006566666667,180,318,2,"2","5",5,"2","2",3,3,"C","","","","","","","","","","","","","","","","","","","","","","","","","","","","","",90.6,1000,100,"","","","","","","","","","","","","",0.1259906729
"X",3,17,2023,569,84930,41.07826,-69.9006166666667,179,323,2,"2","5",5,"2","2",3,3,"C","","","","","","","","","","","","","","","","","","","","","","","","","","","","","",89.6,1000,100,"","","","","","","","","","","","","",0.1250973856
"X",3,17,2023,570,84930,41.07826,-69.9006166666667,179,323,2,"2","5",5,"2","2",3,3,"C","","","","","","","","","","","","","","","","","","","","","","","","","","","","","",89.6,1000,100,"","","","","","","","","","","","","",0
"X",3,17,2023,571,84935,41.0761883333333,-69.9005633333333,179,326,2,"2","5",5,"2","2",3,3,"C","","","","","","","","","","","","","","","","","","","","","","","","","","","","","",89.7,1000,100,"","","","","","","","","","","","","",0.124407234
"X",3,17,2023,572,84940,41.0741,-69.9005183333333,179,327,2,"2","5",5,"2","2",3,3,"C","","","","","","","","","","","","","","","","","","","","","","","","","","","","","",90.6,1000,100,"","","","","","","","","","","","","",0.1254010297
"X",3,17,2023,573,84945,41.0719816666667,-69.9004716666667,179,323,2,"2","5",5,"2","2",3,3,"C","","","","","","","","","","","","","","","","","","","","","","","","","","","","","",92.3,1000,100,"","","","","","","","","","","","","",0.1272032405
"X",3,17,2023,574,84950,41.0697816666667,-69.90044,180,316,2,"2","5",5,"2","2",3,3,"C","","","","","","","","","","","","","","","","","","","","","","","","","","","","","",95.9,1000,100,"","","","","","","","","","","","","",0.1320967827
"X",3,17,2023,575,84955,41.0675166666667,-69.90044,180,310,2,"2","5",5,"2","2",3,3,"C","","","","","","","","","","","","","","","","","","","","","","","","","","","","","",98.6,1000,100,"","","","","","","","","","","","","",0.1359916354
"X",3,17,2023,576,85000,41.0652166666667,-69.9004483333333,180,309,2,"2","5",5,"2","2",3,3,"C","","","","","","","","","","","","","","","","","","","","","","","","","","","","","",99.6,1000,100,"","","","","","","","","","","","","",0.1380935667
"X",3,17,2023,577,85005,41.0629066666667,-69.900475,180,310,2,"2","5",5,"2","2",3,3,"C","","","","","","","","","","","","","","","","","","","","","","","","","","","","","",100,1000,100,"","","","","","","","","","","","","",0.1386987095
"X",3,17,2023,578,85010,41.0605983333333,-69.9004966666667,180,310,2,"2","5",5,"2","2",3,3,"C","","","","","","","","","","","","","","","","","","","","","","","","","","","","","",99.8,1000,100,"","","","","","","","","","","","","",0.1385968595
"X",3,17,2023,579,85015,41.058275,-69.900475,179,310,2,"2","5",5,"2","2",3,3,"C","","","","","","","","","","","","","","","","","","","","","","","","","","","","","",100.4,1000,100,"","","","","","","","","","","","","",0.1394974442
"X",3,17,2023,580,85020,41.0559483333333,-69.9004433333333,179,313,2,"2","5",5,"2","2",3,3,"C","","","","","","","","","","","","","","","","","","","","","","","","","","","","","",100.2,1000,100,"","","","","","","","","","","","","",0.1397014869
"X",3,17,2023,581,85025,41.053655,-69.9003533333333,178,321,2,"2","5",5,"2","2",3,3,"C","","","","","","","","","","","","","","","","","","","","","","","","","","","","","",98.4,1000,100,"","","","","","","","","","","","","",0.1377530618
"X",3,17,2023,582,85030,41.0514016666667,-69.9002383333333,178,326,2,"2","5",5,"2","2",3,3,"C","","","","","","","","","","","","","","","","","","","","","","","","","","","","","",97,1000,100,"","","","","","","","","","","","","",0.1353913225
"X",3,17,2023,583,85030,41.0514016666667,-69.9002383333333,178,326,2,"2","5",5,"2","2",3,3,"C","","","","","","","","","","","","","","","","","","","","","","","","","","","","","",97,1000,100,"","","","","","","","","","","","","",0
"X",3,17,2023,584,85035,41.0491533333333,-69.90008,177,327,2,"2","5",5,"2","2",3,3,"C","","","","","","","","","","","","","","","","","","","","","","","","","","","","","",97.3,1000,100,"","","","","","","","","","","","","",0.1351811954
"X",3,17,2023,585,85040,41.04688,-69.8999283333333,178,326,2,"2","5",5,"2","2",3,3,"C","","","","","","","","","","","","","","","","","","","","","","","","","","","","","",98.8,1000,100,"","","","","","","","","","","","","",0.1366646291
"X",3,17,2023,586,85045,41.0445816666667,-69.89982,178,326,2,"2","5",5,"2","2",3,3,"C","","","","","","","","","","","","","","","","","","","","","","","","","","","","","",99.4,1000,100,"","","","","","","","","","","","","",0.1380801495
"X",3,17,2023,587,85050,41.0422716666667,-69.8997116666667,178,327,2,"2","5",5,"2","2",3,3,"C","","","","","","","","","","","","","","","","","","","","","","","","","","","","","",100,1000,100,"","","","","","","","","","","","","",0.1387801876
"X",3,17,2023,588,85055,41.0399433333333,-69.8996066666667,178,327,2,"2","5",5,"2","2",3,3,"C","","","","","","","","","","","","","","","","","","","","","","","","","","","","","",100.7,1000,100,"","","","","","","","","","","","","",0.1398750402
"X",3,17,2023,589,85100,41.0375983333333,-69.899525,179,325,2,"2","5",5,"2","2",3,3,"C","","","","","","","","","","","","","","","","","","","","","","","","","","","","","",101.5,1000,100,"","","","","","","","","","","","","",0.1408434382
"X",3,17,2023,590,85105,41.0352283333333,-69.8994633333333,179,325,2,"2","5",5,"2","2",3,3,"C","","","","","","","","","","","","","","","","","","","","","","","","","","","","","",102.5,1000,100,"","","","","","","","","","","","","",0.1423232868
"X",3,17,2023,591,85110,41.0328483333333,-69.89944,180,324,2,"2","5",5,"2","2",3,3,"C","","","","","","","","","","","","","","","","","","","","","","","","","","","","","",103.2,1000,100,"","","","","","","","","","","","","",0.1429001955
"X",3,17,2023,592,85115,41.0304616666667,-69.8994333333333,180,326,2,"2","5",5,"2","2",3,3,"C","","","","","","","","","","","","","","","","","","","","","","","","","","","","","",103.2,1000,100,"","","","","","","","","","","","","",0.1432968758
"X",3,17,2023,593,85120,41.0280666666667,-69.8994483333333,180,327,2,"2","5",5,"2","2",3,3,"C","","","","","","","","","","","","","","","","","","","","","","","","","","","","","",103.2,1000,100,"","","","","","","","","","","","","",0.1437984998
"X",3,17,2023,594,85125,41.02567,-69.8994716666667,181,326,2,"2","5",5,"2","2",3,3,"C","","","","","","","","","","","","","","","","","","","","","","","","","","","","","",103.6,1000,100,"","","","","","","","","","","","","",0.1439008434
"X",3,17,2023,595,85130,41.023265,-69.899525,181,323,2,"2","5",5,"2","2",3,3,"C","","","","","","","","","","","","","","","","","","","","","","","","","","","","","",104.1,1000,100,"","","","","","","","","","","","","",0.1444175065
"X",3,17,2023,596,85130,41.023265,-69.899525,181,323,2,"2","5",5,"2","2",3,3,"C","","","","","","","","","","","","","","","","","","","","","","","","","","","","","",104.1,1000,100,"","","","","","","","","","","","","",0
"X",3,17,2023,597,85135,41.020845,-69.899645,182,320,2,"2","5",5,"2","2",3,3,"C","","","","","","","","","","","","","","","","","","","","","","","","","","","","","",104.8,1000,100,"","","","","","","","","","","","","",0.1453995495
"X",3,17,2023,598,85140,41.01841,-69.8997633333333,182,316,2,"2","5",5,"2","2",3,3,"C","","","","","","","","","","","","","","","","","","","","","","","","","","","","","",105.6,1000,100,"","","","","","","","","","","","","",0.1462967523
"X",3,17,2023,599,85145,41.0159583333333,-69.899805,180,312,2,"2","5",5,"2","2",3,3,"C","","","","","","","","","","","","","","","","","","","","","","","","","","","","","",105.9,1000,100,"","","","","","","","","","","","","",0.1472112891
"X",3,17,2023,600,85150,41.0135066666667,-69.8997266666667,178,311,2,"2","5",5,"2","2",3,3,"C","","","","","","","","","","","","","","","","","","","","","","","","","","","","","",105.8,1000,100,"","","","","","","","","","","","","",0.1472419583
"X",3,17,2023,601,85155,41.011075,-69.8996283333333,178,312,2,"2","5",5,"2","2",3,3,"C","","","","","","","","","","","","","","","","","","","","","","","","","","","","","",104.6,1000,100,"","","","","","","","","","","","","",0.1460663312
"X",3,17,2023,602,85200,41.00867,-69.8995683333333,179,313,2,"2","5",5,"2","2",3,3,"C","","","","","","","","","","","","","","","","","","","","","","","","","","","","","",103.7,1000,100,"","","","","","","","","","","","","",0.1444228849
"X",3,17,2023,603,85205,41.00627,-69.899545,180,314,2,"2","5",5,"2","2",3,3,"C","","","","","","","","","","","","","","","","","","","","","","","","","","","","","",103.3,1000,100,"","","","","","","","","","","","","",0.1441009752
"X",3,17,2023,604,85210,41.0038783333333,-69.8995733333333,181,312,2,"2","5",5,"2","2",3,3,"C","","","","","","","","","","","","","","","","","","","","","","","","","","","","","",103.2,1000,100,"","","","","","","","","","","","","",0.1436024984
"X",3,17,2023,605,85215,41.0014833333333,-69.8996666666667,182,308,2,"2","5",5,"2","2",3,3,"C","","","","","","","","","","","","","","","","","","","","","","","","","","","","","",103.8,1000,100,"","","","","","","","","","","","","",0.1438590694
"X",3,17,2023,606,85220,40.99908,-69.899835,183,303,2,"2","5",5,"2","2",3,3,"C","","","","","","","","","","","","","","","","","","","","","","","","","","","","","",104.1,1000,100,"","","","","","","","","","","","","",0.144498694
"X",3,17,2023,607,85225,40.99667,-69.89997,182,302,2,"2","5",5,"2","2",3,3,"C","","","","","","","","","","","","","","","","","","","","","","","","","","","","","",103.9,1000,100,"","","","","","","","","","","","","",0.14482676
"X",3,17,2023,608,85230,40.9942916666667,-69.9000033333333,180,309,2,"2","5",5,"2","2",3,3,"C","","","","","","","","","","","","","","","","","","","","","","","","","","","","","",101.7,1000,100,"","","","","","","","","","","","","",0.1428042098
"X",3,17,2023,609,85235,40.9919916666667,-69.899965,179,318,2,"2","5",5,"2","2",3,3,"C","","","","","","","","","","","","","","","","","","","","","","","","","","","","","",98.4,1000,100,"","","","","","","","","","","","","",0.1381039777
"X",3,17,2023,610,85240,40.9897183333333,-69.8999166666667,179,316,2,"2","5",5,"2","2",3,3,"C","","","","","","","","","","","","","","","","","","","","","","","","","","","","","",98.5,1000,100,"","","","","","","","","","","","","",0.1365095476
"X",3,17,2023,611,85245,40.9874083333333,-69.8998883333333,180,307,2,"2","5",5,"2","2",3,3,"C","","","","","","","","","","","","","","","","","","","","","","","","","","","","","",100.4,1000,100,"","","","","","","","","","","","","",0.1386994003
"X",3,17,2023,612,85250,40.98507,-69.8998833333333,180,306,2,"2","5",5,"2","2",3,3,"C","","","","","","","","","","","","","","","","","","","","","","","","","","","","","",100.8,1000,100,"","","","","","","","","","","","","",0.1403947852
"X",3,17,2023,613,85255,40.9827633333333,-69.8998866666667,180,311,2,"2","5",5,"2","2",3,3,"C","","","","","","","","","","","","","","","","","","","","","","","","","","","","","",98.9,1000,100,"","","","","","","","","","","","","",0.1384934036
"X",3,17,2023,614,85300,40.9804916666667,-69.8999,180,312,2,"2","5",5,"2","2",3,3,"C","","","","","","","","","","","","","","","","","","","","","","","","","","","","","",98,1000,100,"","","","","","","","","","","","","",0.1363932441
"X",3,17,2023,615,85300,40.9804916666667,-69.8999,180,312,2,"2","5",5,"2","2",3,3,"C","","","","","","","","","","","","","","","","","","","","","","","","","","","","","",98,1000,100,"","","","","","","","","","","","","",0
"X",3,17,2023,616,85305,40.9782133333333,-69.8999266666667,180,307,2,"2","5",5,"2","2",3,3,"C","","","","","","","","","","","","","","","","","","","","","","","","","","","","","",98.7,1000,100,"","","","","","","","","","","","","",0.1367975151
"X",3,17,2023,617,85310,40.9759033333333,-69.8999516666667,181,304,2,"2","5",5,"2","2",3,3,"C","","","","","","","","","","","","","","","","","","","","","","","","","","","","","",99.7,1000,100,"","","","","","","","","","","","","",0.1386980855
"X",3,17,2023,618,85315,40.97358,-69.9000083333333,181,304,2,"2","5",5,"2","2",3,3,"C","","","","","","","","","","","","","","","","","","","","","","","","","","","","","",100.1,1000,100,"","","","","","","","","","","","","",0.1395176445
"X",3,17,2023,619,85320,40.971285,-69.90007,181,309,2,"2","5",5,"2","2",3,3,"C","","","","","","","","","","","","","","","","","","","","","","","","","","","","","",98.4,1000,100,"","","","","","","","","","","","","",0.1378212029
"X",3,17,2023,620,85325,40.9690316666667,-69.900135,181,315,2,"2","5",5,"2","2",3,3,"C","","","","","","","","","","","","","","","","","","","","","","","","","","","","","",96.7,1000,100,"","","","","","","","","","","","","",0.1353232495
"X",3,17,2023,621,85330,40.9668033333333,-69.9001833333333,181,317,2,"2","5",5,"2","2",3,3,"C","","","","","","","","","","","","","","","","","","","","","","","","","","","","","",96.2,1000,100,"","","","","","","","","","","","","",0.1338080944
"X",3,17,2023,622,85335,40.96457,-69.9002166666667,181,314,2,"2","5",5,"2","2",3,3,"C","","","","","","","","","","","","","","","","","","","","","","","","","","","","","",96.6,1000,100,"","","","","","","","","","","","","",0.1340988699
"X",3,17,2023,623,85340,40.9623166666667,-69.9002283333333,180,311,2,"2","5",5,"2","2",3,3,"C","","","","","","","","","","","","","","","","","","","","","","","","","","","","","",97.4,1000,100,"","","","","","","","","","","","","",0.1352921975
"X",3,17,2023,624,85345,40.9605066666667,-69.900235,180,309,2,"2","5",5,"2","2",3,3,"C","","","","","","","","","","","","","","","","","","","","","","","","","","","","","",97.8,1000,100,"","","","","","","","","","","","","",0.1086736478
"X",3,17,2023,625,85350,40.9577916666667,-69.9002666666667,181,313,2,"2","5",5,"2","2",3,3,"C","","","","","","","","","","","","","","","","","","","","","","","","","","","","","",97.2,1000,100,"","","","","","","","","","","","","",0.1630161644
"X",3,17,2023,626,85355,40.9555683333333,-69.9002966666667,181,318,2,"2","5",5,"2","2",3,3,"C","","","","","","","","","","","","","","","","","","","","","","","","","","","","","",95.5,1000,100,"","","","","","","","","","","","","",0.1334968803
"X",3,17,2023,627,85400,40.95337,-69.9003216666667,181,320,2,"2","5",5,"2","2",3,3,"C","","","","","","","","","","","","","","","","","","","","","","","","","","","","","",95,1000,100,"","","","","","","","","","","","","",0.1319938063
"X",3,17,2023,628,85400,40.95337,-69.9003216666667,181,320,2,"2","5",5,"2","2",3,3,"C","","","","","","","","","","","","","","","","","","","","","","","","","","","","","",95,1000,100,"","","","","","","","","","","","","",0
"X",3,17,2023,629,85405,40.9511633333333,-69.9003466666667,180,317,2,"2","5",5,"2","2",3,3,"C","","","","","","","","","","","","","","","","","","","","","","","","","","","","","",95.6,1000,100,"","","","","","","","","","","","","",0.1324941254
"X",3,17,2023,630,85410,40.9489333333333,-69.9003483333333,180,314,2,"2","5",5,"2","2",3,3,"C","","","","","","","","","","","","","","","","","","","","","","","","","","","","","",96.6,1000,100,"","","","","","","","","","","","","",0.1338902408
"X",3,17,2023,631,85415,40.9466866666667,-69.9003333333333,180,314,2,"2","5",5,"2","2",3,3,"C","","","","","","","","","","","","","","","","","","","","","","","","","","","","","",97,1000,100,"","","","","","","","","","","","","",0.1348926089
"X",3,17,2023,632,85420,40.9444416666667,-69.90033,180,314,2,"2","5",5,"2","2",3,3,"C","","","","","","","","","","","","","","","","","","","","","","","","","","","","","",96.9,1000,100,"","","","","","","","","","","","","",0.1347909111
"X",3,17,2023,633,85425,40.9421916666667,-69.90037,181,313,2,"2","5",5,"2","2",3,3,"C","","","","","","","","","","","","","","","","","","","","","","","","","","","","","",97.2,1000,100,"","","","","","","","","","","","","",0.1351032083
"X",3,17,2023,634,85430,40.93994,-69.900445,182,314,2,"2","5",5,"2","2",3,3,"C","","","","","","","","","","","","","","","","","","","","","","","","","","","","","",97.3,1000,100,"","","","","","","","","","","","","",0.1352338818
"X",3,17,2023,635,85430,40.93994,-69.900445,182,314,2,"2","5",5,"2","2",3,3,"C","","","","","","","","","","","","","","","","","","","","","","","","","","","","","",97.3,1000,100,"","","","","","","","","","","","","",0
"X",3,17,2023,636,85435,40.9377,-69.9005616666667,182,314,2,"2","5",5,"2","2",3,3,"C","","","","","","","","","","","","","","","","","","","","","","","","","","","","","",96.7,1000,100,"","","","","","","","","","","","","",0.1345946775
"X",3,17,2023,637,85440,40.9354766666667,-69.900705,183,316,2,"2","5",5,"2","2",3,3,"C","","","","","","","","","","","","","","","","","","","","","","","","","","","","","",95.9,1000,100,"","","","","","","","","","","","","",0.1336481623
"X",3,17,2023,638,85445,40.9332583333333,-69.90085,183,315,2,"2","5",5,"2","2",3,3,"C","","","","","","","","","","","","","","","","","","","","","","","","","","","","","",95.8,1000,100,"","","","","","","","","","","","","",0.1333520339
"X",3,17,2023,639,85450,40.9310383333333,-69.9009616666667,182,315,2,"2","5",5,"2","2",3,3,"C","","","","","","","","","","","","","","","","","","","","","","","","","","","","","",95.9,1000,100,"","","","","","","","","","","","","",0.1333860213
"X",3,17,2023,640,85455,40.9288083333333,-69.9010066666667,181,315,2,"2","5",5,"2","2",3,3,"C","","","","","","","","","","","","","","","","","","","","","","","","","","","","","",96.2,1000,100,"","","","","","","","","","","","","",0.1339057788
"X",3,17,2023,641,85500,40.9265766666667,-69.9009966666667,180,314,2,"2","5",5,"2","2",3,3,"C","","","","","","","","","","","","","","","","","","","","","","","","","","","","","",96.5,1000,100,"","","","","","","","","","","","","",0.1339910548
"X",3,17,2023,642,85505,40.924345,-69.9009416666667,179,313,2,"2","5",5,"2","2",3,3,"C","","","","","","","","","","","","","","","","","","","","","","","","","","","","","",96.6,1000,100,"","","","","","","","","","","","","",0.1340135149
"X",3,17,2023,643,85510,40.9221083333333,-69.9008766666667,179,312,2,"2","5",5,"2","2",3,3,"C","","","","","","","","","","","","","","","","","","","","","","","","","","","","","",96.7,1000,100,"","","","","","","","","","","","","",0.1343228602
"X",3,17,2023,644,85515,40.919875,-69.9008383333333,179,313,2,"2","5",5,"2","2",3,3,"C","","","","","","","","","","","","","","","","","","","","","","","","","","","","","",96.3,1000,100,"","","","","","","","","","","","","",0.1341016313
"X",3,17,2023,645,85520,40.9176533333333,-69.90078,179,315,2,"2","5",5,"2","2",3,3,"C","","","","","","","","","","","","","","","","","","","","","","","","","","","","","",95.7,1000,100,"","","","","","","","","","","","","",0.1334161338
"X",3,17,2023,646,85525,40.91545,-69.9006866666667,178,317,2,"2","5",5,"2","2",3,3,"C","","","","","","","","","","","","","","","","","","","","","","","","","","","","","",94.9,1000,100,"","","","","","","","","","","","","",0.1323568976
"X",3,17,2023,647,85530,40.9132583333333,-69.9005716666667,177,317,2,"2","5",5,"2","2",3,3,"C","","","","","","","","","","","","","","","","","","","","","","","","","","","","","",94.7,1000,100,"","","","","","","","","","","","","",0.1316920759
"X",3,17,2023,648,85530,40.9132583333333,-69.9005716666667,177,317,2,"2","5",5,"2","2",3,3,"C","","","","","","","","","","","","","","","","","","","","","","","","","","","","","",94.7,1000,100,"","","","","","","","","","","","","",0
"X",3,17,2023,649,85535,40.9110616666667,-69.9004183333333,177,316,2,"2","5",5,"2","2",3,3,"C","","","","","","","","","","","","","","","","","","","","","","","","","","","","","",95.2,1000,100,"","","","","","","","","","","","","",0.1320722444
"X",3,17,2023,650,85540,40.908855,-69.9002466666667,177,316,2,"2","5",5,"2","2",3,3,"C","","","","","","","","","","","","","","","","","","","","","","","","","","","","","",95.5,1000,100,"","","","","","","","","","","","","",0.1327180559
"X",3,17,2023,651,85545,40.9066533333333,-69.9000833333333,177,317,2,"2","5",5,"2","2",3,3,"C","","","","","","","","","","","","","","","","","","","","","","","","","","","","","",95.2,1000,100,"","","","","","","","","","","","","",0.1323966814
"X",3,17,2023,652,85550,40.9044583333333,-69.8999166666667,177,320,2,"2","5",5,"2","2",3,3,"C","","","","","","","","","","","","","","","","","","","","","","","","","","","","","",94.8,1000,100,"","","","","","","","","","","","","",0.1320056348
"X",3,17,2023,653,85555,40.90227,-69.89976,177,322,2,"2","5",5,"2","2",3,3,"C","","","","","","","","","","","","","","","","","","","","","","","","","","","","","",94.6,1000,100,"","","","","","","","","","","","","",0.1315807399
"X",3,17,2023,654,85600,40.9000783333333,-69.8996016666667,177,323,2,"2","5",5,"2","2",3,3,"C","","","","","","","","","","","","","","","","","","","","","","","","","","","","","",94.7,1000,100,"","","","","","","","","","","","","",0.1317846977
"X",3,17,2023,655,85605,40.8978783333333,-69.899465,178,322,2,"2","5",5,"2","2",3,3,"C","","","","","","","","","","","","","","","","","","","","","","","","","","","","","",95.2,1000,100,"","","","","","","","","","","","","",0.1322345402
"X",3,17,2023,656,85610,40.8956633333333,-69.8993666666667,178,320,2,"2","5",5,"2","2",3,3,"C","","","","","","","","","","","","","","","","","","","","","","","","","","","","","",95.9,1000,100,"","","","","","","","","","","","","",0.1330644704
"X",3,17,2023,657,85615,40.89343,-69.8992883333333,178,318,2,"2","5",5,"2","2",3,3,"C","","","","","","","","","","","","","","","","","","","","","","","","","","","","","",96.7,1000,100,"","","","","","","","","","","","","",0.1341374764
"X",3,17,2023,658,85620,40.8911933333333,-69.8992066666667,178,317,2,"2","5",5,"2","2",3,3,"C","","","","","","","","","","","","","","","","","","","","","","","","","","","","","",96.6,1000,100,"","","","","","","","","","","","","",0.1343416333
"X",3,17,2023,659,85625,40.888965,-69.8991616666667,180,318,2,"2","5",5,"2","2",3,3,"C","","","","","","","","","","","","","","","","","","","","","","","","","","","","","",96.2,1000,100,"","","","","","","","","","","","","",0.1338057418
"X",3,17,2023,660,85630,40.8867366666667,-69.8991766666667,180,319,2,"2","5",5,"2","2",3,3,"C","","","","","","","","","","","","","","","","","","","","","","","","","","","","","",96.3,1000,100,"","","","","","","","","","","","","",0.1337918844
"X",3,17,2023,661,85630,40.8867366666667,-69.8991766666667,180,319,2,"2","5",5,"2","2",3,3,"C","","","","","","","","","","","","","","","","","","","","","","","","","","","","","",96.3,1000,100,"","","","","","","","","","","","","",0
"X",3,17,2023,662,85635,40.8845083333333,-69.89921,181,318,2,"2","5",5,"2","2",3,3,"C","","","","","","","","","","","","","","","","","","","","","","","","","","","","","",96.3,1000,100,"","","","","","","","","","","","","",0.1337987074
"X",3,17,2023,663,85640,40.8822766666667,-69.899265,181,318,2,"2","5",5,"2","2",3,3,"C","","","","","","","","","","","","","","","","","","","","","","","","","","","","","",96.3,1000,100,"","","","","","","","","","","","","",0.1340135445
"X",3,17,2023,664,85645,40.8800516666667,-69.89936,182,319,2,"2","5",5,"2","2",3,3,"C","","","","","","","","","","","","","","","","","","","","","","","","","","","","","",95.9,1000,100,"","","","","","","","","","","","","",0.1336596062
"X",3,17,2023,665,85650,40.8778383333333,-69.89946,182,321,2,"2","5",5,"2","2",3,3,"C","","","","","","","","","","","","","","","","","","","","","","","","","","","","","",95.5,1000,100,"","","","","","","","","","","","","",0.1329670613
"X",3,17,2023,666,85655,40.875635,-69.8995533333333,182,323,2,"2","5",5,"2","2",3,3,"C","","","","","","","","","","","","","","","","","","","","","","","","","","","","","",95,1000,100,"","","","","","","","","","","","","",0.1323569791
"X",3,17,2023,667,85700,40.8734333333333,-69.8996533333333,182,324,2,"2","5",5,"2","2",3,3,"C","","","","","","","","","","","","","","","","","","","","","","","","","","","","","",95.2,1000,100,"","","","","","","","","","","","","",0.1322670102
"X",3,17,2023,668,85705,40.871225,-69.8997883333333,183,323,2,"2","5",5,"2","2",3,3,"C","","","","","","","","","","","","","","","","","","","","","","","","","","","","","",95.6,1000,100,"","","","","","","","","","","","","",0.1327309299
"X",3,17,2023,669,85710,40.86901,-69.8999,182,322,2,"2","5",5,"2","2",3,3,"C","","","","","","","","","","","","","","","","","","","","","","","","","","","","","",95.7,1000,100,"","","","","","","","","","","","","",0.133086217
"X",3,17,2023,670,85715,40.8667916666667,-69.9000033333333,182,322,2,"2","5",5,"2","2",3,3,"C","","","","","","","","","","","","","","","","","","","","","","","","","","","","","",95.9,1000,100,"","","","","","","","","","","","","",0.1332723569
"X",3,17,2023,671,85720,40.8645783333333,-69.9001433333333,183,321,2,"2","5",5,"2","2",3,3,"C","","","","","","","","","","","","","","","","","","","","","","","","","","","","","",95.7,1000,100,"","","","","","","","","","","","","",0.1330414951
"X",3,17,2023,672,85725,40.8623733333333,-69.9002866666667,183,322,2,"2","5",5,"2","2",3,3,"C","","","","","","","","","","","","","","","","","","","","","","","","","","","","","",95.4,1000,100,"","","","","","","","","","","","","",0.1325490873
"X",3,17,2023,673,85730,40.8601683333333,-69.900455,184,322,2,"2","5",5,"2","2",3,3,"C","","","","","","","","","","","","","","","","","","","","","","","","","","","","","",95.4,1000,100,"","","","","","","","","","","","","",0.1326096872
"X",3,17,2023,674,85730,40.8601683333333,-69.900455,184,322,2,"2","5",5,"2","2",3,3,"C","","","","","","","","","","","","","","","","","","","","","","","","","","","","","",95.4,1000,100,"","","","","","","","","","","","","",0
"X",3,17,2023,675,85735,40.857955,-69.90068,185,320,2,"2","5",5,"2","2",3,3,"C","","","","","","","","","","","","","","","","","","","","","","","","","","","","","",96.2,1000,100,"","","","","","","","","","","","","",0.1332817421
"X",3,17,2023,676,85740,40.855725,-69.900935,185,318,2,"2","5",5,"2","2",3,3,"C","","","","","","","","","","","","","","","","","","","","","","","","","","","","","",96.5,1000,100,"","","","","","","","","","","","","",0.1343900481
"X",3,17,2023,677,85745,40.85349,-69.9011633333333,184,316,2,"2","5",5,"2","2",3,3,"C","","","","","","","","","","","","","","","","","","","","","","","","","","","","","",96.7,1000,100,"","","","","","","","","","","","","",0.1345904577
"X",3,17,2023,678,85750,40.8512516666667,-69.9012866666667,182,315,2,"2","5",5,"2","2",3,3,"C","","","","","","","","","","","","","","","","","","","","","","","","","","","","","",96.5,1000,100,"","","","","","","","","","","","","",0.1345072273
"X",3,17,2023,679,85755,40.84901,-69.9013533333333,181,313,2,"2","5",5,"2","2",3,3,"C","","","","","","","","","","","","","","","","","","","","","","","","","","","","","",97,1000,100,"","","","","","","","","","","","","",0.1346247429
"X",3,17,2023,680,85800,40.8467683333333,-69.9013333333333,179,316,2,"2","5",5,"2","2",3,3,"C","","","","","","","","","","","","","","","","","","","","","","","","","","","","","",96.5,1000,100,"","","","","","","","","","","","","",0.1345937566
"X",3,17,2023,681,85805,40.844555,-69.9011916666667,177,319,2,"2","5",5,"2","2",3,3,"C","","","","","","","","","","","","","","","","","","","","","","","","","","","","","",95.4,1000,100,"","","","","","","","","","","","","",0.1330452264
"X",3,17,2023,682,85810,40.8423616666667,-69.90098,175,320,2,"2","5",5,"2","2",3,3,"C","","","","","","","","","","","","","","","","","","","","","","","","","","","","","",94.8,1000,100,"","","","","","","","","","","","","",0.1320392084
"X",3,17,2023,683,85815,40.8401733333333,-69.9007,174,320,2,"2","5",5,"2","2",3,3,"C","","","","","","","","","","","","","","","","","","","","","","","","","","","","","",95.1,1000,100,"","","","","","","","","","","","","",0.132002647
"X",3,17,2023,684,85820,40.837975,-69.9003966666667,174,320,2,"2","5",5,"2","2",3,3,"C","","","","","","","","","","","","","","","","","","","","","","","","","","","","","",95.1,1000,100,"","","","","","","","","","","","","",0.1327061655
"X",3,17,2023,685,85825,40.8357783333333,-69.90016,176,321,2,"2","5",5,"2","2",3,3,"C","","","","","","","","","","","","","","","","","","","","","","","","","","","","","",94.9,1000,100,"","","","","","","","","","","","","",0.1323262999
"X",3,17,2023,686,85830,40.83359,-69.8999766666667,177,322,2,"2","5",5,"2","2",3,3,"C","","","","","","","","","","","","","","","","","","","","","","","","","","","","","",94.8,1000,100,"","","","","","","","","","","","","",0.1316522153
"X",3,17,2023,687,85835,40.8313983333333,-69.89983,177,322,2,"2","5",5,"2","2",3,3,"C","","","","","","","","","","","","","","","","","","","","","","","","","","","","","",94.8,1000,100,"","","","","","","","","","","","","",0.1317572404
"X",3,17,2023,688,85840,40.8292,-69.8997683333333,179,320,2,"2","5",5,"2","2",3,3,"C","","","","","","","","","","","","","","","","","","","","","","","","","","","","","",95,1000,100,"","","","","","","","","","","","","",0.132018666
"X",3,17,2023,689,85845,40.826985,-69.89972,179,318,2,"2","5",5,"2","2",3,3,"C","","","","","","","","","","","","","","","","","","","","","","","","","","","","","",95.8,1000,100,"","","","","","","","","","","","","",0.1330077394
"X",3,17,2023,690,85850,40.8247583333333,-69.8996416666667,179,317,2,"2","5",5,"2","2",3,3,"C","","","","","","","","","","","","","","","","","","","","","","","","","","","","","",96.3,1000,100,"","","","","","","","","","","","","",0.1337374458
"X",3,17,2023,691,85855,40.8225316666667,-69.8996233333333,180,316,2,"2","5",5,"2","2",3,3,"C","","","","","","","","","","","","","","","","","","","","","","","","","","","","","",96.3,1000,100,"","","","","","","","","","","","","",0.1336926795
"X",3,17,2023,692,85900,40.8203066666667,-69.8996433333333,180,317,2,"2","5",5,"2","2",3,3,"C","","","","","","","","","","","","","","","","","","","","","","","","","","","","","",95.8,1000,100,"","","","","","","","","","","","","",0.1335931078
"X",3,17,2023,693,85900,40.8203066666667,-69.8996433333333,180,317,2,"2","5",5,"2","2",3,3,"C","","","","","","","","","","","","","","","","","","","","","","","","","","","","","",95.8,1000,100,"","","","","","","","","","","","","",0
"X",3,17,2023,694,85905,40.8180983333333,-69.8996683333333,181,319,2,"2","5",5,"2","2",3,3,"C","","","","","","","","","","","","","","","","","","","","","","","","","","","","","",95,1000,100,"","","","","","","","","","","","","",0.1325942087
"X",3,17,2023,695,85910,40.8159133333333,-69.89969,180,320,2,"2","5",5,"2","2",3,3,"C","","","","","","","","","","","","","","","","","","","","","","","","","","","","","",94.2,1000,100,"","","","","","","","","","","","","",0.1311920929
"X",3,17,2023,696,85915,40.8137383333333,-69.8997116666667,181,319,2,"2","5",5,"2","2",3,3,"C","","","","","","","","","","","","","","","","","","","","","","","","","","","","","",94,1000,100,"","","","","","","","","","","","","",0.1305917056
"X",3,17,2023,697,85920,40.8115533333333,-69.899775,182,318,2,"2","5",5,"2","2",3,3,"C","","","","","","","","","","","","","","","","","","","","","","","","","","","","","",94.5,1000,100,"","","","","","","","","","","","","",0.1312199631
"X",3,17,2023,698,85925,40.8093583333333,-69.8998633333333,182,317,2,"2","5",5,"2","2",3,3,"C","","","","","","","","","","","","","","","","","","","","","","","","","","","","","",94.8,1000,100,"","","","","","","","","","","","","",0.1318499226
"X",3,17,2023,699,85930,40.8071583333333,-69.8999516666667,182,317,2,"2","5",5,"2","2",3,3,"C","","","","","","","","","","","","","","","","","","","","","","","","","","","","","",95.1,1000,100,"","","","","","","","","","","","","",0.1321499901
"X",3,17,2023,700,85935,40.8049533333333,-69.9000166666667,181,316,2,"2","5",5,"2","2",3,3,"C","","","","","","","","","","","","","","","","","","","","","","","","","","","","","",95.2,1000,100,"","","","","","","","","","","","","",0.1324221603
"X",3,17,2023,701,85940,40.80275,-69.9000366666667,180,316,2,"2","5",5,"2","2",3,3,"C","","","","","","","","","","","","","","","","","","","","","","","","","","","","","",95.1,1000,100,"","","","","","","","","","","","","",0.1322922632
"X",3,17,2023,702,85945,40.8005466666667,-69.90005,180,317,2,"2","5",5,"2","2",3,3,"C","","","","","","","","","","","","","","","","","","","","","","","","","","","","","",95.1,1000,100,"","","","","","","","","","","","","",0.1322905285
"X",3,17,2023,703,85950,40.798345,-69.9000733333333,181,316,2,"2","5",5,"2","2",3,3,"C","","","","","","","","","","","","","","","","","","","","","","","","","","","","","",95,1000,100,"","","","","","","","","","","","","",0.1321933272
"X",3,17,2023,704,85955,40.7961366666667,-69.90011,181,314,2,"2","5",5,"2","2",3,3,"C","","","","","","","","","","","","","","","","","","","","","","","","","","","","","",95.4,1000,100,"","","","","","","","","","","","","",0.1325998165
"X",3,17,2023,705,90000,40.79392,-69.900155,181,312,2,"2","5",5,"2","2",3,3,"C","","","","","","","","","","","","","","","","","","","","","","","","","","","","","",95.8,1000,100,"","","","","","","","","","","","","",0.1331053968
"X",3,17,2023,706,90000,40.79392,-69.900155,181,312,2,"2","5",5,"2","2",3,3,"C","","","","","","","","","","","","","","","","","","","","","","","","","","","","","",95.8,1000,100,"","","","","","","","","","","","","",0
"X",3,17,2023,707,90005,40.7917016666667,-69.9001916666667,181,312,2,"2","5",5,"2","2",3,3,"C","","","","","","","","","","","","","","","","","","","","","","","","","","","","","",95.6,1000,100,"","","","","","","","","","","","","",0.1332001753
"X",3,17,2023,708,90010,40.7894983333333,-69.9001983333333,180,314,2,"2","5",5,"2","2",3,3,"C","","","","","","","","","","","","","","","","","","","","","","","","","","","","","",95.1,1000,100,"","","","","","","","","","","","","",0.1322894877
"X",3,17,2023,709,90015,40.7873083333333,-69.9002033333333,180,316,2,"2","5",5,"2","2",3,3,"C","","","","","","","","","","","","","","","","","","","","","","","","","","","","","",94.4,1000,100,"","","","","","","","","","","","","",0.1314887976
"X",3,17,2023,710,90020,40.7851233333333,-69.9002216666667,180,314,2,"2","5",5,"2","2",3,3,"C","","","","","","","","","","","","","","","","","","","","","","","","","","","","","",94.6,1000,100,"","","","","","","","","","","","","",0.1311910462
"X",3,17,2023,711,90025,40.7829316666667,-69.9002516666667,181,313,2,"2","5",5,"2","2",3,3,"C","","","","","","","","","","","","","","","","","","","","","","","","","","","","","",94.6,1000,100,"","","","","","","","","","","","","",0.1315957361
"X",3,17,2023,712,90030,40.7807383333333,-69.90031,181,315,2,"2","5",5,"2","2",3,3,"C","","","","","","","","","","","","","","","","","","","","","","","","","","","","","",94.8,1000,100,"","","","","","","","","","","","","",0.1317154367
"X",3,17,2023,713,90030,40.7807383333333,-69.90031,181,315,2,"2","5",5,"2","2",3,3,"C","","","","","","","","","","","","","","","","","","","","","","","","","","","","","",94.8,1000,100,"","","","","","","","","","","","","",0
"X",3,17,2023,714,90035,40.7785433333333,-69.90031,180,317,2,"2","5",5,"2","2",3,3,"C","","","","","","","","","","","","","","","","","","","","","","","","","","","","","",94.7,1000,100,"","","","","","","","","","","","","",0.1317888034
"X",3,17,2023,715,90040,40.7763466666667,-69.9002716666667,179,320,2,"2","5",5,"2","2",3,3,"C","","","","","","","","","","","","","","","","","","","","","","","","","","","","","",94.7,1000,100,"","","","","","","","","","","","","",0.1319003859
"X",3,17,2023,716,90045,40.77415,-69.90024,179,323,2,"2","5",5,"2","2",3,3,"C","","","","","","","","","","","","","","","","","","","","","","","","","","","","","",94.8,1000,100,"","","","","","","","","","","","","",0.1318967296
"X",3,17,2023,717,90050,40.7719516666667,-69.9002416666667,180,325,2,"2","5",5,"2","2",3,3,"C","","","","","","","","","","","","","","","","","","","","","","","","","","","","","",95,1000,100,"","","","","","","","","","","","","",0.1319889601
"X",3,17,2023,718,90055,40.7697416666667,-69.900275,181,326,2,"2","5",5,"2","2",3,3,"C","","","","","","","","","","","","","","","","","","","","","","","","","","","","","",95.6,1000,100,"","","","","","","","","","","","","",0.1326980666
"X",3,17,2023,719,90100,40.767505,-69.9002983333333,180,326,2,"2","5",5,"2","2",3,3,"C","","","","","","","","","","","","","","","","","","","","","","","","","","","","","",96.9,1000,100,"","","","","","","","","","","","","",0.1342946805
"X",3,17,2023,720,90105,40.7652583333333,-69.900245,179,330,2,"2","5",5,"2","2",3,3,"C","","","","","","","","","","","","","","","","","","","","","","","","","","","","","",97,1000,100,"","","","","","","","","","","","","",0.1349126941
"X",3,17,2023,721,90110,40.7630166666667,-69.90016,178,334,2,"2","5",5,"2","2",3,3,"C","","","","","","","","","","","","","","","","","","","","","","","","","","","","","",97,1000,100,"","","","","","","","","","","","","",0.1346461855
"X",3,17,2023,722,90115,40.760765,-69.9000466666667,178,336,2,"2","5",5,"2","2",3,3,"C","","","","","","","","","","","","","","","","","","","","","","","","","","","","","",97.7,1000,100,"","","","","","","","","","","","","",0.1352893052
"X",3,17,2023,723,90120,40.7585016666667,-69.8999466666667,179,338,2,"2","5",5,"2","2",3,3,"C","","","","","","","","","","","","","","","","","","","","","","","","","","","","","",98,1000,100,"","","","","","","","","","","","","",0.1359676458
"X",3,17,2023,724,90125,40.7562333333333,-69.8998883333333,179,342,2,"2","5",5,"2","2",3,3,"C","","","","","","","","","","","","","","","","","","","","","","","","","","","","","",97.8,1000,100,"","","","","","","","","","","","","",0.1362176074
"X",3,17,2023,725,90130,40.7539716666667,-69.8998566666667,180,344,2,"2","5",5,"2","2",3,3,"C","","","","","","","","","","","","","","","","","","","","","","","","","","","","","",97.6,1000,100,"","","","","","","","","","","","","",0.1357991381
"X",3,17,2023,726,90130,40.7539716666667,-69.8998566666667,180,344,2,"2","5",5,"2","2",3,3,"C","","","","","","","","","","","","","","","","","","","","","","","","","","","","","",97.6,1000,100,"","","","","","","","","","","","","",0
"X",3,17,2023,727,90135,40.7516966666667,-69.899835,180,344,2,"2","5",5,"2","2",3,3,"C","","","","","","","","","","","","","","","","","","","","","","","","","","","","","",98.6,1000,100,"","","","","","","","","","","","","",0.1365955948
"X",3,17,2023,728,90140,40.7493866666667,-69.899815,180,339,2,"2","5",5,"2","2",3,3,"C","","","","","","","","","","","","","","","","","","","","","","","","","","","","","",100.4,1000,100,"","","","","","","","","","","","","",0.1386964393
"X",3,17,2023,729,90145,40.74704,-69.8998116666667,180,337,2,"2","5",5,"2","2",3,3,"C","","","","","","","","","","","","","","","","","","","","","","","","","","","","","",101.5,1000,100,"","","","","","","","","","","","","",0.140895021
"X",3,17,2023,730,90150,40.7446716666667,-69.8998083333333,180,336,2,"2","5",5,"2","2",3,3,"C","","","","","","","","","","","","","","","","","","","","","","","","","","","","","",102.3,1000,100,"","","","","","","","","","","","","",0.1421958969
"X",3,17,2023,731,90155,40.7422733333333,-69.899785,180,330,2,"2","5",5,"2","2",3,3,"C","","","","","","","","","","","","","","","","","","","","","","","","","","","","","",104.3,1000,100,"","","","","","","","","","","","","",0.1440009415
"X",3,17,2023,732,90200,40.7398233333333,-69.8997766666667,180,328,2,"2","5",5,"2","2",3,3,"C","","","","","","","","","","","","","","","","","","","","","","","","","","","","","",106.2,1000,100,"","","","","","","","","","","","","",0.1470996085
"X",3,17,2023,733,90205,40.7373516666667,-69.89983,181,326,2,"2","5",5,"2","2",3,3,"C","","","","","","","","","","","","","","","","","","","","","","","","","","","","","",106.7,1000,100,"","","","","","","","","","","","","",0.1484198293
"X",3,17,2023,734,90210,40.734875,-69.899895,181,322,2,"2","5",5,"2","2",3,3,"C","","","","","","","","","","","","","","","","","","","","","","","","","","","","","",106.9,1000,100,"","","","","","","","","","","","","",0.1487295992
"X",3,17,2023,735,90215,40.7324083333333,-69.8998866666667,179,320,2,"2","5",5,"2","2",3,3,"C","","","","","","","","","","","","","","","","","","","","","","","","","","","","","",106.1,1000,100,"","","","","","","","","","","","","",0.1481002796
"X",3,17,2023,736,90220,40.729965,-69.899825,179,320,2,"2","5",5,"2","2",3,3,"C","","","","","","","","","","","","","","","","","","","","","","","","","","","","","",105.3,1000,100,"","","","","","","","","","","","","",0.1467256777
"X",3,17,2023,737,90225,40.72753,-69.899785,179,317,2,"2","5",5,"2","2",3,3,"C","","","","","","","","","","","","","","","","","","","","","","","","","","","","","",105,1000,100,"","","","","","","","","","","","","",0.1462098407
"X",3,17,2023,738,90230,40.725085,-69.89977,180,312,2,"2","5",5,"2","2",3,3,"C","","","","","","","","","","","","","","","","","","","","","","","","","","","","","",105.7,1000,100,"","","","","","","","","","","","","",0.1468005043
"X",3,17,2023,739,90230,40.725085,-69.89977,180,312,2,"2","5",5,"2","2",3,3,"C","","","","","","","","","","","","","","","","","","","","","","","","","","","","","",105.7,1000,100,"","","","","","","","","","","","","",0
"X",3,17,2023,740,90235,40.7226483333333,-69.8997766666667,180,310,2,"2","5",5,"2","2",3,3,"C","","","","","","","","","","","","","","","","","","","","","","","","","","","","","",104.9,1000,100,"","","","","","","","","","","","","",0.1462988951
"X",3,17,2023,741,90240,40.720225,-69.8997983333333,180,308,2,"2","5",5,"2","2",3,3,"C","","","","","","","","","","","","","","","","","","","","","","","","","","","","","",104.3,1000,100,"","","","","","","","","","","","","",0.1455013815
"X",3,17,2023,742,90245,40.71783,-69.8998266666667,181,308,2,"2","5",5,"2","2",3,3,"C","","","","","","","","","","","","","","","","","","","","","","","","","","","","","",103.3,1000,100,"","","","","","","","","","","","","",0.143802675
"X",3,17,2023,743,90250,40.7154533333333,-69.8998816666667,181,308,2,"2","5",5,"2","2",3,3,"C","","","","","","","","","","","","","","","","","","","","","","","","","","","","","",102.3,1000,100,"","","","","","","","","","","","","",0.1427181021
"X",3,17,2023,744,90255,40.7131033333333,-69.89996,182,309,2,"2","5",5,"2","2",3,3,"C","","","","","","","","","","","","","","","","","","","","","","","","","","","","","",101.2,1000,100,"","","","","","","","","","","","","",0.1411401016
"X",3,17,2023,745,90300,40.710765,-69.9000533333333,182,308,2,"2","5",5,"2","2",3,3,"C","","","","","","","","","","","","","","","","","","","","","","","","","","","","","",100.6,1000,100,"","","","","","","","","","","","","",0.1404588442
"X",3,17,2023,746,90305,40.708455,-69.9001183333333,181,310,2,"2","5",5,"2","2",3,3,"C","","","","","","","","","","","","","","","","","","","","","","","","","","","","","",99.1,1000,100,"","","","","","","","","","","","","",0.1387250022
"X",3,17,2023,747,90310,40.70619,-69.9001766666667,181,312,2,"2","5",5,"2","2",3,3,"C","","","","","","","","","","","","","","","","","","","","","","","","","","","","","",97.6,1000,100,"","","","","","","","","","","","","",0.1360175495
"X",3,17,2023,748,90315,40.7039466666667,-69.900255,182,313,2,"2","5",5,"2","2",3,3,"C","","","","","","","","","","","","","","","","","","","","","","","","","","","","","",96.6,1000,100,"","","","","","","","","","","","","",0.1347379395
"X",3,17,2023,749,90320,40.7017216666667,-69.9002933333333,180,313,2,"2","5",5,"2","2",3,3,"C","","","","","","","","","","","","","","","","","","","","","","","","","","","","","",96,1000,100,"","","","","","","","","","","","","",0.1336014111
"X",3,17,2023,750,90325,40.6995133333333,-69.9002483333333,179,313,2,"2","5",5,"2","2",3,3,"C","","","","","","","","","","","","","","","","","","","","","","","","","","","","","",95,1000,100,"","","","","","","","","","","","","",0.1326051638
"X",3,17,2023,751,90330,40.6973216666667,-69.9002116666667,179,312,2,"2","5",5,"2","2",3,3,"C","","","","","","","","","","","","","","","","","","","","","","","","","","","","","",94.7,1000,100,"","","","","","","","","","","","","",0.1315992533
"X",3,17,2023,752,90330,40.6973216666667,-69.9002116666667,179,312,2,"2","5",5,"2","2",3,3,"C","","","","","","","","","","","","","","","","","","","","","","","","","","","","","",94.7,1000,100,"","","","","","","","","","","","","",0
"X",3,17,2023,753,90335,40.695125,-69.9002133333333,180,310,2,"2","5",5,"2","2",3,3,"C","","","","","","","","","","","","","","","","","","","","","","","","","","","","","",94.9,1000,100,"","","","","","","","","","","","","",0.1318888927
"X",3,17,2023,754,90340,40.69292,-69.90024,181,306,2,"2","5",5,"2","2",3,3,"C","","","","","","","","","","","","","","","","","","","","","","","","","","","","","",95.2,1000,100,"","","","","","","","","","","","","",0.1323947735
"X",3,17,2023,755,90345,40.690705,-69.900295,181,303,2,"2","5",5,"2","2",3,3,"C","","","","","","","","","","","","","","","","","","","","","","","","","","","","","",95.6,1000,100,"","","","","","","","","","","","","",0.1330131808
"X",3,17,2023,756,90350,40.68848,-69.9003683333333,181,300,2,"2","5",5,"2","2",3,3,"C","","","","","","","","","","","","","","","","","","","","","","","","","","","","","",96.1,1000,100,"","","","","","","","","","","","","",0.1336317278
"X",3,17,2023,757,90355,40.6862583333333,-69.9004166666667,181,303,2,"2","5",5,"2","2",3,3,"C","","","","","","","","","","","","","","","","","","","","","","","","","","","","","",95.5,1000,100,"","","","","","","","","","","","","",0.1334080314
"X",3,17,2023,758,90400,40.6840783333333,-69.9004416666667,180,308,2,"2","5",5,"2","2",3,3,"C","","","","","","","","","","","","","","","","","","","","","","","","","","","","","",93.7,1000,100,"","","","","","","","","","","","","",0.1308931456
"X",3,17,2023,759,90405,40.68193,-69.90047,181,312,2,"2","5",5,"2","2",3,3,"C","","","","","","","","","","","","","","","","","","","","","","","","","","","","","",92.3,1000,100,"","","","","","","","","","","","","",0.1289933662
"X",3,17,2023,760,90410,40.6797933333333,-69.9005116666667,181,314,2,"2","5",5,"2","2",3,3,"C","","","","","","","","","","","","","","","","","","","","","","","","","","","","","",92.2,1000,100,"","","","","","","","","","","","","",0.1283004707
"X",3,17,2023,761,90415,40.6776683333333,-69.90052,180,316,2,"2","5",5,"2","2",3,3,"C","","","","","","","","","","","","","","","","","","","","","","","","","","","","","",91.6,1000,100,"","","","","","","","","","","","","",0.1275865357
"X",3,17,2023,762,90420,40.6755483333333,-69.9005033333333,180,317,2,"2","5",5,"2","2",3,3,"C","","","","","","","","","","","","","","","","","","","","","","","","","","","","","",91.7,1000,100,"","","","","","","","","","","","","",0.1272880316
"X",3,17,2023,763,90425,40.6734083333333,-69.9005033333333,180,314,2,"2","5",5,"2","2",3,3,"C","","","","","","","","","","","","","","","","","","","","","","","","","","","","","",92.2,1000,100,"","","","","","","","","","","","","",0.1284865783
"X",3,17,2023,764,90430,40.6712316666667,-69.9005033333333,180,310,2,"2","5",5,"2","2",3,3,"C","","","","","","","","","","","","","","","","","","","","","","","","","","","","","",94,1000,100,"","","","","","","","","","","","","",0.1306880617
"X",3,17,2023,765,90435,40.66905,-69.9004833333333,180,311,2,"2","5",5,"2","2",3,3,"C","","","","","","","","","","","","","","","","","","","","","","","","","","","","","",94.1,1000,100,"","","","","","","","","","","","","",0.1309914304
"X",3,17,2023,766,90440,40.66688,-69.9004833333333,180,312,2,"2","5",5,"2","2",3,3,"C","","","","","","","","","","","","","","","","","","","","","","","","","","","","","",93.5,1000,100,"","","","","","","","","","","","","",0.130287792
"X",3,17,2023,767,90445,40.66472,-69.9004433333333,179,314,2,"2","5",5,"2","2",3,3,"C","","","","","","","","","","","","","","","","","","","","","","","","","","","","","",93.3,1000,100,"","","","","","","","","","","","","",0.1297001812
"X",3,17,2023,768,90450,40.6625683333333,-69.9004016666667,179,315,2,"2","5",5,"2","2",3,3,"C","","","","","","","","","","","","","","","","","","","","","","","","","","","","","",93.3,1000,100,"","","","","","","","","","","","","",0.129200987
"X",3,17,2023,769,90455,40.6604066666667,-69.9003866666667,180,315,2,"2","5",5,"2","2",3,3,"C","","","","","","","","","","","","","","","","","","","","","","","","","","","","","",93.5,1000,100,"","","","","","","","","","","","","",0.1297892529
"X",3,17,2023,770,90500,40.65824,-69.9003816666667,180,317,2,"2","5",5,"2","2",3,3,"C","","","","","","","","","","","","","","","","","","","","","","","","","","","","","",93.4,1000,100,"","","","","","","","","","","","","",0.1300878565
"X",3,17,2023,771,90500,40.65824,-69.9003816666667,180,317,2,"2","5",5,"2","2",3,3,"C","","","","","","","","","","","","","","","","","","","","","","","","","","","","","",93.4,1000,100,"","","","","","","","","","","","","",0
"X",3,17,2023,772,90505,40.6560816666667,-69.9003666666667,180,320,2,"2","5",5,"2","2",3,3,"C","","","","","","","","","","","","","","","","","","","","","","","","","","","","","",93.1,1000,100,"","","","","","","","","","","","","",0.1295891211
"X",3,17,2023,773,90510,40.65393,-69.900355,180,322,2,"2","5",5,"2","2",3,3,"C","","","","","","","","","","","","","","","","","","","","","","","","","","","","","",92.7,1000,100,"","","","","","","","","","","","","",0.1291881433
"X",3,17,2023,774,90515,40.65178,-69.9003366666667,180,322,2,"2","5",5,"2","2",3,3,"C","","","","","","","","","","","","","","","","","","","","","","","","","","","","","",93,1000,100,"","","","","","","","","","","","","",0.1290896841
"X",3,17,2023,775,90520,40.6496216666667,-69.9003383333334,180,321,2,"2","5",5,"2","2",3,3,"C","","","","","","","","","","","","","","","","","","","","","","","","","","","","","",93.2,1000,100,"","","","","","","","","","","","","",0.1295873423
"X",3,17,2023,776,90525,40.6474583333333,-69.9003633333333,181,322,2,"2","5",5,"2","2",3,3,"C","","","","","","","","","","","","","","","","","","","","","","","","","","","","","",93.3,1000,100,"","","","","","","","","","","","","",0.1298925149
"X",3,17,2023,777,90530,40.6453016666667,-69.9003716666667,180,324,2,"2","5",5,"2","2",3,3,"C","","","","","","","","","","","","","","","","","","","","","","","","","","","","","",92.8,1000,100,"","","","","","","","","","","","","",0.1294878091
"X",3,17,2023,778,90535,40.6431533333333,-69.900325,179,327,2,"2","5",5,"2","2",3,3,"C","","","","","","","","","","","","","","","","","","","","","","","","","","","","","",92.5,1000,100,"","","","","","","","","","","","","",0.1290044347
"X",3,17,2023,779,90540,40.6410133333333,-69.9002433333333,178,328,2,"2","5",5,"2","2",3,3,"C","","","","","","","","","","","","","","","","","","","","","","","","","","","","","",92.3,1000,100,"","","","","","","","","","","","","",0.1285404357
"X",3,17,2023,780,90545,40.6388583333333,-69.9001916666667,179,326,2,"2","5",5,"2","2",3,3,"C","","","","","","","","","","","","","","","","","","","","","","","","","","","","","",93.4,1000,100,"","","","","","","","","","","","","",0.1294085956
