"rectype","month","day","year","eventno","time","lat","long","heading","alt","legtype","legstage","legno","visiblty","glarel","glarer","beaufort","cloud","wx","sightno","anglel","angler","speccode","number","numcalf","anhead","photos","idrel","confidnc","b1","b2","b3","b4","b5","b6","b7","b8","b9","b10","b11","b12","b13","b14","b15","refno","stratum","utc","radalt","gpsspeed","setalt","setvel","lensfl","ggf","int","gpsq","gpssats","roll","pitch","yaw","maghead","notes","edits","glarev","ph_qual","TrackDist"
"S","","","",1185,32633.7000000477,44.092387333613,-68.4115761884651,58,312,1,"-","",5,"","",2,4,"G","","","","","","","","","","","","","","","","","","","","","","","","","","","","","",128.4,1500,100,"","","","","","","","","","","ON WATCH, BEGIN SURVEY - ","","","0.1107972493"
"X","","","",1186,32635.5999999046,44.0929883333333,-68.4102516666667,58,314,1,"-","",5,"","",2,4,"G","","","","","","","","","","","","","","","","","","","","","","","","","","","","","",127.3,1500,100,"","","","","","","","","","","","","","0.1783569397"
"X","","","",1187,32640.5999999046,44.0944883333333,-68.4067983333333,59,319,1,"-","",5,"","",2,4,"G","","","","","","","","","","","","","","","","","","","","","","","","","","","","","",124.3,1500,100,"","","","","","","","","","","","","","0.1740277895"
"X","","","",1188,32640.5999999046,44.0944883333333,-68.4067983333333,59,319,1,"-","",5,"","",2,4,"G","","","","","","","","","","","","","","","","","","","","","","","","","","","","","",124.3,1500,100,"","","","","","","","","","","","","","0"
"X","","","",1189,32645.5999999046,44.0959466666667,-68.403395,60,325,1,"-","",5,"","",2,4,"G","","","","","","","","","","","","","","","","","","","","","","","","","","","","","",122.5,1500,100,"","","","","","","","","","","","","","0.1708881748"
"X","","","",1190,32650.5999999046,44.097295,-68.40002,61,328,1,"-","",5,"","",2,4,"G","","","","","","","","","","","","","","","","","","","","","","","","","","","","","",119,1500,100,"","","","","","","","","","","","","","0.1665284702"
"X","","","",1191,32655.5999999046,44.0986116666667,-68.396675,61,322,1,"-","",5,"","",2,4,"G","","","","","","","","","","","","","","","","","","","","","","","","","","","","","",118.5,1500,100,"","","","","","","","","","","","","","0.1644741557"
"X","","","",1192,32660.5999999046,44.0999716666667,-68.3933316666667,60,312,1,"-","",5,"","",2,4,"G","","","","","","","","","","","","","","","","","","","","","","","","","","","","","",120.7,1500,100,"","","","","","","","","","","","","","0.1656750006"
"X","","","",1193,32665.5999999046,44.1014033333333,-68.3899783333333,58,308,1,"-","",5,"","",2,4,"G","","","","","","","","","","","","","","","","","","","","","","","","","","","","","",121.2,1500,100,"","","","","","","","","","","","","","0.1682050456"
"X","","","",1194,32670.5999999046,44.1029116666667,-68.3867133333333,57,309,1,"-","",5,"","",2,4,"G","","","","","","","","","","","","","","","","","","","","","","","","","","","","","",120.1,1500,100,"","","","","","","","","","","","","","0.167384822"
"X","","","",1195,32670.5999999046,44.1029116666667,-68.3867133333333,57,309,1,"-","",5,"","",2,4,"G","","","","","","","","","","","","","","","","","","","","","","","","","","","","","",120.1,1500,100,"","","","","","","","","","","","","","0"
"X","","","",1196,32675.5999999046,44.1044366666667,-68.3835116666667,57,314,1,"-","",5,"","",2,4,"G","","","","","","","","","","","","","","","","","","","","","","","","","","","","","",118.7,1500,100,"","","","","","","","","","","","","","0.1656430509"
"X","","","",1197,32680.5999999046,44.1059166666667,-68.38036,56,329,1,"-","",5,"","",2,4,"G","","","","","","","","","","","","","","","","","","","","","","","","","","","","","",114.7,1500,100,"","","","","","","","","","","","","","0.1623537255"
"X","","","",1198,32685.5999999046,44.107385,-68.3773416666667,56,336,1,"-","",5,"","",2,4,"G","","","","","","","","","","","","","","","","","","","","","","","","","","","","","",112.5,1500,100,"","","","","","","","","","","","","","0.1571775586"
"X","","","",1199,32690.5999999046,44.108815,-68.3743583333333,58,344,1,"-","",5,"","",2,4,"G","","","","","","","","","","","","","","","","","","","","","","","","","","","","","",110.5,1500,100,"","","","","","","","","","","","","","0.1546384314"
"X","","","",1200,32695.5999999046,44.1098933333333,-68.3712633333333,71,354,1,"-","",5,"","",2,4,"G","","","","","","","","","","","","","","","","","","","","","","","","","","","","","",106.5,1500,100,"","","","","","","","","","","","","","0.148303507"
"X","","","",1201,32700.5999999046,44.1101916666667,-68.3681016666667,89,358,1,"-","",5,"","",2,4,"G","","","","","","","","","","","","","","","","","","","","","","","","","","","","","",98.4,1500,100,"","","","","","","","","","","","","","0.1374692151"
"X","","","",1202,32700.5999999046,44.1101916666667,-68.3681016666667,89,358,1,"-","",5,"","",2,4,"G","","","","","","","","","","","","","","","","","","","","","","","","","","","","","",98.4,1500,100,"","","","","","","","","","","","","","0"
"X","","","",1203,32705.5999999046,44.1099333333333,-68.3650566666667,101,360,1,"-","",5,"","",2,4,"G","","","","","","","","","","","","","","","","","","","","","","","","","","","","","",93.9,1500,100,"","","","","","","","","","","","","","0.1321809678"
"X","","","",1204,32710.5999999046,44.1092833333333,-68.36218,111,355,1,"-","",5,"","",2,4,"G","","","","","","","","","","","","","","","","","","","","","","","","","","","","","",94.8,1500,100,"","","","","","","","","","","","","","0.1300078166"
"X","","","",1205,32715.5999999046,44.1081466666667,-68.359435,125,342,1,"-","",5,"","",2,4,"G","","","","","","","","","","","","","","","","","","","","","","","","","","","","","",99.8,1500,100,"","","","","","","","","","","","","","0.1366064685"
"X","","","",1206,32720.5999999046,44.1066716666667,-68.356955,132,336,1,"-","",5,"","",2,4,"G","","","","","","","","","","","","","","","","","","","","","","","","","","","","","",98.7,1500,100,"","","","","","","","","","","","","","0.1388301616"
"X","","","",1207,32725.5999999046,44.1050716666667,-68.3547133333333,137,332,1,"-","",5,"","",2,4,"G","","","","","","","","","","","","","","","","","","","","","","","","","","","","","",98.2,1500,100,"","","","","","","","","","","","","","0.136265923"
"X","","","",1208,32730.5999999046,44.10331,-68.3526916666667,143,328,1,"-","",5,"","",2,4,"G","","","","","","","","","","","","","","","","","","","","","","","","","","","","","",100.3,1500,100,"","","","","","","","","","","","","","0.1370571058"
"X","","","",1209,32735.5999999046,44.1014316666667,-68.3508016666667,146,324,1,"-","",5,"","",2,4,"G","","","","","","","","","","","","","","","","","","","","","","","","","","","","","",100.6,1500,100,"","","","","","","","","","","","","","0.1391351231"
"X","","","",1210,32740.5999999046,44.0995,-68.349005,146,324,1,"-","",5,"","",2,4,"G","","","","","","","","","","","","","","","","","","","","","","","","","","","","","",100.3,1500,100,"","","","","","","","","","","","","","0.1394698927"
"X","","","",1211,32745.5999999046,44.0975783333333,-68.3471533333333,145,320,1,"-","",5,"","",2,4,"G","","","","","","","","","","","","","","","","","","","","","","","","","","","","","",101.9,1500,100,"","","","","","","","","","","","","","0.1403081823"
"X","","","",1212,32750.5999999046,44.0956433333333,-68.3452566666667,146,318,1,"-","",5,"","",2,4,"G","","","","","","","","","","","","","","","","","","","","","","","","","","","","","",102.3,1500,100,"","","","","","","","","","","","","","0.1420766754"
"X","","","",1213,32755.5999999046,44.0936683333333,-68.3434733333333,147,323,1,"-","",5,"","",2,4,"G","","","","","","","","","","","","","","","","","","","","","","","","","","","","","",100.5,1500,100,"","","","","","","","","","","","","","0.1413313062"
"X","","","",1214,32760.5999999046,44.0917166666667,-68.34179,148,331,1,"-","",5,"","",2,4,"G","","","","","","","","","","","","","","","","","","","","","","","","","","","","","",98,1500,100,"","","","","","","","","","","","","","0.1378405527"
"X","","","",1215,32765.5999999046,44.08983,-68.34005,146,327,1,"-","",5,"","",2,4,"G","","","","","","","","","","","","","","","","","","","","","","","","","","","","","",98.1,1500,100,"","","","","","","","","","","","","","0.1358739294"
"X","","","",1216,32770.5999999046,44.08792,-68.338275,147,324,1,"-","",5,"","",2,4,"G","","","","","","","","","","","","","","","","","","","","","","","","","","","","","",100.7,1500,100,"","","","","","","","","","","","","","0.1378775953"
"P","","","",1217,32775,44.0861849275954,-68.3367806997761,149,330,1,"-","",5,"","",2,4,"G","S1","","","FV-C","3","","","1","9","0","","","","","","","","","","","","","","","","","","","",100.8,1500,100,"","","","","","","","","","","","","","0.1224960149"
"X","","","",1218,32775.5999999046,44.0859383333333,-68.3365683333333,149,330,1,"-","",5,"","",2,4,"G","","","","","","","","","","","","","","","","","","","","","","","","","","","","","",100.8,1500,100,"","","","","","","","","","","","","","0.1399054445"
"X","","","",1219,32780.5999999046,44.0839333333333,-68.3350783333333,152,334,1,"-","",5,"","",2,4,"G","","","","","","","","","","","","","","","","","","","","","","","","","","","","","",98.2,1500,100,"","","","","","","","","","","","","","0.1364587106"
"S","","","",1220,32781.4000000954,44.0836138609976,-68.3348481796133,152,334,2,"1","131",5,"2","2",2,4,"G","","","","","","","","","","","","","","","","","","","","","","","","","","","","","",98.3,1500,100,"","","","","","","","","","","ON TRACK - ","","","0.0215974513"
"X","","","",1221,32785.5999999046,44.0819066666667,-68.3336183333333,152,337,2,"1","131",5,"2","2",2,4,"G","","","","","","","","","","","","","","","","","","","","","","","","","","","","","",99.2,1500,100,"","","","","","","","","","","","","","0.1370092512"
"X","","","",1222,32787,44.0813385511515,-68.3332167722252,152,340,2,"2","131",5,"2","2",2,4,"G","","","","","","","","","","","","","","","","","","","","","","","","","","","","","",98.3,1500,100,"","","","","","","","","","","","","","0.0382550122"
"X","","","",1223,32790.5999999046,44.0799,-68.3322,153,348,2,"2","131",5,"2","2",2,4,"G","","","","","","","","","","","","","","","","","","","","","","","","","","","","","",95.8,1500,100,"","","","","","","","","","","","","","0.1351218461"
"X","","","",1224,32790.5999999046,44.0799,-68.3322,153,348,2,"2","131",5,"2","2",2,4,"G","","","","","","","","","","","","","","","","","","","","","","","","","","","","","",95.8,1500,100,"","","","","","","","","","","","","","0"
"S","","","",1225,32790.5999999046,44.0798807267025,-68.3321869717454,153,348,2,"2","131",5,"2","2",2,4,"G","S2","","","FV-C","1","","","1","9","0","","","","","","","","","","","","","","","","","","","",95.8,1500,100,"","","","","","","","","","","","","","0.0012863982"
"X","","","",1226,32795.5999999046,44.077925,-68.330865,154,352,2,"2","131",5,"2","2",2,4,"G","","","","","","","","","","","","","","","","","","","","","","","","","","","","","",95.8,1500,100,"","","","","","","","","","","","","","0.1318210576"
"X","","","",1227,32800.5999999046,44.0759233333333,-68.32953,154,351,2,"2","131",5,"2","2",2,4,"G","","","","","","","","","","","","","","","","","","","","","","","","","","","","","",96,1500,100,"","","","","","","","","","","","","","0.1332639827"
"X","","","",1228,32805.5999999046,44.073955,-68.328105,151,353,2,"2","131",5,"2","2",2,4,"G","","","","","","","","","","","","","","","","","","","","","","","","","","","","","",96.4,1500,100,"","","","","","","","","","","","","","0.1332090344"
"X","","","",1229,32810.5999999046,44.0720566666667,-68.3266433333333,151,356,2,"2","131",5,"2","2",2,4,"G","","","","","","","","","","","","","","","","","","","","","","","","","","","","","",94.3,1500,100,"","","","","","","","","","","","","","0.1302540915"
"X","","","",1230,32815.5999999046,44.0701333333333,-68.3252433333333,152,354,2,"2","131",5,"2","2",2,4,"G","","","","","","","","","","","","","","","","","","","","","","","","","","","","","",94.7,1500,100,"","","","","","","","","","","","","","0.1303165909"
"X","","","",1231,32820.5999999046,44.06818,-68.32384,155,349,2,"2","131",5,"2","2",2,4,"G","","","","","","","","","","","","","","","","","","","","","","","","","","","","","",95.3,1500,100,"","","","","","","","","","","","","","0.1319821482"
"X","","","",1232,32820.5999999046,44.06818,-68.32384,155,349,2,"2","131",5,"2","2",2,4,"G","","","","","","","","","","","","","","","","","","","","","","","","","","","","","",95.3,1500,100,"","","","","","","","","","","","","","0"
"X","","","",1233,32825.5999999046,44.0661416666667,-68.3225683333333,156,340,2,"2","131",5,"2","2",2,4,"G","","","","","","","","","","","","","","","","","","","","","","","","","","","","","",97.4,1500,100,"","","","","","","","","","","","","","0.1341161224"
"S","","","",1234,32830.2000000477,44.0642139245582,-68.3214101485128,157,334,2,"2","131",5,"2","2",2,4,"G","S3","","","FV-C","2","","","1","9","0","","","","","","","","","","","","","","","","","","","",98.8,1500,100,"","","","","","","","","","","","","","0.1260673409"
"X","","","",1235,32830.5999999046,44.06405,-68.3213116666667,157,333,2,"2","131",5,"2","2",2,4,"G","","","","","","","","","","","","","","","","","","","","","","","","","","","","","",99,1500,100,"","","","","","","","","","","","","","0.136787377"
"X","","","",1236,32835.5999999046,44.0619416666667,-68.32004,156,335,2,"2","131",5,"2","2",2,4,"G","","","","","","","","","","","","","","","","","","","","","","","","","","","","","",99.9,1500,100,"","","","","","","","","","","","","","0.1379635006"
"X","","","",1237,32840.5999999046,44.0598666666667,-68.3187516666667,156,332,2,"2","131",5,"2","2",2,4,"G","","","","","","","","","","","","","","","","","","","","","","","","","","","","","",97.4,1500,100,"","","","","","","","","","","","","","0.1364217252"
"X","","","",1238,32845.5999999046,44.0577933333333,-68.317405,154,329,2,"2","131",5,"2","2",2,4,"G","","","","","","","","","","","","","","","","","","","","","","","","","","","","","",99.2,1500,100,"","","","","","","","","","","","","","0.1373765937"
"P","","","",1239,32846.2000000477,44.0575614068681,-68.3172462580306,154,329,2,"2","131",5,"2","2",2,4,"G","S4","","","FV-C","4","","","1","9","0","","","","","","","","","","","","","","","","","","","",99,1500,100,"","","","","","","","","","","","","","0.0155183103"
"X","","","",1240,32850.5999999046,44.05576,-68.3160133333333,153,330,2,"2","131",5,"2","2",2,4,"G","","","","","","","","","","","","","","","","","","","","","","","","","","","","","",97.3,1500,100,"","","","","","","","","","","","","","0.1360508012"
"X","","","",1241,32855.5999999046,44.053715,-68.3146383333333,155,329,2,"2","131",5,"2","2",2,4,"G","","","","","","","","","","","","","","","","","","","","","","","","","","","","","",98.7,1500,100,"","","","","","","","","","","","","","0.1363661838"
"X","","","",1242,32860.5999999046,44.0515883333333,-68.3133533333333,157,322,2,"2","131",5,"2","2",2,4,"G","","","","","","","","","","","","","","","","","","","","","","","","","","","","","",99.7,1500,100,"","","","","","","","","","","","","","0.1392061087"
"X","","","",1243,32865.5999999046,44.04945,-68.3120233333333,155,316,2,"2","131",5,"2","2",2,4,"G","","","","","","","","","","","","","","","","","","","","","","","","","","","","","",103,1500,100,"","","","","","","","","","","","","","0.1406309458"
"X","","","",1244,32870.5999999046,44.0473016666667,-68.3106366666667,155,311,2,"2","131",5,"2","2",2,4,"G","","","","","","","","","","","","","","","","","","","","","","","","","","","","","",102.1,1500,100,"","","","","","","","","","","","","","0.1421918378"
"X","","","",1245,32875.5999999046,44.04515,-68.3092233333333,154,304,2,"2","131",5,"2","2",2,4,"G","","","","","","","","","","","","","","","","","","","","","","","","","","","","","",103.3,1500,100,"","","","","","","","","","","","","","0.1428618543"
"P","","","",1246,32878.2000000477,44.0440161895647,-68.30850371861,154,305,2,"2","131",5,"2","2",2,4,"G","S5","","","FV-C","1","","","1","9","0","","","","","","","","","","","","","","","","","","","",102.3,1500,100,"","","","","","","","","","","","","","0.0748240533"
"X","","","",1247,32880.5999999046,44.0429966666667,-68.3078566666667,155,305,2,"2","131",5,"2","2",2,4,"G","","","","","","","","","","","","","","","","","","","","","","","","","","","","","",101.5,1500,100,"","","","","","","","","","","","","","0.1421056241"
"X","","","",1248,32880.5999999046,44.0429966666667,-68.3078566666667,155,305,2,"2","131",5,"2","2",2,4,"G","","","","","","","","","","","","","","","","","","","","","","","","","","","","","",101.5,1500,100,"","","","","","","","","","","","","","0"
"X","","","",1249,32885.5999999046,44.040865,-68.3065283333333,156,308,2,"2","131",5,"2","2",2,4,"G","","","","","","","","","","","","","","","","","","","","","","","","","","","","","",100.8,1500,100,"","","","","","","","","","","","","","0.1402396063"
"X","","","",1250,32890.5999999046,44.03873,-68.3052466666667,156,313,2,"2","131",5,"2","2",2,4,"G","","","","","","","","","","","","","","","","","","","","","","","","","","","","","",99.7,1500,100,"","","","","","","","","","","","","","0.1396128945"
"S","","","",1251,32893,44.0377162727475,-68.3046315746444,156,315,2,"2","131",5,"2","2",2,4,"G","S6","","","FV-C","1","","","1","9","0","","","","","","","","","","","","","","","","","","","",99.5,1500,100,"","","","","","","","","","","","","","0.0664027288"
"X","","","",1252,32895.5999999046,44.0366066666667,-68.3039583333333,157,316,2,"2","131",5,"2","2",2,4,"G","","","","","","","","","","","","","","","","","","","","","","","","","","","","","",99.2,1500,100,"","","","","","","","","","","","","","0.139085613"
"X","","","",1253,32900.5999999046,44.0344966666667,-68.3026916666667,156,311,2,"2","131",5,"2","2",2,4,"G","","","","","","","","","","","","","","","","","","","","","","","","","","","","","",100.6,1500,100,"","","","","","","","","","","","","","0.1379797688"
"X","","","",1254,32905.5999999046,44.0323533333333,-68.301405,157,304,2,"2","131",5,"2","2",2,4,"G","","","","","","","","","","","","","","","","","","","","","","","","","","","","","",101.8,1500,100,"","","","","","","","","","","","","","0.1401601536"
"X","","","",1255,32910.5999999046,44.0301733333333,-68.300145,158,304,2,"2","131",5,"2","2",2,4,"G","","","","","","","","","","","","","","","","","","","","","","","","","","","","","",101.1,1500,100,"","","","","","","","","","","","","","0.1417391981"
"X","","","",1256,32915.5999999046,44.0279883333333,-68.2989533333333,159,304,2,"2","131",5,"2","2",2,4,"G","","","","","","","","","","","","","","","","","","","","","","","","","","","","","",101.3,1500,100,"","","","","","","","","","","","","","0.1409138048"
"X","","","",1257,32920.5999999046,44.0257983333333,-68.297795,159,304,2,"2","131",5,"2","2",2,4,"G","","","","","","","","","","","","","","","","","","","","","","","","","","","","","",101.6,1500,100,"","","","","","","","","","","","","","0.1406761058"
"X","","","",1258,32925.5999999046,44.0236483333333,-68.2965733333333,157,301,2,"2","131",5,"2","2",2,4,"G","","","","","","","","","","","","","","","","","","","","","","","","","","","","","",99.8,1500,100,"","","","","","","","","","","","","","0.1394456171"
"X","","","",1259,32930.5999999046,44.0215216666667,-68.2952683333333,155,298,2,"2","131",5,"2","2",2,4,"G","","","","","","","","","","","","","","","","","","","","","","","","","","","","","",101.1,1500,100,"","","","","","","","","","","","","","0.1395636528"
"X","","","",1260,32935.5999999046,44.0194066666667,-68.2938483333333,153,300,2,"2","131",5,"2","2",2,4,"G","","","","","","","","","","","","","","","","","","","","","","","","","","","","","",100.6,1500,100,"","","","","","","","","","","","","","0.1410106208"
"S","","","",1261,32935.7999999523,44.0193253258644,-68.2937928951381,154,300,2,"2","131",5,"2","2",2,4,"G","S7","","","FV-C","1","","","1","9","0","","","","","","","","","","","","","","","","","","","",100.6,1500,100,"","","","","","","","","","","","","","0.0054387557"
"X","","","",1262,32940.5999999046,44.0173133333333,-68.2924216666667,154,298,2,"2","131",5,"2","2",2,4,"G","","","","","","","","","","","","","","","","","","","","","","","","","","","","","",101,1500,100,"","","","","","","","","","","","","","0.1399676645"
"X","","","",1263,32940.5999999046,44.0173133333333,-68.2924216666667,154,298,2,"2","131",5,"2","2",2,4,"G","","","","","","","","","","","","","","","","","","","","","","","","","","","","","",101,1500,100,"","","","","","","","","","","","","","0"
"X","","","",1264,32945.5999999046,44.0151883333333,-68.29105,155,292,2,"2","131",5,"2","2",2,4,"G","","","","","","","","","","","","","","","","","","","","","","","","","","","","","",101.4,1500,100,"","","","","","","","","","","","","","0.1406620876"
"S","","","",1265,32949.5,44.0135413421545,-68.2900022567484,155,293,2,"2","131",5,"2","2",2,4,"G","S8","","","FV-T","1","","","1","9","0","","","","","","","","","","","","","","","","","","","",101.4,1500,100,"","","","","","","","","","","","","","0.1087435877"
"X","","","",1266,32950.5999999046,44.0130583333333,-68.289695,155,294,2,"2","131",5,"2","2",2,4,"G","","","","","","","","","","","","","","","","","","","","","","","","","","","","","",101.3,1500,100,"","","","","","","","","","","","","","0.1406344171"
"X","","","",1267,32955.5999999046,44.0109583333333,-68.28835,155,301,2,"2","131",5,"2","2",2,4,"G","","","","","","","","","","","","","","","","","","","","","","","","","","","","","",98,1500,100,"","","","","","","","","","","","","","0.1388181673"
"X","","","",1268,32960.5999999046,44.0089183333333,-68.2870366666667,155,303,2,"2","131",5,"2","2",2,4,"G","","","","","","","","","","","","","","","","","","","","","","","","","","","","","",96.7,1500,100,"","","","","","","","","","","","","","0.1349751851"
"X","","","",1269,32965.5999999046,44.0068633333333,-68.2857233333333,156,301,2,"2","131",5,"2","2",2,4,"G","","","","","","","","","","","","","","","","","","","","","","","","","","","","","",98.5,1500,100,"","","","","","","","","","","","","","0.1357937811"
"X","","","",1270,32970.5999999046,44.0047883333333,-68.284425,156,305,2,"2","131",5,"2","2",2,4,"G","","","","","","","","","","","","","","","","","","","","","","","","","","","","","",98.6,1500,100,"","","","","","","","","","","","","","0.1366194571"
"X","","","",1271,32975.5999999046,44.00273,-68.2831166666667,155,313,2,"2","131",5,"2","2",2,4,"G","","","","","","","","","","","","","","","","","","","","","","","","","","","","","",97.8,1500,100,"","","","","","","","","","","","","","0.1358873702"
"X","","","",1272,32980.5999999046,44.0007133333333,-68.2817583333333,154,321,2,"2","131",5,"2","2",2,4,"G","","","","","","","","","","","","","","","","","","","","","","","","","","","","","",95.9,1500,100,"","","","","","","","","","","","","","0.1345444855"
"X","","","",1273,32985.5999999046,43.998715,-68.2803666666667,153,314,2,"2","131",5,"2","2",2,4,"G","","","","","","","","","","","","","","","","","","","","","","","","","","","","","",98.1,1500,100,"","","","","","","","","","","","","","0.1341942414"
"X","","","",1274,32990.5999999046,43.99665,-68.2789516666667,154,308,2,"2","131",5,"2","2",2,4,"G","","","","","","","","","","","","","","","","","","","","","","","","","","","","","",100.4,1500,100,"","","","","","","","","","","","","","0.1382281646"
"X","","","",1275,32995.5999999046,43.9945333333333,-68.2775883333333,156,308,2,"2","131",5,"2","2",2,4,"G","","","","","","","","","","","","","","","","","","","","","","","","","","","","","",101.9,1500,100,"","","","","","","","","","","","","","0.1400654309"
"X","","","",1276,33000.5999999046,43.99239,-68.2763083333333,157,311,2,"2","131",5,"2","2",2,4,"G","","","","","","","","","","","","","","","","","","","","","","","","","","","","","",100.8,1500,100,"","","","","","","","","","","","","","0.1400610717"
"X","","","",1277,33000.5999999046,43.99239,-68.2763083333333,157,311,2,"2","131",5,"2","2",2,4,"G","","","","","","","","","","","","","","","","","","","","","","","","","","","","","",100.8,1500,100,"","","","","","","","","","","","","","0"
"X","","","",1278,33005.5999999046,43.99027,-68.27505,156,317,2,"2","131",5,"2","2",2,4,"G","","","","","","","","","","","","","","","","","","","","","","","","","","","","","",99.5,1500,100,"","","","","","","","","","","","","","0.1384055715"
"X","","","",1279,33010.5999999046,43.9881783333333,-68.273725,154,321,2,"2","131",5,"2","2",2,4,"G","","","","","","","","","","","","","","","","","","","","","","","","","","","","","",99.2,1500,100,"","","","","","","","","","","","","","0.1380127193"
"S","","","",1280,33014.9000000954,43.9864078335197,-68.2725208821612,154,320,2,"2","131",5,"2","2",2,4,"G","S9","","","FV-C","1","","","1","9","0","","","","","","","","","","","","","","","","","","","",100,1500,100,"","","","","","","","","","","","","","0.1183458366"
"X","","","",1281,33015.5999999046,43.98611,-68.2723183333333,154,320,2,"2","131",5,"2","2",2,4,"G","","","","","","","","","","","","","","","","","","","","","","","","","","","","","",100.2,1500,100,"","","","","","","","","","","","","","0.1382538929"
"X","","","",1282,33020.5999999046,43.984,-68.27088,154,317,2,"2","131",5,"2","2",2,4,"G","","","","","","","","","","","","","","","","","","","","","","","","","","","","","",102.2,1500,100,"","","","","","","","","","","","","","0.1411032596"
"X","","","",1283,33025.5999999046,43.981875,-68.2694333333333,154,319,2,"2","131",5,"2","2",2,4,"G","","","","","","","","","","","","","","","","","","","","","","","","","","","","","",102.2,1500,100,"","","","","","","","","","","","","","0.142071374"
"X","","","",1284,33030.5999999046,43.9797466666667,-68.2679966666667,154,324,2,"2","131",5,"2","2",2,4,"G","","","","","","","","","","","","","","","","","","","","","","","","","","","","","",103.1,1500,100,"","","","","","","","","","","","","","0.1420628223"
"P","","","",1285,33032.5999999046,43.9788971713709,-68.2674358535437,154,323,2,"2","131",5,"2","2",2,4,"G","S10","","","FV-C","1","","","1","9","0","","","","","","","","","","","","","","","","","","","",102.7,1500,100,"","","","","","","","","","","","","","0.0564667498"
"X","","","",1286,33035.5999999046,43.9776133333333,-68.2665883333333,155,323,2,"2","131",5,"2","2",2,4,"G","","","","","","","","","","","","","","","","","","","","","","","","","","","","","",102.2,1500,100,"","","","","","","","","","","","","","0.1418043234"
"X","","","",1287,33040.5999999046,43.9754766666667,-68.265175,154,318,2,"2","131",5,"2","2",2,4,"G","","","","","","","","","","","","","","","","","","","","","","","","","","","","","",103.5,1500,100,"","","","","","","","","","","","","","0.1420787776"
"X","","","",1288,33045.5999999046,43.9733216666667,-68.2637616666667,155,322,2,"2","131",5,"2","2",2,4,"G","","","","","","","","","","","","","","","","","","","","","","","","","","","","","",103.1,1500,100,"","","","","","","","","","","","","","0.1430743886"
"X","","","",1289,33050.5999999046,43.9711916666667,-68.262355,154,328,2,"2","131",5,"2","2",2,4,"G","","","","","","","","","","","","","","","","","","","","","","","","","","","","","",101.9,1500,100,"","","","","","","","","","","","","","0.1415954747"
"S","","","",1290,33054.5999999046,43.9695096910546,-68.2612288214141,154,328,2,"2","131",5,"2","2",2,4,"G","S11","","","FV-C","1","","","1","9","0","","","","","","","","","","","","","","","","","","","",101.8,1500,100,"","","","","","","","","","","","","","0.1121000211"
"X","","","",1291,33055.5999999046,43.9690733333333,-68.2609366666667,154,328,2,"2","131",5,"2","2",2,4,"G","","","","","","","","","","","","","","","","","","","","","","","","","","","","","",101.8,1500,100,"","","","","","","","","","","","","","0.1411821949"
"X","","","",1292,33060.5999999046,43.9669433333333,-68.25955,156,327,2,"2","131",5,"2","2",2,4,"G","","","","","","","","","","","","","","","","","","","","","","","","","","","","","",101.4,1500,100,"","","","","","","","","","","","","","0.1412284842"
"X","","","",1293,33065.5999999046,43.964795,-68.258195,155,320,2,"2","131",5,"2","2",2,4,"G","","","","","","","","","","","","","","","","","","","","","","","","","","","","","",103.8,1500,100,"","","","","","","","","","","","","","0.1416557831"
"X","","","",1294,33070.5999999046,43.9626083333333,-68.2568066666667,156,312,2,"2","131",5,"2","2",2,4,"G","","","","","","","","","","","","","","","","","","","","","","","","","","","","","",104.4,1500,100,"","","","","","","","","","","","","","0.1443482979"
"X","","","",1295,33075.5999999046,43.9604033333333,-68.2554216666667,155,310,2,"2","131",5,"2","2",2,4,"G","","","","","","","","","","","","","","","","","","","","","","","","","","","","","",104.6,1500,100,"","","","","","","","","","","","","","0.1452916787"
"X","","","",1296,33080.5999999046,43.9582083333333,-68.2540416666667,155,310,2,"2","131",5,"2","2",2,4,"G","","","","","","","","","","","","","","","","","","","","","","","","","","","","","",103.7,1500,100,"","","","","","","","","","","","","","0.1446564895"
"X","","","",1297,33085.5999999046,43.9560066666667,-68.252635,155,307,2,"2","131",5,"2","2",2,4,"G","","","","","","","","","","","","","","","","","","","","","","","","","","","","","",105.7,1500,100,"","","","","","","","","","","","","","0.1454999685"
"S","","","",1298,33086.7000000477,43.9555273069169,-68.2523243071431,155,307,2,"2","131",5,"2","2",2,4,"G","S12","","","FV-C","1","","","1","9","0","","","","","","","","","","","","","","","","","","","",105.5,1500,100,"","","","","","","","","","","","","","0.0317596253"
"X","","","",1299,33090.5999999046,43.95379,-68.2511983333333,155,307,2,"2","131",5,"2","2",2,4,"G","","","","","","","","","","","","","","","","","","","","","","","","","","","","","",104.7,1500,100,"","","","","","","","","","","","","","0.1468631413"
"X","","","",1300,33090.5999999046,43.95379,-68.2511983333333,155,307,2,"2","131",5,"2","2",2,4,"G","","","","","","","","","","","","","","","","","","","","","","","","","","","","","",104.7,1500,100,"","","","","","","","","","","","","","0"
"X","","","",1301,33095.5999999046,43.9515633333333,-68.2498483333333,157,310,2,"2","131",5,"2","2",2,4,"G","","","","","","","","","","","","","","","","","","","","","","","","","","","","","",104,1500,100,"","","","","","","","","","","","","","0.1458699055"
"X","","","",1302,33100.5999999046,43.949375,-68.2485383333333,157,310,2,"2","131",5,"2","2",2,4,"G","","","","","","","","","","","","","","","","","","","","","","","","","","","","","",103.2,1500,100,"","","","","","","","","","","","","","0.1430712678"
"X","","","",1303,33105.5999999046,43.9471783333333,-68.2472433333333,157,306,2,"2","131",5,"2","2",2,4,"G","","","","","","","","","","","","","","","","","","","","","","","","","","","","","",104.4,1500,100,"","","","","","","","","","","","","","0.1432771328"
"X","","","",1304,33110.5999999046,43.9449516666667,-68.2459466666667,157,301,2,"2","131",5,"2","2",2,4,"G","","","","","","","","","","","","","","","","","","","","","","","","","","","","","",104.8,1500,100,"","","","","","","","","","","","","","0.1449655348"
"X","","","",1305,33115.5999999046,43.9427166666667,-68.2446266666667,156,300,2,"2","131",5,"2","2",2,4,"G","","","","","","","","","","","","","","","","","","","","","","","","","","","","","",105.5,1500,100,"","","","","","","","","","","","","","0.1458196735"
"X","","","",1306,33120.5999999046,43.940485,-68.243265,156,305,2,"2","131",5,"2","2",2,4,"G","","","","","","","","","","","","","","","","","","","","","","","","","","","","","",104.2,1500,100,"","","","","","","","","","","","","","0.1463515793"
"X","","","",1307,33125.5999999046,43.938285,-68.2419116666667,156,309,2,"2","131",5,"2","2",2,4,"G","","","","","","","","","","","","","","","","","","","","","","","","","","","","","",103.9,1500,100,"","","","","","","","","","","","","","0.1444675125"
"X","","","",1308,33130.5999999046,43.93613,-68.2405283333333,154,309,2,"2","131",5,"2","2",2,4,"G","","","","","","","","","","","","","","","","","","","","","","","","","","","","","",102.9,1500,100,"","","","","","","","","","","","","","0.1425416398"
"X","","","",1309,33135.5999999046,43.9339766666667,-68.2390933333333,154,312,2,"2","131",5,"2","2",2,4,"G","","","","","","","","","","","","","","","","","","","","","","","","","","","","","",103,1500,100,"","","","","","","","","","","","","","0.1434039967"
"X","","","",1310,33140.5999999046,43.9318266666667,-68.2376683333333,154,317,2,"2","131",5,"2","2",2,4,"G","","","","","","","","","","","","","","","","","","","","","","","","","","","","","",103.1,1500,100,"","","","","","","","","","","","","","0.1430377783"
"X","","","",1311,33145.5999999046,43.9297166666667,-68.23625,154,325,2,"2","131",5,"2","2",2,4,"G","","","","","","","","","","","","","","","","","","","","","","","","","","","","","",101.4,1500,100,"","","","","","","","","","","","","","0.1407493144"
"X","","","",1312,33150.5999999046,43.927635,-68.2348633333333,155,329,2,"2","131",5,"2","2",2,4,"G","","","","","","","","","","","","","","","","","","","","","","","","","","","","","",99.6,1500,100,"","","","","","","","","","","","","","0.1386233073"
"X","","","",1313,33155.5999999046,43.9255333333333,-68.23354,155,327,2,"2","131",5,"2","2",2,4,"G","","","","","","","","","","","","","","","","","","","","","","","","","","","","","",100,1500,100,"","","","","","","","","","","","","","0.1385544482"
"X","","","",1314,33160.5999999046,43.9234083333333,-68.2322033333333,156,324,2,"2","131",5,"2","2",2,4,"G","","","","","","","","","","","","","","","","","","","","","","","","","","","","","",100.9,1500,100,"","","","","","","","","","","","","","0.1400693124"
"X","","","",1315,33165.5999999046,43.9212816666667,-68.23085,155,323,2,"2","131",5,"2","2",2,4,"G","","","","","","","","","","","","","","","","","","","","","","","","","","","","","",101.7,1500,100,"","","","","","","","","","","","","","0.1404601134"
"P","","","",1316,33167.7000000477,43.9203978515027,-68.2302978601558,156,323,2,"2","131",5,"2","2",2,4,"G","S13","","","FV-C","4","","","1","9","0","","","","","","","","","","","","","","","","","","","",102,1500,100,"","","","","","","","","","","","","","0.0581896756"
"X","","","",1317,33170.5999999046,43.9191366666667,-68.22951,156,324,2,"2","131",5,"2","2",2,4,"G","","","","","","","","","","","","","","","","","","","","","","","","","","","","","",102.4,1500,100,"","","","","","","","","","","","","","0.1412247621"
"X","","","",1318,33175.5999999046,43.916975,-68.2282383333333,157,323,2,"2","131",5,"2","2",2,4,"G","","","","","","","","","","","","","","","","","","","","","","","","","","","","","",101,1500,100,"","","","","","","","","","","","","","0.1409596084"
"X","","","",1319,33180.5999999046,43.91482,-68.22694,156,321,2,"2","131",5,"2","2",2,4,"G","","","","","","","","","","","","","","","","","","","","","","","","","","","","","",101.2,1500,100,"","","","","","","","","","","","","","0.1410471223"
"X","","","",1320,33180.5999999046,43.91482,-68.22694,156,321,2,"2","131",5,"2","2",2,4,"G","","","","","","","","","","","","","","","","","","","","","","","","","","","","","",101.2,1500,100,"","","","","","","","","","","","","","0"
"X","","","",1321,33185.5999999046,43.9127116666667,-68.2255183333333,153,324,2,"2","131",5,"2","2",2,4,"G","","","","","","","","","","","","","","","","","","","","","","","","","","","","","",102.2,1500,100,"","","","","","","","","","","","","","0.1407298334"
"X","","","",1322,33190.5999999046,43.910625,-68.224015,152,328,2,"2","131",5,"2","2",2,4,"G","","","","","","","","","","","","","","","","","","","","","","","","","","","","","",101.3,1500,100,"","","","","","","","","","","","","","0.1411538487"
"X","","","",1323,33195.5999999046,43.9085483333333,-68.2224883333333,152,327,2,"2","131",5,"2","2",2,4,"G","","","","","","","","","","","","","","","","","","","","","","","","","","","","","",102.5,1500,100,"","","","","","","","","","","","","","0.1410918265"
"X","","","",1324,33200.5999999046,43.9064266666667,-68.2209833333333,154,327,2,"2","131",5,"2","2",2,4,"G","","","","","","","","","","","","","","","","","","","","","","","","","","","","","",103.3,1500,100,"","","","","","","","","","","","","","0.1430571568"
"X","","","",1325,33205.5999999046,43.904285,-68.2195516666667,155,325,2,"2","131",5,"2","2",2,4,"G","","","","","","","","","","","","","","","","","","","","","","","","","","","","","",103.3,1500,100,"","","","","","","","","","","","","","0.1427236372"
"X","","","",1326,33210.5999999046,43.90211,-68.218115,154,325,2,"2","131",5,"2","2",2,4,"G","","","","","","","","","","","","","","","","","","","","","","","","","","","","","",104.9,1500,100,"","","","","","","","","","","","","","0.1446231407"
"X","","","",1327,33210.5999999046,43.90211,-68.218115,154,325,2,"2","131",5,"2","2",2,4,"G","","","","","","","","","","","","","","","","","","","","","","","","","","","","","",104.9,1500,100,"","","","","","","","","","","","","","0"
"X","","","",1328,33215.5999999046,43.899955,-68.2166466666667,153,331,2,"2","131",5,"2","2",2,4,"G","","","","","","","","","","","","","","","","","","","","","","","","","","","","","",103.3,1500,100,"","","","","","","","","","","","","","0.1441392404"
"X","","","",1329,33220.5999999046,43.897825,-68.21525,156,340,2,"2","131",5,"2","2",2,4,"G","","","","","","","","","","","","","","","","","","","","","","","","","","","","","",100.3,1500,100,"","","","","","","","","","","","","","0.1414423422"
"X","","","",1330,33225.5999999046,43.8957066666667,-68.2139766666667,157,341,2,"2","131",5,"2","2",2,4,"G","","","","","","","","","","","","","","","","","","","","","","","","","","","","","",100,1500,100,"","","","","","","","","","","","","","0.1386042377"
"X","","","",1331,33230.5999999046,43.8935633333333,-68.2126883333333,157,331,2,"2","131",5,"2","2",2,4,"G","","","","","","","","","","","","","","","","","","","","","","","","","","","","","",102.7,1500,100,"","","","","","","","","","","","","","0.1402403268"
"X","","","",1332,33235.5999999046,43.8913466666667,-68.21137,156,325,2,"2","131",5,"2","2",2,4,"G","","","","","","","","","","","","","","","","","","","","","","","","","","","","","",104.6,1500,100,"","","","","","","","","","","","","","0.1447983677"
"X","","","",1333,33240.5999999046,43.889125,-68.210025,156,327,2,"2","131",5,"2","2",2,4,"G","","","","","","","","","","","","","","","","","","","","","","","","","","","","","",104.4,1500,100,"","","","","","","","","","","","","","0.1455327376"
"X","","","",1334,33240.5999999046,43.889125,-68.210025,156,327,2,"2","131",5,"2","2",2,4,"G","","","","","","","","","","","","","","","","","","","","","","","","","","","","","",104.4,1500,100,"","","","","","","","","","","","","","0"
"X","","","",1335,33245.5999999046,43.88691,-68.2087016666667,156,326,2,"2","131",5,"2","2",2,4,"G","","","","","","","","","","","","","","","","","","","","","","","","","","","","","",105.2,1500,100,"","","","","","","","","","","","","","0.1447934985"
"X","","","",1336,33250.5999999046,43.8846666666667,-68.20732,156,323,2,"2","131",5,"2","2",2,4,"G","","","","","","","","","","","","","","","","","","","","","","","","","","","","","",106.3,1500,100,"","","","","","","","","","","","","","0.1473642869"
"X","","","",1337,33255.5999999046,43.88243,-68.2059466666667,156,324,2,"2","131",5,"2","2",2,4,"G","","","","","","","","","","","","","","","","","","","","","","","","","","","","","",106.1,1500,100,"","","","","","","","","","","","","","0.1468531369"
"X","","","",1338,33260.5999999046,43.880215,-68.204555,155,324,2,"2","131",5,"2","2",2,4,"G","","","","","","","","","","","","","","","","","","","","","","","","","","","","","",104.8,1500,100,"","","","","","","","","","","","","","0.1459909051"
"X","","","",1339,33265.5999999046,43.878025,-68.2030583333333,153,318,2,"2","131",5,"2","2",2,4,"G","","","","","","","","","","","","","","","","","","","","","","","","","","","","","",105.5,1500,100,"","","","","","","","","","","","","","0.1465764007"
"X","","","",1340,33270.5999999046,43.875825,-68.2015433333333,154,311,2,"2","131",5,"2","2",2,4,"G","","","","","","","","","","","","","","","","","","","","","","","","","","","","","",107.1,1500,100,"","","","","","","","","","","","","","0.1474673626"
"X","","","",1341,33270.5999999046,43.875825,-68.2015433333333,154,311,2,"2","131",5,"2","2",2,4,"G","","","","","","","","","","","","","","","","","","","","","","","","","","","","","",107.1,1500,100,"","","","","","","","","","","","","","0"
"P","","","",1342,33271.2999999523,43.8755157265252,-68.2013439861205,154,311,2,"2","131",5,"2","2",2,4,"G","S14","","","FV-C","1","","","1","9","0","","","","","","","","","","","","","","","","","","","",107.1,1500,100,"","","","","","","","","","","","","","0.0204754115"
"X","","","",1343,33275.5999999046,43.873565,-68.2000866666667,155,310,2,"2","131",5,"2","2",2,4,"G","","","","","","","","","","","","","","","","","","","","","","","","","","","","","",107.4,1500,100,"","","","","","","","","","","","","","0.149622487"
"X","","","",1344,33280.5999999046,43.87131,-68.198645,155,313,2,"2","131",5,"2","2",2,4,"G","","","","","","","","","","","","","","","","","","","","","","","","","","","","","",106.7,1500,100,"","","","","","","","","","","","","","0.1490783892"
"X","","","",1345,33285.5999999046,43.8690766666667,-68.1971983333333,155,311,2,"2","131",5,"2","2",2,4,"G","","","","","","","","","","","","","","","","","","","","","","","","","","","","","",106.9,1500,100,"","","","","","","","","","","","","","0.1479903829"
"X","","","",1346,33290.5999999046,43.8668383333333,-68.1957516666667,155,311,2,"2","131",5,"2","2",2,4,"G","","","","","","","","","","","","","","","","","","","","","","","","","","","","","",106.6,1500,100,"","","","","","","","","","","","","","0.1482634351"
"X","","","",1347,33295.5999999046,43.8646116666667,-68.1942966666667,154,310,2,"2","131",5,"2","2",2,4,"G","","","","","","","","","","","","","","","","","","","","","","","","","","","","","",106.6,1500,100,"","","","","","","","","","","","","","0.1477831717"
"X","","","",1348,33300.5999999046,43.862375,-68.19284,156,306,2,"2","131",5,"2","2",2,4,"G","","","","","","","","","","","","","","","","","","","","","","","","","","","","","",106.6,1500,100,"","","","","","","","","","","","","","0.1483581926"
"X","","","",1349,33305.5999999046,43.8601083333333,-68.1914566666667,157,305,2,"2","131",5,"2","2",2,4,"G","","","","","","","","","","","","","","","","","","","","","","","","","","","","","",107.2,1500,100,"","","","","","","","","","","","","","0.1486847886"
"X","","","",1350,33310.5999999046,43.857845,-68.1901216666667,156,306,2,"2","131",5,"2","2",2,4,"G","","","","","","","","","","","","","","","","","","","","","","","","","","","","","",106.1,1500,100,"","","","","","","","","","","","","","0.1476711273"
"X","","","",1351,33315.5999999046,43.85561,-68.1887766666667,156,309,2,"2","131",5,"2","2",2,4,"G","","","","","","","","","","","","","","","","","","","","","","","","","","","","","",105.7,1500,100,"","","","","","","","","","","","","","0.1462798591"
"X","","","",1352,33320.5999999046,43.8533866666667,-68.1874166666667,156,309,2,"2","131",5,"2","2",2,4,"G","","","","","","","","","","","","","","","","","","","","","","","","","","","","","",104.6,1500,100,"","","","","","","","","","","","","","0.1458992979"
"X","","","",1353,33325.5999999046,43.8511716666667,-68.1859983333333,155,308,2,"2","131",5,"2","2",2,4,"G","","","","","","","","","","","","","","","","","","","","","","","","","","","","","",105.5,1500,100,"","","","","","","","","","","","","","0.1464832827"
"X","","","",1354,33330.5999999046,43.8489666666667,-68.1845483333333,154,314,2,"2","131",5,"2","2",2,4,"G","","","","","","","","","","","","","","","","","","","","","","","","","","","","","",104.2,1500,100,"","","","","","","","","","","","","","0.1465216104"
"X","","","",1355,33330.5999999046,43.8489666666667,-68.1845483333333,154,314,2,"2","131",5,"2","2",2,4,"G","","","","","","","","","","","","","","","","","","","","","","","","","","","","","",104.2,1500,100,"","","","","","","","","","","","","","0"
"X","","","",1356,33335.5999999046,43.8468166666667,-68.183145,155,320,2,"2","131",5,"2","2",2,4,"G","","","","","","","","","","","","","","","","","","","","","","","","","","","","","",101.7,1500,100,"","","","","","","","","","","","","","0.142673628"
"X","","","",1357,33340.5999999046,43.84469,-68.1817716666667,155,321,2,"2","131",5,"2","2",2,4,"G","","","","","","","","","","","","","","","","","","","","","","","","","","","","","",102.2,1500,100,"","","","","","","","","","","","","","0.1408549404"
"X","","","",1358,33345.5999999046,43.8425483333333,-68.1803583333333,154,320,2,"2","131",5,"2","2",2,4,"G","","","","","","","","","","","","","","","","","","","","","","","","","","","","","",102.6,1500,100,"","","","","","","","","","","","","","0.1424085198"
"X","","","",1359,33350.5999999046,43.8404116666667,-68.17894,154,319,2,"2","131",5,"2","2",2,4,"G","","","","","","","","","","","","","","","","","","","","","","","","","","","","","",102.5,1500,100,"","","","","","","","","","","","","","0.142231826"
"X","","","",1360,33355.5999999046,43.8382633333333,-68.177525,155,318,2,"2","131",5,"2","2",2,4,"G","","","","","","","","","","","","","","","","","","","","","","","","","","","","","",103.5,1500,100,"","","","","","","","","","","","","","0.1428028839"
"X","","","",1361,33360.5999999046,43.8361083333333,-68.1760966666667,154,319,2,"2","131",5,"2","2",2,4,"G","","","","","","","","","","","","","","","","","","","","","","","","","","","","","",103.4,1500,100,"","","","","","","","","","","","","","0.1434135931"
"X","","","",1362,33365.5999999046,43.8339566666667,-68.1746783333333,155,320,2,"2","131",5,"2","2",2,4,"G","","","","","","","","","","","","","","","","","","","","","","","","","","","","","",102.8,1500,100,"","","","","","","","","","","","","","0.14304751"
"X","","","",1363,33370.5999999046,43.8317916666667,-68.1732866666667,155,318,2,"2","131",5,"2","2",2,4,"G","","","","","","","","","","","","","","","","","","","","","","","","","","","","","",103.8,1500,100,"","","","","","","","","","","","","","0.143282168"
"X","","","",1364,33375.5999999046,43.8296083333333,-68.1718466666667,154,319,2,"2","131",5,"2","2",2,4,"G","","","","","","","","","","","","","","","","","","","","","","","","","","","","","",104.4,1500,100,"","","","","","","","","","","","","","0.1451694697"
"X","","","",1365,33380.5999999046,43.827445,-68.170375,154,324,2,"2","131",5,"2","2",2,4,"G","","","","","","","","","","","","","","","","","","","","","","","","","","","","","",103,1500,100,"","","","","","","","","","","","","","0.14468607"
"X","","","",1366,33385.5999999046,43.8253016666667,-68.1689433333333,155,327,2,"2","131",5,"2","2",2,4,"G","","","","","","","","","","","","","","","","","","","","","","","","","","","","","",103.3,1500,100,"","","","","","","","","","","","","","0.1428494269"
"X","","","",1367,33390.5999999046,43.82314,-68.167615,157,326,2,"2","131",5,"2","2",2,4,"G","","","","","","","","","","","","","","","","","","","","","","","","","","","","","",102.5,1500,100,"","","","","","","","","","","","","","0.1419704365"
"X","","","",1368,33390.5999999046,43.82314,-68.167615,157,326,2,"2","131",5,"2","2",2,4,"G","","","","","","","","","","","","","","","","","","","","","","","","","","","","","",102.5,1500,100,"","","","","","","","","","","","","","0"
"X","","","",1369,33395.5999999046,43.82092,-68.166355,158,322,2,"2","131",5,"2","2",2,4,"G","","","","","","","","","","","","","","","","","","","","","","","","","","","","","",104.6,1500,100,"","","","","","","","","","","","","","0.1440324265"
"X","","","",1370,33400.5999999046,43.8186833333333,-68.1650033333333,156,320,2,"2","131",5,"2","2",2,4,"G","","","","","","","","","","","","","","","","","","","","","","","","","","","","","",106,1500,100,"","","","","","","","","","","","","","0.1465011977"
"X","","","",1371,33405.5999999046,43.816425,-68.16366,157,321,2,"2","131",5,"2","2",2,4,"G","","","","","","","","","","","","","","","","","","","","","","","","","","","","","",105.7,1500,100,"","","","","","","","","","","","","","0.147552676"
"X","","","",1372,33410.5999999046,43.8141666666667,-68.1623283333333,157,321,2,"2","131",5,"2","2",2,4,"G","","","","","","","","","","","","","","","","","","","","","","","","","","","","","",106.6,1500,100,"","","","","","","","","","","","","","0.1473549187"
"X","","","",1373,33415.5999999046,43.8119083333333,-68.1610083333333,157,320,2,"2","131",5,"2","2",2,4,"G","","","","","","","","","","","","","","","","","","","","","","","","","","","","","",105.7,1500,100,"","","","","","","","","","","","","","0.1471586017"
"X","","","",1374,33420.5999999046,43.8096566666667,-68.159655,156,322,2,"2","131",5,"2","2",2,4,"G","","","","","","","","","","","","","","","","","","","","","","","","","","","","","",106.2,1500,100,"","","","","","","","","","","","","","0.1473594141"
"X","","","",1375,33425.5999999046,43.80741,-68.15829,156,322,2,"2","131",5,"2","2",2,4,"G","","","","","","","","","","","","","","","","","","","","","","","","","","","","","",105.8,1500,100,"","","","","","","","","","","","","","0.1472871866"
"X","","","",1376,33430.5999999046,43.8051716666667,-68.1569416666667,156,322,2,"2","131",5,"2","2",2,4,"G","","","","","","","","","","","","","","","","","","","","","","","","","","","","","",105.1,1500,100,"","","","","","","","","","","","","","0.146540579"
"X","","","",1377,33435.5999999046,43.8029516666667,-68.15555,155,320,2,"2","131",5,"2","2",2,4,"G","","","","","","","","","","","","","","","","","","","","","","","","","","","","","",105.6,1500,100,"","","","","","","","","","","","","","0.1462965783"
"X","","","",1378,33440.5999999046,43.8007166666667,-68.15412,155,319,2,"2","131",5,"2","2",2,4,"G","","","","","","","","","","","","","","","","","","","","","","","","","","","","","",106.8,1500,100,"","","","","","","","","","","","","","0.1478071842"
"X","","","",1379,33445.5999999046,43.7984816666667,-68.152675,155,316,2,"2","131",5,"2","2",2,4,"G","","","","","","","","","","","","","","","","","","","","","","","","","","","","","",106,1500,100,"","","","","","","","","","","","","","0.1480818584"
"X","","","",1380,33450.5999999046,43.7962283333333,-68.1512166666667,155,311,2,"2","131",5,"2","2",2,4,"G","","","","","","","","","","","","","","","","","","","","","","","","","","","","","",107.8,1500,100,"","","","","","","","","","","","","","0.1493246907"
"X","","","",1381,33455.5999999046,43.7939616666667,-68.1497366666667,155,306,2,"2","131",5,"2","2",2,4,"G","","","","","","","","","","","","","","","","","","","","","","","","","","","","","",108.6,1500,100,"","","","","","","","","","","","","","0.1504493021"
"X","","","",1382,33460.5999999046,43.79167,-68.1482766666667,156,304,2,"2","131",5,"2","2",2,4,"G","","","","","","","","","","","","","","","","","","","","","","","","","","","","","",109.4,1500,100,"","","","","","","","","","","","","","0.1514452453"
"X","","","",1383,33465.5999999046,43.7893766666667,-68.1468416666667,155,302,2,"2","131",5,"2","2",2,4,"G","","","","","","","","","","","","","","","","","","","","","","","","","","","","","",108.6,1500,100,"","","","","","","","","","","","","","0.1510879216"
"X","","","",1384,33470.5999999046,43.7870833333333,-68.1454183333333,156,301,2,"2","131",5,"2","2",2,4,"G","","","","","","","","","","","","","","","","","","","","","","","","","","","","","",108.5,1500,100,"","","","","","","","","","","","","","0.1508814412"
"X","","","",1385,33475.5999999046,43.7847916666667,-68.1440666666667,158,300,2,"2","131",5,"2","2",2,4,"G","","","","","","","","","","","","","","","","","","","","","","","","","","","","","",106.9,1500,100,"","","","","","","","","","","","","","0.1495470151"
"X","","","",1386,33480.5999999046,43.78248,-68.142765,158,298,2,"2","131",5,"2","2",2,4,"G","","","","","","","","","","","","","","","","","","","","","","","","","","","","","",108.5,1500,100,"","","","","","","","","","","","","","0.1498238605"
"X","","","",1387,33480.5999999046,43.78248,-68.142765,158,298,2,"2","131",5,"2","2",2,4,"G","","","","","","","","","","","","","","","","","","","","","","","","","","","","","",108.5,1500,100,"","","","","","","","","","","","","","0"
"X","","","",1388,33485.5999999046,43.7801533333333,-68.1415166666667,159,294,2,"2","131",5,"2","2",2,4,"G","","","","","","","","","","","","","","","","","","","","","","","","","","","","","",107.3,1500,100,"","","","","","","","","","","","","","0.1498088419"
"X","","","",1389,33490.5999999046,43.7778466666667,-68.140215,157,292,2,"2","131",5,"2","2",2,4,"G","","","","","","","","","","","","","","","","","","","","","","","","","","","","","",106.9,1500,100,"","","","","","","","","","","","","","0.1495474533"
"X","","","",1390,33495.5999999046,43.7755633333333,-68.13888,157,292,2,"2","131",5,"2","2",2,4,"G","","","","","","","","","","","","","","","","","","","","","","","","","","","","","",108,1500,100,"","","","","","","","","","","","","","0.1488078656"
"X","","","",1391,33500.5999999046,43.7732933333333,-68.1375366666667,157,287,2,"2","131",5,"2","2",2,4,"G","","","","","","","","","","","","","","","","","","","","","","","","","","","","","",107.4,1500,100,"","","","","","","","","","","","","","0.1482131262"
"X","","","",1392,33505.5999999046,43.7709916666667,-68.1361616666667,156,280,2,"2","131",5,"2","2",2,4,"G","","","","","","","","","","","","","","","","","","","","","","","","","","","","","",108.4,1500,100,"","","","","","","","","","","","","","0.1505027078"
"P","","","",1393,33505.7000000477,43.7709576943565,-68.13614035859,156,280,2,"2","131",5,"2","2",2,4,"G","S15","","","FV-C","1","","","1","9","0","","","","","","","","","","","","","","","","","","","",108.4,1500,100,"","","","","","","","","","","","","","0.002239172"
"X","","","",1394,33510.5999999046,43.7687116666667,-68.1347316666667,154,285,2,"2","131",5,"2","2",2,4,"G","","","","","","","","","","","","","","","","","","","","","","","","","","","","","",106.3,1500,100,"","","","","","","","","","","","","","0.1502780474"
"X","","","",1395,33515.5999999046,43.7665133333333,-68.1332433333333,154,290,2,"2","131",5,"2","2",2,4,"G","","","","","","","","","","","","","","","","","","","","","","","","","","","","","",105,1500,100,"","","","","","","","","","","","","","0.1469197305"
"X","","","",1396,33520.5999999046,43.7643466666667,-68.13175,154,288,2,"2","131",5,"2","2",2,4,"G","","","","","","","","","","","","","","","","","","","","","","","","","","","","","",104.7,1500,100,"","","","","","","","","","","","","","0.1453115916"
"X","","","",1397,33525.5999999046,43.7621716666667,-68.130275,154,286,2,"2","131",5,"2","2",2,4,"G","","","","","","","","","","","","","","","","","","","","","","","","","","","","","",104.8,1500,100,"","","","","","","","","","","","","","0.1454093132"
"X","","","",1398,33530.5999999046,43.7599966666667,-68.1288016666667,154,288,2,"2","131",5,"2","2",2,4,"G","","","","","","","","","","","","","","","","","","","","","","","","","","","","","",105.4,1500,100,"","","","","","","","","","","","","","0.1453785609"
"X","","","",1399,33535.5999999046,43.7578233333333,-68.1273383333333,154,292,2,"2","131",5,"2","2",2,4,"G","","","","","","","","","","","","","","","","","","","","","","","","","","","","","",104.2,1500,100,"","","","","","","","","","","","","","0.1450995305"
"X","","","",1400,33540.5999999046,43.75566,-68.1259083333333,155,297,2,"2","131",5,"2","2",2,4,"G","","","","","","","","","","","","","","","","","","","","","","","","","","","","","",103.5,1500,100,"","","","","","","","","","","","","","0.1439321338"
"X","","","",1401,33540.5999999046,43.75566,-68.1259083333333,155,297,2,"2","131",5,"2","2",2,4,"G","","","","","","","","","","","","","","","","","","","","","","","","","","","","","",103.5,1500,100,"","","","","","","","","","","","","","0"
"X","","","",1402,33545.5999999046,43.7535,-68.12451,155,300,2,"2","131",5,"2","2",2,4,"G","","","","","","","","","","","","","","","","","","","","","","","","","","","","","",102.8,1500,100,"","","","","","","","","","","","","","0.1431654243"
"X","","","",1403,33550.5999999046,43.7513383333333,-68.1231033333333,154,300,2,"2","131",5,"2","2",2,4,"G","","","","","","","","","","","","","","","","","","","","","","","","","","","","","",103,1500,100,"","","","","","","","","","","","","","0.1434103735"
"X","","","",1404,33555.5999999046,43.7491966666667,-68.1216883333333,154,303,2,"2","131",5,"2","2",2,4,"G","","","","","","","","","","","","","","","","","","","","","","","","","","","","","",102.3,1500,100,"","","","","","","","","","","","","","0.1424807891"
"X","","","",1405,33560.5999999046,43.7470783333333,-68.120315,154,308,2,"2","131",5,"2","2",2,4,"G","","","","","","","","","","","","","","","","","","","","","","","","","","","","","",101.2,1500,100,"","","","","","","","","","","","","","0.1404427487"
"X","","","",1406,33565.5999999046,43.745005,-68.1189616666667,154,315,2,"2","131",5,"2","2",2,4,"G","","","","","","","","","","","","","","","","","","","","","","","","","","","","","",97.8,1500,100,"","","","","","","","","","","","","","0.1376294104"
"X","","","",1407,33570.5999999046,43.74298,-68.1176283333333,155,316,2,"2","131",5,"2","2",2,4,"G","","","","","","","","","","","","","","","","","","","","","","","","","","","","","",96.4,1500,100,"","","","","","","","","","","","","","0.1346362626"
"X","","","",1408,33575.5999999046,43.74094,-68.1162866666667,154,315,2,"2","131",5,"2","2",2,4,"G","","","","","","","","","","","","","","","","","","","","","","","","","","","","","",98.3,1500,100,"","","","","","","","","","","","","","0.1356056762"
"X","","","",1409,33580.5999999046,43.738905,-68.114955,155,321,2,"2","131",5,"2","2",2,4,"G","","","","","","","","","","","","","","","","","","","","","","","","","","","","","",96.8,1500,100,"","","","","","","","","","","","","","0.135149463"
"X","","","",1410,33585.5999999046,43.7368783333333,-68.1136683333333,156,324,2,"2","131",5,"2","2",2,4,"G","","","","","","","","","","","","","","","","","","","","","","","","","","","","","",96.1,1500,100,"","","","","","","","","","","","","","0.1338725702"
"X","","","",1411,33590.5999999046,43.73484,-68.11242,155,324,2,"2","131",5,"2","2",2,4,"G","","","","","","","","","","","","","","","","","","","","","","","","","","","","","",97,1500,100,"","","","","","","","","","","","","","0.1338288443"
"X","","","",1412,33595.5999999046,43.7327966666667,-68.111135,156,326,2,"2","131",5,"2","2",2,4,"G","","","","","","","","","","","","","","","","","","","","","","","","","","","","","",97.6,1500,100,"","","","","","","","","","","","","","0.1347544122"
"X","","","",1413,33600.5999999046,43.7307533333333,-68.1098633333333,156,327,2,"2","131",5,"2","2",2,4,"G","","","","","","","","","","","","","","","","","","","","","","","","","","","","","",97.5,1500,100,"","","","","","","","","","","","","","0.13451692"
"X","","","",1414,33600.5999999046,43.7307533333333,-68.1098633333333,156,327,2,"2","131",5,"2","2",2,4,"G","","","","","","","","","","","","","","","","","","","","","","","","","","","","","",97.5,1500,100,"","","","","","","","","","","","","","0"
