"rectype","month","day","year","eventno","time","lat","long","heading","alt","legtype","legstage","legno","visiblty","glarel","glarer","beaufort","cloud","wx","sightno","anglel","angler","speccode","number","numcalf","anhead","photos","idrel","confidnc","b1","b2","b3","b4","b5","b6","b7","b8","b9","b10","b11","b12","b13","b14","b15","refno","stratum","utc","radalt","gpsspeed","setalt","setvel","lensfl","ggf","int","gpsq","gpssats","roll","pitch","yaw","maghead","notes","edits","glarev","ph_qual","TrackDist"
"S",7,27,2024,1254,94058,40.7851707776062,-70.5624749145308,160,304,1,"-","",5,"","",1,3,"H","1","","","","","","","","","","","","","","","","","","","","","","","","","","","","",96,1500,100,"","","","","","","","","","","ON WATCH - ","","",0.0434347381
"X",7,27,2024,1255,94058,40.7850115166667,-70.5624071333333,160,304,1,"-","",5,"","",1,3,"H","","","","","","","","","","","","","","","","","","","","","","","","","","","","","",96,1500,100,"","","","","","","","","","","","","",0.0534810602
"X",7,27,2024,1256,94100,40.7841473666667,-70.5620183833333,160,302,1,"-","",5,"","",1,3,"H","","","","","","","","","","","","","","","","","","","","","","","","","","","","","",96.2,1500,100,"","","","","","","","","","","","","",0.0548112899
"X",7,27,2024,1257,94102,40.7833095666667,-70.5616133166667,160,302,1,"-","",5,"","",1,3,"H","","","","","","","","","","","","","","","","","","","","","","","","","","","","","",96.3,1500,100,"","","","","","","","","","","","","",0.0535666886
"X",7,27,2024,1258,94104,40.7824746333333,-70.56119835,159,301,1,"-","",5,"","",1,3,"H","","","","","","","","","","","","","","","","","","","","","","","","","","","","","",96.4,1500,100,"","","","","","","","","","","","","",0.0535620361
"X",7,27,2024,1259,94106,40.7816375333333,-70.5607830166667,160,301,1,"-","",5,"","",1,3,"H","","","","","","","","","","","","","","","","","","","","","","","","","","","","","",96.5,1500,100,"","","","","","","","","","","","","",0.053689751
"X",7,27,2024,1260,94108,40.7807966333333,-70.5603752,160,300,1,"-","",5,"","",1,3,"H","","","","","","","","","","","","","","","","","","","","","","","","","","","","","",96.5,1500,100,"","","","","","","","","","","","","",0.0537847167
"X",7,27,2024,1261,94110,40.7799563333333,-70.5599678666667,160,300,1,"-","",5,"","",1,3,"H","","","","","","","","","","","","","","","","","","","","","","","","","","","","","",96.4,1500,100,"","","","","","","","","","","","","",0.0537434071
"X",7,27,2024,1262,94112,40.7791157833333,-70.5595607666667,160,300,1,"-","",5,"","",1,3,"H","","","","","","","","","","","","","","","","","","","","","","","","","","","","","",96.4,1500,100,"","","","","","","","","","","","","",0.0537539253
"X",7,27,2024,1263,94114,40.7782763166667,-70.5591551,160,301,1,"-","",5,"","",1,3,"H","","","","","","","","","","","","","","","","","","","","","","","","","","","","","",96.5,1500,100,"","","","","","","","","","","","","",0.0536705151
"X",7,27,2024,1264,94114,40.7782763166667,-70.5591551,160,301,1,"-","",5,"","",1,3,"H","","","","","","","","","","","","","","","","","","","","","","","","","","","","","",96.5,1500,100,"","","","","","","","","","","","","",0
"X",7,27,2024,1265,94116,40.7774349333333,-70.5587528833333,160,301,1,"-","",5,"","",1,3,"H","","","","","","","","","","","","","","","","","","","","","","","","","","","","","",96.6,1500,100,"","","","","","","","","","","","","",0.053725086
"X",7,27,2024,1266,94118,40.7765952333333,-70.5583494833333,160,302,1,"-","",5,"","",1,3,"H","","","","","","","","","","","","","","","","","","","","","","","","","","","","","",96.6,1500,100,"","","","","","","","","","","","","",0.0536485123
"X",7,27,2024,1267,94120,40.7757523,-70.5579398833333,160,302,1,"-","",5,"","",1,3,"H","","","","","","","","","","","","","","","","","","","","","","","","","","","","","",96.7,1500,100,"","","","","","","","","","","","","",0.0539277635
"X",7,27,2024,1268,94122,40.7749128333333,-70.5575211,159,302,1,"-","",5,"","",1,3,"H","","","","","","","","","","","","","","","","","","","","","","","","","","","","","",96.9,1500,100,"","","","","","","","","","","","","",0.0538786984
"X",7,27,2024,1269,94124,40.774073,-70.5570992166667,159,302,1,"-","",5,"","",1,3,"H","","","","","","","","","","","","","","","","","","","","","","","","","","","","","",97,1500,100,"","","","","","","","","","","","","",0.0539493332
"X",7,27,2024,1270,94126,40.7732295833333,-70.5566829333333,160,302,1,"-","",5,"","",1,3,"H","","","","","","","","","","","","","","","","","","","","","","","","","","","","","",97.1,1500,100,"","","","","","","","","","","","","",0.054060886
"X",7,27,2024,1271,94128,40.7723840333333,-70.5562674833333,160,302,1,"-","",5,"","",1,3,"H","","","","","","","","","","","","","","","","","","","","","","","","","","","","","",97.3,1500,100,"","","","","","","","","","","","","",0.0541677423
"X",7,27,2024,1272,94130,40.7715406333333,-70.5558470333334,159,302,1,"-","",5,"","",1,3,"H","","","","","","","","","","","","","","","","","","","","","","","","","","","","","",97.4,1500,100,"","","","","","","","","","","","","",0.0541267429
"X",7,27,2024,1273,94132,40.7706980666667,-70.55542135,159,302,1,"-","",5,"","",1,3,"H","","","","","","","","","","","","","","","","","","","","","","","","","","","","","",97.5,1500,100,"","","","","","","","","","","","","",0.0541646016
"X",7,27,2024,1274,94134,40.76985465,-70.5549963666667,159,302,1,"-","",5,"","",1,3,"H","","","","","","","","","","","","","","","","","","","","","","","","","","","","","",97.5,1500,100,"","","","","","","","","","","","","",0.0542010006
"X",7,27,2024,1275,94136,40.7690074333333,-70.5545779333333,160,302,1,"-","",5,"","",1,3,"H","","","","","","","","","","","","","","","","","","","","","","","","","","","","","",97.6,1500,100,"","","","","","","","","","","","","",0.05430925
"X",7,27,2024,1276,94138,40.7681593833333,-70.55416285,160,302,1,"-","",5,"","",1,3,"H","","","","","","","","","","","","","","","","","","","","","","","","","","","","","",97.7,1500,100,"","","","","","","","","","","","","",0.0543030659
"X",7,27,2024,1277,94140,40.76730895,-70.5537509833333,160,301,1,"-","",5,"","",1,3,"H","","","","","","","","","","","","","","","","","","","","","","","","","","","","","",97.8,1500,100,"","","","","","","","","","","","","",0.0543868043
"X",7,27,2024,1278,94142,40.7664586166667,-70.5533382833333,160,301,1,"-","",5,"","",1,3,"H","","","","","","","","","","","","","","","","","","","","","","","","","","","","","",97.8,1500,100,"","","","","","","","","","","","","",0.0543943124
"X",7,27,2024,1279,94144,40.7656108,-70.5529197333333,159,301,1,"-","",5,"","",1,3,"H","","","","","","","","","","","","","","","","","","","","","","","","","","","","","",97.8,1500,100,"","","","","","","","","","","","","",0.0543451909
"X",7,27,2024,1280,94146,40.7647631166667,-70.5524981,159,301,1,"-","",5,"","",1,3,"H","","","","","","","","","","","","","","","","","","","","","","","","","","","","","",97.8,1500,100,"","","","","","","","","","","","","",0.0543870491
"X",7,27,2024,1281,94148,40.76391445,-70.5520784833333,160,301,1,"-","",5,"","",1,3,"H","","","","","","","","","","","","","","","","","","","","","","","","","","","","","",97.8,1500,100,"","","","","","","","","","","","","",0.0544101585
"X",7,27,2024,1282,94150,40.7630647333333,-70.5516619666667,160,301,1,"-","",5,"","",1,3,"H","","","","","","","","","","","","","","","","","","","","","","","","","","","","","",97.8,1500,100,"","","","","","","","","","","","","",0.0544200598
"X",7,27,2024,1283,94152,40.7622165666667,-70.55124615,160,302,1,"-","",5,"","",1,3,"H","","","","","","","","","","","","","","","","","","","","","","","","","","","","","",97.7,1500,100,"","","","","","","","","","","","","",0.0543218205
"X",7,27,2024,1284,94154,40.7613686166667,-70.5508310666667,160,302,1,"-","",5,"","",1,3,"H","","","","","","","","","","","","","","","","","","","","","","","","","","","","","",97.6,1500,100,"","","","","","","","","","","","","",0.0542981067
"X",7,27,2024,1285,94156,40.7605230666667,-70.5504140833333,159,303,1,"-","",5,"","",1,3,"H","","","","","","","","","","","","","","","","","","","","","","","","","","","","","",97.5,1500,100,"","","","","","","","","","","","","",0.0541932792
"X",7,27,2024,1286,94158,40.7596787166667,-70.5499922,159,303,1,"-","",5,"","",1,3,"H","","","","","","","","","","","","","","","","","","","","","","","","","","","","","",97.5,1500,100,"","","","","","","","","","","","","",0.0542043515
"X",7,27,2024,1287,94200,40.7588347166667,-70.5495721,159,304,1,"-","",5,"","",1,3,"H","","","","","","","","","","","","","","","","","","","","","","","","","","","","","",97.5,1500,100,"","","","","","","","","","","","","",0.0541561197
"X",7,27,2024,1288,94202,40.75798845,-70.5491563,160,304,1,"-","",5,"","",1,3,"H","","","","","","","","","","","","","","","","","","","","","","","","","","","","","",97.5,1500,100,"","","","","","","","","","","","","",0.0542150482
"X",7,27,2024,1289,94204,40.7571396666667,-70.54874645,160,305,1,"-","",5,"","",1,3,"H","","","","","","","","","","","","","","","","","","","","","","","","","","","","","",97.6,1500,100,"","","","","","","","","","","","","",0.0542632225
"X",7,27,2024,1290,94206,40.7562900666667,-70.5483413833333,160,305,1,"-","",5,"","",1,3,"H","","","","","","","","","","","","","","","","","","","","","","","","","","","","","",97.6,1500,100,"","","","","","","","","","","","","",0.0542350755
"X",7,27,2024,1291,94208,40.7554408166667,-70.5479308333333,160,305,1,"-","",5,"","",1,3,"H","","","","","","","","","","","","","","","","","","","","","","","","","","","","","",97.7,1500,100,"","","","","","","","","","","","","",0.05430064
"X",7,27,2024,1292,94210,40.75459325,-70.5475118,159,305,1,"-","",5,"","",1,3,"H","","","","","","","","","","","","","","","","","","","","","","","","","","","","","",97.8,1500,100,"","","","","","","","","","","","","",0.0543399428
"X",7,27,2024,1293,94212,40.7537441166667,-70.5470955333333,160,305,1,"-","",5,"","",1,3,"H","","","","","","","","","","","","","","","","","","","","","","","","","","","","","",97.8,1500,100,"","","","","","","","","","","","","",0.0543841931
"X",7,27,2024,1294,94214,40.7528887833333,-70.5466897333333,160,304,1,"-","",5,"","",1,3,"H","","","","","","","","","","","","","","","","","","","","","","","","","","","","","",98.1,1500,100,"","","","","","","","","","","","","",0.0545705552
"X",7,27,2024,1295,94214,40.7528887833333,-70.5466897333333,160,304,1,"-","",5,"","",1,3,"H","","","","","","","","","","","","","","","","","","","","","","","","","","","","","",98.1,1500,100,"","","","","","","","","","","","","",0
"X",7,27,2024,1296,94216,40.7520298833333,-70.5462826333333,160,304,1,"-","",5,"","",1,3,"H","","","","","","","","","","","","","","","","","","","","","","","","","","","","","",98.4,1500,100,"","","","","","","","","","","","","",0.0547921605
"X",7,27,2024,1297,94218,40.7511733666667,-70.54586755,160,304,1,"-","",5,"","",1,3,"H","","","","","","","","","","","","","","","","","","","","","","","","","","","","","",98.5,1500,100,"","","","","","","","","","","","","",0.0547816604
"X",7,27,2024,1298,94220,40.7503178,-70.5454466333333,160,303,1,"-","",5,"","",1,3,"H","","","","","","","","","","","","","","","","","","","","","","","","","","","","","",98.6,1500,100,"","","","","","","","","","","","","",0.0548202984
"X",7,27,2024,1299,94222,40.7494606833333,-70.5450267666667,160,303,1,"-","",5,"","",1,3,"H","","","","","","","","","","","","","","","","","","","","","","","","","","","","","",98.7,1500,100,"","","","","","","","","","","","","",0.0548909627
"X",7,27,2024,1300,94224,40.7486011833333,-70.5446144333333,160,303,1,"-","",5,"","",1,3,"H","","","","","","","","","","","","","","","","","","","","","","","","","","","","","",98.8,1500,100,"","","","","","","","","","","","","",0.0549072417
"X",7,27,2024,1301,94226,40.74774205,-70.5442016,160,303,1,"-","",5,"","",1,3,"H","","","","","","","","","","","","","","","","","","","","","","","","","","","","","",98.8,1500,100,"","","","","","","","","","","","","",0.0548944099
"X",7,27,2024,1302,94228,40.7468842166667,-70.5437816333333,160,303,1,"-","",5,"","",1,3,"H","","","","","","","","","","","","","","","","","","","","","","","","","","","","","",98.8,1500,100,"","","","","","","","","","","","","",0.0549331444
"X",7,27,2024,1303,94230,40.7460291333333,-70.54336035,160,304,1,"-","",5,"","",1,3,"H","","","","","","","","","","","","","","","","","","","","","","","","","","","","","",98.7,1500,100,"","","","","","","","","","","","","",0.0547993685
"X",7,27,2024,1304,94232,40.7451721333333,-70.5429447833333,160,304,1,"-","",5,"","",1,3,"H","","","","","","","","","","","","","","","","","","","","","","","","","","","","","",98.6,1500,100,"","","","","","","","","","","","","",0.0548170677
"X",7,27,2024,1305,94234,40.7443138333333,-70.5425342166667,160,305,1,"-","",5,"","",1,3,"H","","","","","","","","","","","","","","","","","","","","","","","","","","","","","",98.6,1500,100,"","","","","","","","","","","","","",0.0548125123
"X",7,27,2024,1306,94236,40.7434583833333,-70.5421184166667,160,305,1,"-","",5,"","",1,3,"H","","","","","","","","","","","","","","","","","","","","","","","","","","","","","",98.5,1500,100,"","","","","","","","","","","","","",0.054733558
"X",7,27,2024,1307,94238,40.74260425,-70.5416991666667,160,305,1,"-","",5,"","",1,3,"H","","","","","","","","","","","","","","","","","","","","","","","","","","","","","",98.4,1500,100,"","","","","","","","","","","","","",0.0547139712
"X",7,27,2024,1308,94240,40.7417508333333,-70.5412803833333,160,305,1,"-","",5,"","",1,3,"H","","","","","","","","","","","","","","","","","","","","","","","","","","","","","",98.4,1500,100,"","","","","","","","","","","","","",0.0546663267
"X",7,27,2024,1309,94242,40.7408958666667,-70.540861,160,305,1,"-","",5,"","",1,3,"H","","","","","","","","","","","","","","","","","","","","","","","","","","","","","",98.5,1500,100,"","","","","","","","","","","","","",0.054763153
"X",7,27,2024,1310,94244,40.7400411333333,-70.5404387666667,159,305,1,"-","",5,"","",1,3,"H","","","","","","","","","","","","","","","","","","","","","","","","","","","","","",98.6,1500,100,"","","","","","","","","","","","","",0.0547954192
"X",7,27,2024,1311,94244,40.7400411333333,-70.5404387666667,159,305,1,"-","",5,"","",1,3,"H","","","","","","","","","","","","","","","","","","","","","","","","","","","","","",98.6,1500,100,"","","","","","","","","","","","","",0
"X",7,27,2024,1312,94246,40.7391872333333,-70.54001485,159,305,1,"-","",5,"","",1,3,"H","","","","","","","","","","","","","","","","","","","","","","","","","","","","","",98.5,1500,100,"","","","","","","","","","","","","",0.0547755631
"X",7,27,2024,1313,94248,40.7383320166667,-70.5395904666667,159,305,1,"-","",5,"","",1,3,"H","","","","","","","","","","","","","","","","","","","","","","","","","","","","","",98.7,1500,100,"","","","","","","","","","","","","",0.054857117
"X",7,27,2024,1314,94250,40.7374758666667,-70.5391687,160,306,1,"-","",5,"","",1,3,"H","","","","","","","","","","","","","","","","","","","","","","","","","","","","","",98.7,1500,100,"","","","","","","","","","","","","",0.0548679191
"X",7,27,2024,1315,94252,40.73662065,-70.5387473,159,307,1,"-","",5,"","",1,3,"H","","","","","","","","","","","","","","","","","","","","","","","","","","","","","",98.6,1500,100,"","","","","","","","","","","","","",0.0548096726
"X",7,27,2024,1316,94254,40.7357678333333,-70.5383234,159,308,1,"-","",5,"","",1,3,"H","","","","","","","","","","","","","","","","","","","","","","","","","","","","","",98.5,1500,100,"","","","","","","","","","","","","",0.0547147707
"X",7,27,2024,1317,94256,40.7349144166667,-70.53790175,160,308,1,"-","",5,"","",1,3,"H","","","","","","","","","","","","","","","","","","","","","","","","","","","","","",98.5,1500,100,"","","","","","","","","","","","","",0.0547125984
"X",7,27,2024,1318,94258,40.7340579,-70.5374894,160,309,1,"-","",5,"","",1,3,"H","","","","","","","","","","","","","","","","","","","","","","","","","","","","","",98.5,1500,100,"","","","","","","","","","","","","",0.0547405939
"X",7,27,2024,1319,94300,40.7331986333333,-70.5370873166667,160,309,1,"-","",5,"","",1,3,"H","","","","","","","","","","","","","","","","","","","","","","","","","","","","","",98.5,1500,100,"","","","","","","","","","","","","",0.0547379547
"X",7,27,2024,1320,94302,40.7323372333333,-70.53669035,161,309,1,"-","",5,"","",1,3,"H","","","","","","","","","","","","","","","","","","","","","","","","","","","","","",98.6,1500,100,"","","","","","","","","","","","","",0.0547815853
"X",7,27,2024,1321,94304,40.7314749833333,-70.5362929,161,308,1,"-","",5,"","",1,3,"H","","","","","","","","","","","","","","","","","","","","","","","","","","","","","",98.6,1500,100,"","","","","","","","","","","","","",0.0548370935
"X",7,27,2024,1322,94306,40.7306134666667,-70.5358922333333,160,308,1,"-","",5,"","",1,3,"H","","","","","","","","","","","","","","","","","","","","","","","","","","","","","",98.7,1500,100,"","","","","","","","","","","","","",0.0548440765
"X",7,27,2024,1323,94308,40.72975205,-70.5354902666667,160,307,1,"-","",5,"","",1,3,"H","","","","","","","","","","","","","","","","","","","","","","","","","","","","","",98.7,1500,100,"","","","","","","","","","","","","",0.0548581827
"X",7,27,2024,1324,94310,40.7288888666667,-70.53509115,161,306,1,"-","",5,"","",1,3,"H","","","","","","","","","","","","","","","","","","","","","","","","","","","","","",98.8,1500,100,"","","","","","","","","","","","","",0.0549152605
"X",7,27,2024,1325,94312,40.7280234,-70.5346986,161,306,1,"-","",5,"","",1,3,"H","","","","","","","","","","","","","","","","","","","","","","","","","","","","","",98.8,1500,100,"","","","","","","","","","","","","",0.0549468925
"X",7,27,2024,1326,94314,40.72715735,-70.5343089,161,306,1,"-","",5,"","",1,3,"H","","","","","","","","","","","","","","","","","","","","","","","","","","","","","",98.8,1500,100,"","","","","","","","","","","","","",0.0549381013
"X",7,27,2024,1327,94314,40.72715735,-70.5343089,161,306,1,"-","",5,"","",1,3,"H","","","","","","","","","","","","","","","","","","","","","","","","","","","","","",98.8,1500,100,"","","","","","","","","","","","","",0
"X",7,27,2024,1328,94316,40.7262918833333,-70.5339158666667,161,306,1,"-","",5,"","",1,3,"H","","","","","","","","","","","","","","","","","","","","","","","","","","","","","",98.9,1500,100,"","","","","","","","","","","","","",0.0549541962
"X",7,27,2024,1329,94318,40.72542785,-70.533517,161,307,1,"-","",5,"","",1,3,"H","","","","","","","","","","","","","","","","","","","","","","","","","","","","","",98.9,1500,100,"","","","","","","","","","","","","",0.0549599811
"X",7,27,2024,1330,94320,40.72456395,-70.5331155,161,307,1,"-","",5,"","",1,3,"H","","","","","","","","","","","","","","","","","","","","","","","","","","","","","",98.9,1500,100,"","","","","","","","","","","","","",0.0549921921
"X",7,27,2024,1331,94322,40.7236983666667,-70.5327165,161,307,1,"-","",5,"","",1,3,"H","","","","","","","","","","","","","","","","","","","","","","","","","","","","","",99,1500,100,"","","","","","","","","","","","","",0.055049988
"X",7,27,2024,1332,94324,40.7228302833333,-70.53232275,161,307,1,"-","",5,"","",1,3,"H","","","","","","","","","","","","","","","","","","","","","","","","","","","","","",99.1,1500,100,"","","","","","","","","","","","","",0.0551136688
"X",7,27,2024,1333,94326,40.7219604166667,-70.5319304333333,161,307,1,"-","",5,"","",1,3,"H","","","","","","","","","","","","","","","","","","","","","","","","","","","","","",99.3,1500,100,"","","","","","","","","","","","","",0.0551938825
"X",7,27,2024,1334,94328,40.7210901833333,-70.5315347833333,161,306,1,"-","",5,"","",1,3,"H","","","","","","","","","","","","","","","","","","","","","","","","","","","","","",99.4,1500,100,"","","","","","","","","","","","","",0.0552640174
"X",7,27,2024,1335,94330,40.7202197166667,-70.5311357833333,161,306,1,"-","",5,"","",1,3,"H","","","","","","","","","","","","","","","","","","","","","","","","","","","","","",99.5,1500,100,"","","","","","","","","","","","","",0.0553271772
"X",7,27,2024,1336,94332,40.7193481833333,-70.5307379833333,161,306,1,"-","",5,"","",1,3,"H","","","","","","","","","","","","","","","","","","","","","","","","","","","","","",99.6,1500,100,"","","","","","","","","","","","","",0.0553698792
"X",7,27,2024,1337,94334,40.7184749833333,-70.5303426833333,161,305,1,"-","",5,"","",1,3,"H","","","","","","","","","","","","","","","","","","","","","","","","","","","","","",99.7,1500,100,"","","","","","","","","","","","","",0.0554275094
"X",7,27,2024,1338,94336,40.71760045,-70.5299481,161,305,1,"-","",5,"","",1,3,"H","","","","","","","","","","","","","","","","","","","","","","","","","","","","","",99.7,1500,100,"","","","","","","","","","","","","",0.0554927515
"X",7,27,2024,1339,94338,40.71672785,-70.5295507833333,161,305,1,"-","",5,"","",1,3,"H","","","","","","","","","","","","","","","","","","","","","","","","","","","","","",99.7,1500,100,"","","","","","","","","","","","","",0.0554234605
"X",7,27,2024,1340,94340,40.71585595,-70.5291503666667,161,306,1,"-","",5,"","",1,3,"H","","","","","","","","","","","","","","","","","","","","","","","","","","","","","",99.7,1500,100,"","","","","","","","","","","","","",0.0554300266
"X",7,27,2024,1341,94342,40.7149845333333,-70.5287488666667,161,306,1,"-","",5,"","",1,3,"H","","","","","","","","","","","","","","","","","","","","","","","","","","","","","",99.7,1500,100,"","","","","","","","","","","","","",0.055418934
"X",7,27,2024,1342,94344,40.7141126333333,-70.5283476,161,306,1,"-","",5,"","",1,3,"H","","","","","","","","","","","","","","","","","","","","","","","","","","","","","",99.8,1500,100,"","","","","","","","","","","","","",0.0554429122
"X",7,27,2024,1343,94344,40.7141126333333,-70.5283476,161,306,1,"-","",5,"","",1,3,"H","","","","","","","","","","","","","","","","","","","","","","","","","","","","","",99.8,1500,100,"","","","","","","","","","","","","",0
"X",7,27,2024,1344,94346,40.7132385833333,-70.5279495666667,161,306,1,"-","",5,"","",1,3,"H","","","","","","","","","","","","","","","","","","","","","","","","","","","","","",99.8,1500,100,"","","","","","","","","","","","","",0.0555167054
"X",7,27,2024,1345,94348,40.7123626333333,-70.5275555833333,161,306,1,"-","",5,"","",1,3,"H","","","","","","","","","","","","","","","","","","","","","","","","","","","","","",99.9,1500,100,"","","","","","","","","","","","","",0.0555648789
"X",7,27,2024,1346,94350,40.7114851333333,-70.5271639666667,161,306,1,"-","",5,"","",1,3,"H","","","","","","","","","","","","","","","","","","","","","","","","","","","","","",100,1500,100,"","","","","","","","","","","","","",0.0556184391
"X",7,27,2024,1347,94352,40.710608,-70.5267711833333,161,306,1,"-","",5,"","",1,3,"H","","","","","","","","","","","","","","","","","","","","","","","","","","","","","",100,1500,100,"","","","","","","","","","","","","",0.0556147048
"X",7,27,2024,1348,94354,40.7097309666667,-70.52637565,161,307,1,"-","",5,"","",1,3,"H","","","","","","","","","","","","","","","","","","","","","","","","","","","","","",100.1,1500,100,"","","","","","","","","","","","","",0.0556494547
"X",7,27,2024,1349,94356,40.7088534666667,-70.5259810666667,161,307,1,"-","",5,"","",1,3,"H","","","","","","","","","","","","","","","","","","","","","","","","","","","","","",100.1,1500,100,"","","","","","","","","","","","","",0.0556620799
"X",7,27,2024,1350,94358,40.7079741833333,-70.5255908833333,161,307,1,"-","",5,"","",1,3,"H","","","","","","","","","","","","","","","","","","","","","","","","","","","","","",100.2,1500,100,"","","","","","","","","","","","","",0.0556993431
"X",7,27,2024,1351,94400,40.707093,-70.525205,162,307,1,"-","",5,"","",1,3,"H","","","","","","","","","","","","","","","","","","","","","","","","","","","","","",100.3,1500,100,"","","","","","","","","","","","","",0.0557455851
"X",7,27,2024,1352,94402,40.7062112,-70.524819,162,307,1,"-","",5,"","",1,3,"H","","","","","","","","","","","","","","","","","","","","","","","","","","","","","",100.3,1500,100,"","","","","","","","","","","","","",0.0557824711
"X",7,27,2024,1353,94404,40.7053294166667,-70.5244306166667,162,308,1,"-","",5,"","",1,3,"H","","","","","","","","","","","","","","","","","","","","","","","","","","","","","",100.4,1500,100,"","","","","","","","","","","","","",0.0558158549
"X",7,27,2024,1354,94406,40.7044473833333,-70.52403985,161,308,1,"-","",5,"","",1,3,"H","","","","","","","","","","","","","","","","","","","","","","","","","","","","","",100.5,1500,100,"","","","","","","","","","","","","",0.0558646088
"X",7,27,2024,1355,94408,40.703565,-70.5236474166667,161,308,1,"-","",5,"","",1,3,"H","","","","","","","","","","","","","","","","","","","","","","","","","","","","","",100.5,1500,100,"","","","","","","","","","","","","",0.0559087947
"X",7,27,2024,1356,94410,40.70268165,-70.52325415,161,308,1,"-","",5,"","",1,3,"H","","","","","","","","","","","","","","","","","","","","","","","","","","","","","",100.7,1500,100,"","","","","","","","","","","","","",0.0559759887
"X",7,27,2024,1357,94412,40.70179735,-70.5228596833334,161,308,1,"-","",5,"","",1,3,"H","","","","","","","","","","","","","","","","","","","","","","","","","","","","","",100.8,1500,100,"","","","","","","","","","","","","",0.056047585
"X",7,27,2024,1358,94414,40.7009121166667,-70.52246355,161,308,1,"-","",5,"","",1,3,"H","","","","","","","","","","","","","","","","","","","","","","","","","","","","","",100.9,1500,100,"","","","","","","","","","","","","",0.0561250749
"X",7,27,2024,1359,94416,40.7000252,-70.5220665833333,161,308,1,"-","",5,"","",1,3,"H","","","","","","","","","","","","","","","","","","","","","","","","","","","","","",101.1,1500,100,"","","","","","","","","","","","","",0.0562330487
"X",7,27,2024,1360,94418,40.6991370833333,-70.5216702166667,161,307,1,"-","",5,"","",1,3,"H","","","","","","","","","","","","","","","","","","","","","","","","","","","","","",101.2,1500,100,"","","","","","","","","","","","","",0.0562925989
"X",7,27,2024,1361,94420,40.6982473,-70.5212767,161,307,1,"-","",5,"","",1,3,"H","","","","","","","","","","","","","","","","","","","","","","","","","","","","","",101.3,1500,100,"","","","","","","","","","","","","",0.0563460972
"X",7,27,2024,1362,94422,40.6973555,-70.52088605,162,307,1,"-","",5,"","",1,3,"H","","","","","","","","","","","","","","","","","","","","","","","","","","","","","",101.5,1500,100,"","","","","","","","","","","","","",0.0564197222
"X",7,27,2024,1363,94424,40.6964625,-70.5204973166667,162,307,1,"-","",5,"","",1,3,"H","","","","","","","","","","","","","","","","","","","","","","","","","","","","","",101.5,1500,100,"","","","","","","","","","","","","",0.0564607727
"X",7,27,2024,1364,94426,40.6955689166667,-70.5201077333333,162,307,1,"-","",5,"","",1,3,"H","","","","","","","","","","","","","","","","","","","","","","","","","","","","","",101.6,1500,100,"","","","","","","","","","","","","",0.0565062389
"X",7,27,2024,1365,94428,40.6946752,-70.5197160166667,162,307,1,"-","",5,"","",1,3,"H","","","","","","","","","","","","","","","","","","","","","","","","","","","","","",101.7,1500,100,"","","","","","","","","","","","","",0.056544465
"X",7,27,2024,1366,94430,40.6937817333333,-70.51932275,162,307,1,"-","",5,"","",1,3,"H","","","","","","","","","","","","","","","","","","","","","","","","","","","","","",101.7,1500,100,"","","","","","","","","","","","","",0.0565525937
"X",7,27,2024,1367,94432,40.6928887333333,-70.51893055,162,306,1,"-","",5,"","",1,3,"H","","","","","","","","","","","","","","","","","","","","","","","","","","","","","",101.6,1500,100,"","","","","","","","","","","","","",0.056510732
"X",7,27,2024,1368,94434,40.6919957333333,-70.5185399,162,306,1,"-","",5,"","",1,3,"H","","","","","","","","","","","","","","","","","","","","","","","","","","","","","",101.6,1500,100,"","","","","","","","","","","","","",0.0564885534
"X",7,27,2024,1369,94436,40.6911021333333,-70.5181506833333,162,306,1,"-","",5,"","",1,3,"H","","","","","","","","","","","","","","","","","","","","","","","","","","","","","",101.6,1500,100,"","","","","","","","","","","","","",0.0565023253
"X",7,27,2024,1370,94438,40.6902083,-70.5177642,162,306,1,"-","",5,"","",1,3,"H","","","","","","","","","","","","","","","","","","","","","","","","","","","","","",101.6,1500,100,"","","","","","","","","","","","","",0.0564768127
"X",7,27,2024,1371,94440,40.6893138833333,-70.51738035,162,306,1,"-","",5,"","",1,3,"H","","","","","","","","","","","","","","","","","","","","","","","","","","","","","",101.6,1500,100,"","","","","","","","","","","","","",0.0564729557
"X",7,27,2024,1372,94442,40.6884195666667,-70.5169984,162,305,1,"-","",5,"","",1,3,"H","","","","","","","","","","","","","","","","","","","","","","","","","","","","","",101.5,1500,100,"","","","","","","","","","","","","",0.0564406092
"X",7,27,2024,1373,94444,40.6875258666667,-70.51661705,162,305,1,"-","",5,"","",1,3,"H","","","","","","","","","","","","","","","","","","","","","","","","","","","","","",101.5,1500,100,"","","","","","","","","","","","","",0.0563970431
"X",7,27,2024,1374,94446,40.6866329833333,-70.5162338,162,305,1,"-","",5,"","",1,3,"H","","","","","","","","","","","","","","","","","","","","","","","","","","","","","",101.4,1500,100,"","","","","","","","","","","","","",0.056377177
"X",7,27,2024,1375,94448,40.68574165,-70.5158474333333,162,305,1,"-","",5,"","",1,3,"H","","","","","","","","","","","","","","","","","","","","","","","","","","","","","",101.3,1500,100,"","","","","","","","","","","","","",0.0563329106
"X",7,27,2024,1376,94450,40.6848521166667,-70.5154579833333,162,305,1,"-","",5,"","",1,3,"H","","","","","","","","","","","","","","","","","","","","","","","","","","","","","",101.3,1500,100,"","","","","","","","","","","","","",0.0562743993
"X",7,27,2024,1377,94452,40.6839638833333,-70.5150684,162,305,1,"-","",5,"","",1,3,"H","","","","","","","","","","","","","","","","","","","","","","","","","","","","","",101.1,1500,100,"","","","","","","","","","","","","",0.056202318
"X",7,27,2024,1378,94454,40.6830766166667,-70.5146801333333,162,305,1,"-","",5,"","",1,3,"H","","","","","","","","","","","","","","","","","","","","","","","","","","","","","",101,1500,100,"","","","","","","","","","","","","",0.0561284132
"X",7,27,2024,1379,94456,40.68219005,-70.5142939,162,305,1,"-","",5,"","",1,3,"H","","","","","","","","","","","","","","","","","","","","","","","","","","","","","",100.9,1500,100,"","","","","","","","","","","","","",0.0560594893
"X",7,27,2024,1380,94458,40.6813042,-70.5139101666667,162,305,1,"-","",5,"","",1,3,"H","","","","","","","","","","","","","","","","","","","","","","","","","","","","","",100.8,1500,100,"","","","","","","","","","","","","",0.0559830781
"X",7,27,2024,1381,94500,40.6804193166667,-70.51352655,162,305,1,"-","",5,"","",1,3,"H","","","","","","","","","","","","","","","","","","","","","","","","","","","","","",100.6,1500,100,"","","","","","","","","","","","","",0.0559263541
"X",7,27,2024,1382,94502,40.67953645,-70.5131403166667,162,305,1,"-","",5,"","",1,3,"H","","","","","","","","","","","","","","","","","","","","","","","","","","","","","",100.5,1500,100,"","","","","","","","","","","","","",0.0558488168
"X",7,27,2024,1383,94504,40.67865585,-70.5127502666667,161,304,1,"-","",5,"","",1,3,"H","","","","","","","","","","","","","","","","","","","","","","","","","","","","","",100.4,1500,100,"","","","","","","","","","","","","",0.0557748321
"X",7,27,2024,1384,94506,40.67777645,-70.5123583,161,304,1,"-","",5,"","",1,3,"H","","","","","","","","","","","","","","","","","","","","","","","","","","","","","",100.3,1500,100,"","","","","","","","","","","","","",0.055734499
"X",7,27,2024,1385,94508,40.6768985833333,-70.5119668166667,161,304,1,"-","",5,"","",1,3,"H","","","","","","","","","","","","","","","","","","","","","","","","","","","","","",100.2,1500,100,"","","","","","","","","","","","","",0.0556403132
"X",7,27,2024,1386,94510,40.6760207333333,-70.5115774833333,161,303,1,"-","",5,"","",1,3,"H","","","","","","","","","","","","","","","","","","","","","","","","","","","","","",100.1,1500,100,"","","","","","","","","","","","","",0.0556081521
"X",7,27,2024,1387,94512,40.67514395,-70.5111876666667,161,303,1,"-","",5,"","",1,3,"H","","","","","","","","","","","","","","","","","","","","","","","","","","","","","",100,1500,100,"","","","","","","","","","","","","",0.0555545571
"X",7,27,2024,1388,94514,40.67426895,-70.5107938,161,303,1,"-","",5,"","",1,3,"H","","","","","","","","","","","","","","","","","","","","","","","","","","","","","",99.9,1500,100,"","","","","","","","","","","","","",0.0555124912
"X",7,27,2024,1389,94516,40.6733961,-70.5103962333333,161,303,1,"-","",5,"","",1,3,"H","","","","","","","","","","","","","","","","","","","","","","","","","","","","","",99.8,1500,100,"","","","","","","","","","","","","",0.0554452034
"X",7,27,2024,1390,94518,40.6725252833333,-70.5099967666667,161,303,1,"-","",5,"","",1,3,"H","","","","","","","","","","","","","","","","","","","","","","","","","","","","","",99.6,1500,100,"","","","","","","","","","","","","",0.0553582743
"X",7,27,2024,1391,94520,40.6716552833333,-70.5095989666667,161,303,1,"-","",5,"","",1,3,"H","","","","","","","","","","","","","","","","","","","","","","","","","","","","","",99.5,1500,100,"","","","","","","","","","","","","",0.0552871305
"X",7,27,2024,1392,94522,40.6707863666667,-70.5092030666667,161,303,1,"-","",5,"","",1,3,"H","","","","","","","","","","","","","","","","","","","","","","","","","","","","","",99.3,1500,100,"","","","","","","","","","","","","",0.055197438
"X",7,27,2024,1393,94524,40.669919,-70.5088075333333,161,303,1,"-","",5,"","",1,3,"H","","","","","","","","","","","","","","","","","","","","","","","","","","","","","",99.2,1500,100,"","","","","","","","","","","","","",0.0551041041
"X",7,27,2024,1394,94526,40.6690536666667,-70.5084106833333,161,304,1,"-","",5,"","",1,3,"H","","","","","","","","","","","","","","","","","","","","","","","","","","","","","",99,1500,100,"","","","","","","","","","","","","",0.0550084894
"X",7,27,2024,1395,94528,40.6681896333333,-70.5080133666667,161,304,1,"-","",5,"","",1,3,"H","","","","","","","","","","","","","","","","","","","","","","","","","","","","","",98.9,1500,100,"","","","","","","","","","","","","",0.0549418478
"X",7,27,2024,1396,94530,40.6673266833333,-70.5076162666667,161,305,1,"-","",5,"","",1,3,"H","","","","","","","","","","","","","","","","","","","","","","","","","","","","","",98.7,1500,100,"","","","","","","","","","","","","",0.0548772614
"X",7,27,2024,1397,94532,40.6664639666667,-70.50722145,161,305,1,"-","",5,"","",1,3,"H","","","","","","","","","","","","","","","","","","","","","","","","","","","","","",98.6,1500,100,"","","","","","","","","","","","","",0.0548299235
"X",7,27,2024,1398,94534,40.665601,-70.50683175,161,305,1,"-","",5,"","",1,3,"H","","","","","","","","","","","","","","","","","","","","","","","","","","","","","",98.5,1500,100,"","","","","","","","","","","","","",0.0547682257
"X",7,27,2024,1399,94536,40.66473805,-70.5064454,161,305,1,"-","",5,"","",1,3,"H","","","","","","","","","","","","","","","","","","","","","","","","","","","","","",98.5,1500,100,"","","","","","","","","","","","","",0.0547181028
"X",7,27,2024,1400,94538,40.6638742666667,-70.5060601166667,161,305,1,"-","",5,"","",1,3,"H","","","","","","","","","","","","","","","","","","","","","","","","","","","","","",98.4,1500,100,"","","","","","","","","","","","","",0.054749966
"X",7,27,2024,1401,94540,40.6630121333333,-70.5056732833333,161,305,1,"-","",5,"","",1,3,"H","","","","","","","","","","","","","","","","","","","","","","","","","","","","","",98.4,1500,100,"","","","","","","","","","","","","",0.0546789115
"X",7,27,2024,1402,94542,40.6621509666667,-70.5052866833333,161,306,1,"-","",5,"","",1,3,"H","","","","","","","","","","","","","","","","","","","","","","","","","","","","","",98.3,1500,100,"","","","","","","","","","","","","",0.0546206176
"X",7,27,2024,1403,94544,40.6612901666667,-70.5049011666667,161,306,1,"-","",5,"","",1,3,"H","","","","","","","","","","","","","","","","","","","","","","","","","","","","","",98.2,1500,100,"","","","","","","","","","","","","",0.0545839602
"X",7,27,2024,1404,94544,40.6612901666667,-70.5049011666667,161,306,1,"-","",5,"","",1,3,"H","","","","","","","","","","","","","","","","","","","","","","","","","","","","","",98.2,1500,100,"","","","","","","","","","","","","",0
"X",7,27,2024,1405,94546,40.6604288666667,-70.5045179,161,306,1,"-","",5,"","",1,3,"H","","","","","","","","","","","","","","","","","","","","","","","","","","","","","",98.2,1500,100,"","","","","","","","","","","","","",0.0545795972
"X",7,27,2024,1406,94548,40.65956675,-70.5041378666667,162,306,1,"-","",5,"","",1,3,"H","","","","","","","","","","","","","","","","","","","","","","","","","","","","","",98.1,1500,100,"","","","","","","","","","","","","",0.0545792474
"X",7,27,2024,1407,94550,40.6587045166667,-70.5037597333333,162,307,1,"-","",5,"","",1,3,"H","","","","","","","","","","","","","","","","","","","","","","","","","","","","","",98.1,1500,100,"","","","","","","","","","","","","",0.0545585818
"X",7,27,2024,1408,94552,40.6578428666667,-70.5033829166667,162,307,1,"-","",5,"","",1,3,"H","","","","","","","","","","","","","","","","","","","","","","","","","","","","","",98.1,1500,100,"","","","","","","","","","","","","",0.0545065073
"X",7,27,2024,1409,94554,40.6569808666667,-70.5030066833333,162,307,1,"-","",5,"","",1,3,"H","","","","","","","","","","","","","","","","","","","","","","","","","","","","","",98.1,1500,100,"","","","","","","","","","","","","",0.0545181653
"X",7,27,2024,1410,94556,40.65611945,-70.5026298666667,162,307,1,"-","",5,"","",1,3,"H","","","","","","","","","","","","","","","","","","","","","","","","","","","","","",98,1500,100,"","","","","","","","","","","","","",0.0544933503
"X",7,27,2024,1411,94558,40.6552585333333,-70.5022526833333,162,308,1,"-","",5,"","",1,3,"H","","","","","","","","","","","","","","","","","","","","","","","","","","","","","",98,1500,100,"","","","","","","","","","","","","",0.0544701941
"X",7,27,2024,1412,94600,40.6543976,-70.50187575,162,308,1,"-","",5,"","",1,3,"H","","","","","","","","","","","","","","","","","","","","","","","","","","","","","",98,1500,100,"","","","","","","","","","","","","",0.054467623
"X",7,27,2024,1413,94602,40.6535358333333,-70.5015012,162,309,1,"-","",5,"","",1,3,"H","","","","","","","","","","","","","","","","","","","","","","","","","","","","","",98,1500,100,"","","","","","","","","","","","","",0.0544810845
"X",7,27,2024,1414,94604,40.652673,-70.5011293833333,162,309,1,"-","",5,"","",1,3,"H","","","","","","","","","","","","","","","","","","","","","","","","","","","","","",98,1500,100,"","","","","","","","","","","","","",0.0545031614
"X",7,27,2024,1415,94606,40.6518090833333,-70.50075995,162,310,1,"-","",5,"","",1,3,"H","","","","","","","","","","","","","","","","","","","","","","","","","","","","","",98.1,1500,100,"","","","","","","","","","","","","",0.0545314568
"X",7,27,2024,1416,94608,40.6509445833333,-70.5003916,162,310,1,"-","",5,"","",1,3,"H","","","","","","","","","","","","","","","","","","","","","","","","","","","","","",98.1,1500,100,"","","","","","","","","","","","","",0.05454964
"X",7,27,2024,1417,94610,40.6500788833333,-70.5000227666667,162,311,1,"-","",5,"","",1,3,"H","","","","","","","","","","","","","","","","","","","","","","","","","","","","","",98.2,1500,100,"","","","","","","","","","","","","",0.0546250348
"X",7,27,2024,1418,94612,40.64921355,-70.4996520166667,162,311,1,"-","",5,"","",1,3,"H","","","","","","","","","","","","","","","","","","","","","","","","","","","","","",98.3,1500,100,"","","","","","","","","","","","","",0.0546310828
"X",7,27,2024,1419,94614,40.6483470166667,-70.4992790166667,162,311,1,"-","",5,"","",1,3,"H","","","","","","","","","","","","","","","","","","","","","","","","","","","","","",98.4,1500,100,"","","","","","","","","","","","","",0.0547314077
"X",7,27,2024,1420,94616,40.6474794,-70.4989045833333,162,311,1,"-","",5,"","",1,3,"H","","","","","","","","","","","","","","","","","","","","","","","","","","","","","",98.5,1500,100,"","","","","","","","","","","","","",0.0548135932
"X",7,27,2024,1421,94618,40.6466101333333,-70.4985300166667,162,311,1,"-","",5,"","",1,3,"H","","","","","","","","","","","","","","","","","","","","","","","","","","","","","",98.7,1500,100,"","","","","","","","","","","","","",0.0549097061
"X",7,27,2024,1422,94620,40.64573955,-70.4981557,162,311,1,"-","",5,"","",1,3,"H","","","","","","","","","","","","","","","","","","","","","","","","","","","","","",98.8,1500,100,"","","","","","","","","","","","","",0.0549813867
"X",7,27,2024,1423,94622,40.6448675333333,-70.4977822166667,162,310,1,"-","",5,"","",1,3,"H","","","","","","","","","","","","","","","","","","","","","","","","","","","","","",99,1500,100,"","","","","","","","","","","","","",0.0550515316
"X",7,27,2024,1424,94624,40.64399445,-70.49741005,162,310,1,"-","",5,"","",1,3,"H","","","","","","","","","","","","","","","","","","","","","","","","","","","","","",99.1,1500,100,"","","","","","","","","","","","","",0.0550940228
"X",7,27,2024,1425,94626,40.6431195666667,-70.4970378833333,162,310,1,"-","",5,"","",1,3,"H","","","","","","","","","","","","","","","","","","","","","","","","","","","","","",99.2,1500,100,"","","","","","","","","","","","","",0.055196929
"X",7,27,2024,1426,94628,40.6422433833333,-70.4966651166667,162,310,1,"-","",5,"","",1,3,"H","","","","","","","","","","","","","","","","","","","","","","","","","","","","","",99.4,1500,100,"","","","","","","","","","","","","",0.0552796729
"X",7,27,2024,1427,94630,40.64136575,-70.4962906833333,162,310,1,"-","",5,"","",1,3,"H","","","","","","","","","","","","","","","","","","","","","","","","","","","","","",99.5,1500,100,"","","","","","","","","","","","","",0.0553859357
"X",7,27,2024,1428,94632,40.64048695,-70.49591385,162,310,1,"-","",5,"","",1,3,"H","","","","","","","","","","","","","","","","","","","","","","","","","","","","","",99.6,1500,100,"","","","","","","","","","","","","",0.0554863852
"X",7,27,2024,1429,94634,40.6396085,-70.4955348833333,162,310,1,"-","",5,"","",1,3,"H","","","","","","","","","","","","","","","","","","","","","","","","","","","","","",99.8,1500,100,"","","","","","","","","","","","","",0.0554966338
"X",7,27,2024,1430,94636,40.6387289666667,-70.4951564,162,310,1,"-","",5,"","",1,3,"H","","","","","","","","","","","","","","","","","","","","","","","","","","","","","",99.9,1500,100,"","","","","","","","","","","","","",0.0555516846
"X",7,27,2024,1431,94638,40.6378475333333,-70.4947799333333,162,309,1,"-","",5,"","",1,3,"H","","","","","","","","","","","","","","","","","","","","","","","","","","","","","",100,1500,100,"","","","","","","","","","","","","",0.0556318111
"X",7,27,2024,1432,94640,40.6369634833333,-70.4944078833333,162,309,1,"-","",5,"","",1,3,"H","","","","","","","","","","","","","","","","","","","","","","","","","","","","","",100.2,1500,100,"","","","","","","","","","","","","",0.0557198064
"X",7,27,2024,1433,94642,40.6360775166667,-70.4940387,162,309,1,"-","",5,"","",1,3,"H","","","","","","","","","","","","","","","","","","","","","","","","","","","","","",100.3,1500,100,"","","","","","","","","","","","","",0.0557899903
"X",7,27,2024,1434,94644,40.6351904833333,-70.49366915,162,309,1,"-","",5,"","",1,3,"H","","","","","","","","","","","","","","","","","","","","","","","","","","","","","",100.4,1500,100,"","","","","","","","","","","","","",0.0558561577
"X",7,27,2024,1435,94644,40.6351904833333,-70.49366915,162,309,1,"-","",5,"","",1,3,"H","","","","","","","","","","","","","","","","","","","","","","","","","","","","","",100.4,1500,100,"","","","","","","","","","","","","",0
"X",7,27,2024,1436,94646,40.63430415,-70.49329555,162,309,1,"-","",5,"","",1,3,"H","","","","","","","","","","","","","","","","","","","","","","","","","","","","","",100.5,1500,100,"","","","","","","","","","","","","",0.0558720974
"X",7,27,2024,1437,94648,40.6334174833333,-70.49291765,162,308,1,"-","",5,"","",1,3,"H","","","","","","","","","","","","","","","","","","","","","","","","","","","","","",100.5,1500,100,"","","","","","","","","","","","","",0.0559512122
"X",7,27,2024,1438,94650,40.6325310333333,-70.4925395166667,162,309,1,"-","",5,"","",1,3,"H","","","","","","","","","","","","","","","","","","","","","","","","","","","","","",100.6,1500,100,"","","","","","","","","","","","","",0.0559421787
"X",7,27,2024,1439,94652,40.63164245,-70.4921650833333,162,308,1,"-","",5,"","",1,3,"H","","","","","","","","","","","","","","","","","","","","","","","","","","","","","",100.7,1500,100,"","","","","","","","","","","","","",0.0560125413
"X",7,27,2024,1440,94654,40.6307513666667,-70.4917942166667,162,308,1,"-","",5,"","",1,3,"H","","","","","","","","","","","","","","","","","","","","","","","","","","","","","",100.8,1500,100,"","","","","","","","","","","","","",0.0561064348
"X",7,27,2024,1441,94656,40.6298598,-70.4914233666667,162,307,1,"-","",5,"","",1,3,"H","","","","","","","","","","","","","","","","","","","","","","","","","","","","","",100.9,1500,100,"","","","","","","","","","","","","",0.0561339468
"X",7,27,2024,1442,94658,40.62896835,-70.4910492833333,162,307,1,"-","",5,"","",1,3,"H","","","","","","","","","","","","","","","","","","","","","","","","","","","","","",101,1500,100,"","","","","","","","","","","","","",0.0561718689
"X",7,27,2024,1443,94700,40.6280767833333,-70.4906710333333,162,306,1,"-","",5,"","",1,3,"H","","","","","","","","","","","","","","","","","","","","","","","","","","","","","",101.1,1500,100,"","","","","","","","","","","","","",0.0562365133
"X",7,27,2024,1444,94702,40.6271849833333,-70.4902908666667,162,306,1,"-","",5,"","",1,3,"H","","","","","","","","","","","","","","","","","","","","","","","","","","","","","",101.1,1500,100,"","","","","","","","","","","","","",0.0562767431
"X",7,27,2024,1445,94704,40.6262927,-70.4899135666667,162,305,1,"-","",5,"","",1,3,"H","","","","","","","","","","","","","","","","","","","","","","","","","","","","","",101.2,1500,100,"","","","","","","","","","","","","",0.0562643704
"X",7,27,2024,1446,94706,40.6253988666667,-70.4895405666667,162,305,1,"-","",5,"","",1,3,"H","","","","","","","","","","","","","","","","","","","","","","","","","","","","","",101.2,1500,100,"","","","","","","","","","","","","",0.0562935844
"X",7,27,2024,1447,94708,40.6244856,-70.4892083333333,162,305,1,"-","",5,"","",1,3,"H","","","","","","","","","","","","","","","","","","","","","","","","","","","","","",101.2,1500,100,"","","","","","","","","","","","","",0.0568846885
"X",7,27,2024,1448,94710,40.6235667333333,-70.48884665,162,305,1,"-","",5,"","",1,3,"H","","","","","","","","","","","","","","","","","","","","","","","","","","","","","",101.2,1500,100,"","","","","","","","","","","","","",0.0575786282
"X",7,27,2024,1449,94712,40.62267255,-70.4884717333333,162,305,1,"-","",5,"","",1,3,"H","","","","","","","","","","","","","","","","","","","","","","","","","","","","","",101.1,1500,100,"","","","","","","","","","","","","",0.0563402537
"X",7,27,2024,1450,94714,40.6217815833333,-70.4880914666667,162,305,1,"-","",5,"","",1,3,"H","","","","","","","","","","","","","","","","","","","","","","","","","","","","","",101.1,1500,100,"","","","","","","","","","","","","",0.0562309771
"X",7,27,2024,1451,94716,40.6208913166667,-70.4877167833333,162,304,1,"-","",5,"","",1,3,"H","","","","","","","","","","","","","","","","","","","","","","","","","","","","","",101,1500,100,"","","","","","","","","","","","","",0.0561131164
"X",7,27,2024,1452,94718,40.6200020166667,-70.4873450833333,162,304,1,"-","",5,"","",1,3,"H","","","","","","","","","","","","","","","","","","","","","","","","","","","","","",101,1500,100,"","","","","","","","","","","","","",0.0560166377
"X",7,27,2024,1453,94720,40.6191112833333,-70.4869741166667,162,304,1,"-","",5,"","",1,3,"H","","","","","","","","","","","","","","","","","","","","","","","","","","","","","",100.9,1500,100,"","","","","","","","","","","","","",0.0560886579
"X",7,27,2024,1454,94722,40.6182239,-70.4866000333333,162,304,1,"-","",5,"","",1,3,"H","","","","","","","","","","","","","","","","","","","","","","","","","","","","","",100.9,1500,100,"","","","","","","","","","","","","",0.0559401029
"X",7,27,2024,1455,94724,40.6173357833333,-70.4862213,162,304,1,"-","",5,"","",1,3,"H","","","","","","","","","","","","","","","","","","","","","","","","","","","","","",100.7,1500,100,"","","","","","","","","","","","","",0.0560470112
"X",7,27,2024,1456,94726,40.6164504166667,-70.4858429333333,162,304,1,"-","",5,"","",1,3,"H","","","","","","","","","","","","","","","","","","","","","","","","","","","","","",100.6,1500,100,"","","","","","","","","","","","","",0.0558848601
"X",7,27,2024,1457,94728,40.6155652833333,-70.4854667166667,162,304,1,"-","",5,"","",1,3,"H","","","","","","","","","","","","","","","","","","","","","","","","","","","","","",100.5,1500,100,"","","","","","","","","","","","","",0.0558414391
"X",7,27,2024,1458,94730,40.6146804,-70.4850925166667,162,304,1,"-","",5,"","",1,3,"H","","","","","","","","","","","","","","","","","","","","","","","","","","","","","",100.4,1500,100,"","","","","","","","","","","","","",0.0557990626
"X",7,27,2024,1459,94732,40.6137975333333,-70.4847196333333,162,304,1,"-","",5,"","",1,3,"H","","","","","","","","","","","","","","","","","","","","","","","","","","","","","",100.2,1500,100,"","","","","","","","","","","","","",0.055665506
"X",7,27,2024,1460,94734,40.6129153833333,-70.4843462666667,162,304,1,"-","",5,"","",1,3,"H","","","","","","","","","","","","","","","","","","","","","","","","","","","","","",100.1,1500,100,"","","","","","","","","","","","","",0.0556313362
"X",7,27,2024,1461,94736,40.6120352666667,-70.48397195,162,304,1,"-","",5,"","",1,3,"H","","","","","","","","","","","","","","","","","","","","","","","","","","","","","",100,1500,100,"","","","","","","","","","","","","",0.0555284755
"X",7,27,2024,1462,94738,40.6111568166667,-70.483595,162,304,1,"-","",5,"","",1,3,"H","","","","","","","","","","","","","","","","","","","","","","","","","","","","","",99.8,1500,100,"","","","","","","","","","","","","",0.0554703841
"X",7,27,2024,1463,94740,40.61027895,-70.48321675,162,304,1,"-","",5,"","",1,3,"H","","","","","","","","","","","","","","","","","","","","","","","","","","","","","",99.7,1500,100,"","","","","","","","","","","","","",0.0554555466
"X",7,27,2024,1464,94742,40.6094025333333,-70.4828377833333,162,304,1,"-","",5,"","",1,3,"H","","","","","","","","","","","","","","","","","","","","","","","","","","","","","",99.6,1500,100,"","","","","","","","","","","","","",0.0553830585
"X",7,27,2024,1465,94744,40.6085281333333,-70.4824595333333,162,305,1,"-","",5,"","",1,3,"H","","","","","","","","","","","","","","","","","","","","","","","","","","","","","",99.5,1500,100,"","","","","","","","","","","","","",0.0552578994
"X",7,27,2024,1466,94746,40.6076533666667,-70.4820828333334,162,305,1,"-","",5,"","",1,3,"H","","","","","","","","","","","","","","","","","","","","","","","","","","","","","",99.4,1500,100,"","","","","","","","","","","","","",0.0552568911
"X",7,27,2024,1467,94748,40.60677635,-70.4817095833333,162,304,1,"-","",5,"","",1,3,"H","","","","","","","","","","","","","","","","","","","","","","","","","","","","","",99.3,1500,100,"","","","","","","","","","","","","",0.0553368283
"X",7,27,2024,1468,94750,40.6059021833333,-70.4813386166667,162,305,1,"-","",5,"","",1,3,"H","","","","","","","","","","","","","","","","","","","","","","","","","","","","","",99.2,1500,100,"","","","","","","","","","","","","",0.0551420893
"X",7,27,2024,1469,94752,40.6050285,-70.4809676333333,162,305,1,"-","",5,"","",1,3,"H","","","","","","","","","","","","","","","","","","","","","","","","","","","","","",99.1,1500,100,"","","","","","","","","","","","","",0.0551147696
"X",7,27,2024,1470,94754,40.6041566,-70.4805952166667,162,305,1,"-","",5,"","",1,3,"H","","","","","","","","","","","","","","","","","","","","","","","","","","","","","",99.1,1500,100,"","","","","","","","","","","","","",0.0550330592
"X",7,27,2024,1471,94756,40.6032854166667,-70.48022245,162,305,1,"-","",5,"","",1,3,"H","","","","","","","","","","","","","","","","","","","","","","","","","","","","","",98.9,1500,100,"","","","","","","","","","","","","",0.0549971259
"X",7,27,2024,1472,94758,40.60241495,-70.4798481333333,162,305,1,"-","",5,"","",1,3,"H","","","","","","","","","","","","","","","","","","","","","","","","","","","","","",98.8,1500,100,"","","","","","","","","","","","","",0.0549781606
"X",7,27,2024,1473,94800,40.6015474666667,-70.47947335,162,305,1,"-","",5,"","",1,3,"H","","","","","","","","","","","","","","","","","","","","","","","","","","","","","",98.7,1500,100,"","","","","","","","","","","","","",0.0548146093
"X",7,27,2024,1474,94802,40.6006798666667,-70.4790972333333,162,304,1,"-","",5,"","",1,3,"H","","","","","","","","","","","","","","","","","","","","","","","","","","","","","",98.6,1500,100,"","","","","","","","","","","","","",0.0548403071
"X",7,27,2024,1475,94804,40.59981285,-70.4787197,162,304,1,"-","",5,"","",1,3,"H","","","","","","","","","","","","","","","","","","","","","","","","","","","","","",98.6,1500,100,"","","","","","","","","","","","","",0.054827348
"X",7,27,2024,1476,94806,40.5989494166667,-70.4783338166667,161,304,1,"-","",5,"","",1,3,"H","","","","","","","","","","","","","","","","","","","","","","","","","","","","","",98.5,1500,100,"","","","","","","","","","","","","",0.0547443191
"X",7,27,2024,1477,94808,40.5980877833333,-70.47794425,161,304,1,"-","",5,"","",1,3,"H","","","","","","","","","","","","","","","","","","","","","","","","","","","","","",98.4,1500,100,"","","","","","","","","","","","","",0.0546963525
"X",7,27,2024,1478,94810,40.5972266166667,-70.4775578833333,161,305,1,"-","",5,"","",1,3,"H","","","","","","","","","","","","","","","","","","","","","","","","","","","","","",98.3,1500,100,"","","","","","","","","","","","","",0.05462271
"X",7,27,2024,1479,94812,40.5963646166667,-70.4771746333333,161,305,1,"-","",5,"","",1,3,"H","","","","","","","","","","","","","","","","","","","","","","","","","","","","","",98.3,1500,100,"","","","","","","","","","","","","",0.0546245334
"X",7,27,2024,1480,94814,40.59550285,-70.4767915,161,305,1,"-","",5,"","",1,3,"H","","","","","","","","","","","","","","","","","","","","","","","","","","","","","",98.2,1500,100,"","","","","","","","","","","","","",0.0546096308
"X",7,27,2024,1481,94814,40.59550285,-70.4767915,161,305,1,"-","",5,"","",1,3,"H","","","","","","","","","","","","","","","","","","","","","","","","","","","","","",98.2,1500,100,"","","","","","","","","","","","","",0
"X",7,27,2024,1482,94816,40.5946422666667,-70.4764049,161,305,1,"-","",5,"","",1,3,"H","","","","","","","","","","","","","","","","","","","","","","","","","","","","","",98.2,1500,100,"","","","","","","","","","","","","",0.0545932117
"X",7,27,2024,1483,94818,40.5937839666667,-70.4760144833333,161,305,1,"-","",5,"","",1,3,"H","","","","","","","","","","","","","","","","","","","","","","","","","","","","","",98.2,1500,100,"","","","","","","","","","","","","",0.0545201118
"X",7,27,2024,1484,94820,40.5929232833333,-70.4756227666667,161,305,1,"-","",5,"","",1,3,"H","","","","","","","","","","","","","","","","","","","","","","","","","","","","","",98.2,1500,100,"","","","","","","","","","","","","",0.0546747928
"X",7,27,2024,1485,94822,40.5920631833333,-70.4752330666667,161,305,1,"-","",5,"","",1,3,"H","","","","","","","","","","","","","","","","","","","","","","","","","","","","","",98.1,1500,100,"","","","","","","","","","","","","",0.0546117846
"X",7,27,2024,1486,94824,40.5912033166667,-70.4748464666667,161,306,1,"-","",5,"","",1,3,"H","","","","","","","","","","","","","","","","","","","","","","","","","","","","","",98.1,1500,100,"","","","","","","","","","","","","",0.0545527815
"X",7,27,2024,1487,94826,40.5903429833333,-70.4744613166667,161,306,1,"-","",5,"","",1,3,"H","","","","","","","","","","","","","","","","","","","","","","","","","","","","","",98.1,1500,100,"","","","","","","","","","","","","",0.0545580572
"X",7,27,2024,1488,94828,40.5894848,-70.47407305,161,306,1,"-","",5,"","",1,3,"H","","","","","","","","","","","","","","","","","","","","","","","","","","","","","",98,1500,100,"","","","","","","","","","","","","",0.0544819344
"X",7,27,2024,1489,94830,40.5886279333333,-70.4736816833333,161,307,1,"-","",5,"","",1,3,"H","","","","","","","","","","","","","","","","","","","","","","","","","","","","","",98,1500,100,"","","","","","","","","","","","","",0.0544534041
"X",7,27,2024,1490,94832,40.58777225,-70.4732878166667,161,307,1,"-","",5,"","",1,3,"H","","","","","","","","","","","","","","","","","","","","","","","","","","","","","",97.9,1500,100,"","","","","","","","","","","","","",0.0544238655
"X",7,27,2024,1491,94834,40.5869168,-70.4728937,161,308,1,"-","",5,"","",1,3,"H","","","","","","","","","","","","","","","","","","","","","","","","","","","","","",97.9,1500,100,"","","","","","","","","","","","","",0.0544144801
"X",7,27,2024,1492,94836,40.5860599166667,-70.4725027,161,308,1,"-","",5,"","",1,3,"H","","","","","","","","","","","","","","","","","","","","","","","","","","","","","",97.9,1500,100,"","","","","","","","","","","","","",0.0544490976
"X",7,27,2024,1493,94838,40.58520125,-70.4721148,161,308,1,"-","",5,"","",1,3,"H","","","","","","","","","","","","","","","","","","","","","","","","","","","","","",97.9,1500,100,"","","","","","","","","","","","","",0.0545043207
"X",7,27,2024,1494,94840,40.5843433,-70.4717279666667,161,308,1,"-","",5,"","",1,3,"H","","","","","","","","","","","","","","","","","","","","","","","","","","","","","",98,1500,100,"","","","","","","","","","","","","",0.0544479202
"X",7,27,2024,1495,94842,40.58348535,-70.4713392166667,161,309,1,"-","",5,"","",1,3,"H","","","","","","","","","","","","","","","","","","","","","","","","","","","","","",98,1500,100,"","","","","","","","","","","","","",0.0544763688
"X",7,27,2024,1496,94844,40.5826274,-70.4709496333333,161,309,1,"-","",5,"","",1,3,"H","","","","","","","","","","","","","","","","","","","","","","","","","","","","","",98,1500,100,"","","","","","","","","","","","","",0.0544888193
"X",7,27,2024,1497,94844,40.5826274,-70.4709496333333,161,309,1,"-","",5,"","",1,3,"H","","","","","","","","","","","","","","","","","","","","","","","","","","","","","",98,1500,100,"","","","","","","","","","","","","",0
"X",7,27,2024,1498,94846,40.5817680333333,-70.4705595833333,161,309,1,"-","",5,"","",1,3,"H","","","","","","","","","","","","","","","","","","","","","","","","","","","","","",98.1,1500,100,"","","","","","","","","","","","","",0.0545762418
"X",7,27,2024,1499,94848,40.5809087666667,-70.47016715,161,310,1,"-","",5,"","",1,3,"H","","","","","","","","","","","","","","","","","","","","","","","","","","","","","",98.2,1500,100,"","","","","","","","","","","","","",0.0546061584
