"rectype","month","day","year","eventno","time","lat","long","heading","alt","legtype","legstage","legno","visiblty","glarel","glarer","beaufort","cloud","wx","sightno","anglel","angler","speccode","number","numcalf","anhead","photos","idrel","confidnc","b1","b2","b3","b4","b5","b6","b7","b8","b9","b10","b11","b12","b13","b14","b15","refno","stratum","utc","radalt","gpsspeed","setalt","setvel","lensfl","ggf","int","gpsq","gpssats","roll","pitch","yaw","maghead","notes","edits","glarev","ph_qual","TrackDist"
"S",5,20,2024,2734,125437,42.9757226561358,-70.7042376747466,25,317,1,"-","",4,"","",2,1,"P","1","","","","","","","","","","","","","","","","","","","","","","","","","","","","",98.5,1000,100,"","","","","","","","","","","ON WATCH, BEGIN SURVEY - ","","",0.0481164693
"X",5,20,2024,2735,125438,42.9762383333333,-70.7039166666667,24,317,1,"-","",4,"","",2,1,"P","","","","","","","","","","","","","","","","","","","","","","","","","","","","","",98.7,1000,100,"","","","","","","","","","","","","",0.0821379178
"X",5,20,2024,2736,125440,42.9770716666667,-70.70341,24,316,1,"-","",4,"","",2,1,"P","","","","","","","","","","","","","","","","","","","","","","","","","","","","","",98.5,1000,100,"","","","","","","","","","","","","",0.0547606483
"X",5,20,2024,2737,125442,42.9779066666667,-70.7029016666667,24,315,1,"-","",4,"","",2,1,"P","","","","","","","","","","","","","","","","","","","","","","","","","","","","","",98.9,1000,100,"","","","","","","","","","","","","",0.054881717
"X",5,20,2024,2738,125444,42.978745,-70.702385,24,315,1,"-","",4,"","",2,1,"P","","","","","","","","","","","","","","","","","","","","","","","","","","","","","",99.5,1000,100,"","","","","","","","","","","","","",0.0552139266
"X",5,20,2024,2739,125446,42.9791666666667,-70.702125,24,315,1,"-","",4,"","",2,1,"P","","","","","","","","","","","","","","","","","","","","","","","","","","","","","",99.9,1000,100,"","","","","","","","","","","","","",0.0277738429
"X",5,20,2024,2740,125448,42.9804283333333,-70.7013216666667,25,314,1,"-","",4,"","",2,1,"P","","","","","","","","","","","","","","","","","","","","","","","","","","","","","",100.2,1000,100,"","","","","","","","","","","","","",0.0835665347
"X",5,20,2024,2741,125450,42.9812666666667,-70.7007683333333,26,314,1,"-","",4,"","",2,1,"P","","","","","","","","","","","","","","","","","","","","","","","","","","","","","",100.6,1000,100,"","","","","","","","","","","","","",0.0558948184
"X",5,20,2024,2742,125452,42.9821066666667,-70.7002083333333,26,314,1,"-","",4,"","",2,1,"P","","","","","","","","","","","","","","","","","","","","","","","","","","","","","",100.7,1000,100,"","","","","","","","","","","","","",0.0561125471
"X",5,20,2024,2743,125454,42.982945,-70.6996416666667,26,315,1,"-","",4,"","",2,1,"P","","","","","","","","","","","","","","","","","","","","","","","","","","","","","",100.6,1000,100,"","","","","","","","","","","","","",0.056151658
"X",5,20,2024,2744,125456,42.9833633333333,-70.699355,27,315,1,"-","",4,"","",2,1,"P","","","","","","","","","","","","","","","","","","","","","","","","","","","","","",101.3,1000,100,"","","","","","","","","","","","","",0.0280962387
"X",5,20,2024,2745,125458,42.9846183333333,-70.6984766666667,27,314,1,"-","",4,"","",2,1,"P","","","","","","","","","","","","","","","","","","","","","","","","","","","","","",101.6,1000,100,"","","","","","","","","","","","","",0.0846524083
"X",5,20,2024,2746,125500,42.9854533333333,-70.6978816666667,28,314,1,"-","",4,"","",2,1,"P","","","","","","","","","","","","","","","","","","","","","","","","","","","","","",101.5,1000,100,"","","","","","","","","","","","","",0.0565362287
"X",5,20,2024,2747,125502,42.986285,-70.6972716666667,28,313,1,"-","",4,"","",2,1,"P","","","","","","","","","","","","","","","","","","","","","","","","","","","","","",101.5,1000,100,"","","","","","","","","","","","","",0.0566671613
"X",5,20,2024,2748,125504,42.9871133333333,-70.6966466666667,29,313,1,"-","",4,"","",2,1,"P","","","","","","","","","","","","","","","","","","","","","","","","","","","","","",102.3,1000,100,"","","","","","","","","","","","","",0.0568061223
"X",5,20,2024,2749,125506,42.9875283333333,-70.6963316666667,29,314,1,"-","",4,"","",2,1,"P","","","","","","","","","","","","","","","","","","","","","","","","","","","","","",102.1,1000,100,"","","","","","","","","","","","","",0.0284999469
"X",5,20,2024,2750,125506,42.9875283333333,-70.6963316666667,29,314,1,"-","",4,"","",2,1,"P","","","","","","","","","","","","","","","","","","","","","","","","","","","","","",102.1,1000,100,"","","","","","","","","","","","","",0
"X",5,20,2024,2751,125508,42.9887666666667,-70.69538,29,314,1,"-","",4,"","",2,1,"P","","","","","","","","","","","","","","","","","","","","","","","","","","","","","",102.3,1000,100,"","","","","","","","","","","","","",0.085292942
"X",5,20,2024,2752,125510,42.98959,-70.6947416666667,30,315,1,"-","",4,"","",2,1,"P","","","","","","","","","","","","","","","","","","","","","","","","","","","","","",102.1,1000,100,"","","","","","","","","","","","","",0.0568295245
"X",5,20,2024,2753,125512,42.9904116666667,-70.6941016666667,30,315,1,"-","",4,"","",2,1,"P","","","","","","","","","","","","","","","","","","","","","","","","","","","","","",102.1,1000,100,"","","","","","","","","","","","","",0.0567785161
"X",5,20,2024,2754,125514,42.99123,-70.6934566666667,30,315,1,"-","",4,"","",2,1,"P","","","","","","","","","","","","","","","","","","","","","","","","","","","","","",102,1000,100,"","","","","","","","","","","","","",0.0567138818
"X",5,20,2024,2755,125516,42.99164,-70.693135,30,315,1,"-","",4,"","",2,1,"P","","","","","","","","","","","","","","","","","","","","","","","","","","","","","",102.2,1000,100,"","","","","","","","","","","","","",0.0283819937
"X",5,20,2024,2756,125518,42.99287,-70.6921616666667,30,314,1,"-","",4,"","",2,1,"P","","","","","","","","","","","","","","","","","","","","","","","","","","","","","",102.8,1000,100,"","","","","","","","","","","","","",0.0853284429
"X",5,20,2024,2757,125520,42.9936933333333,-70.6915066666667,30,314,1,"-","",4,"","",2,1,"P","","","","","","","","","","","","","","","","","","","","","","","","","","","","","",102.8,1000,100,"","","","","","","","","","","","","",0.057193195
"X",5,20,2024,2758,125522,42.99452,-70.6908483333333,30,313,1,"-","",4,"","",2,1,"P","","","","","","","","","","","","","","","","","","","","","","","","","","","","","",103.2,1000,100,"","","","","","","","","","","","","",0.0574396093
"X",5,20,2024,2759,125524,42.9953433333333,-70.690185,31,313,1,"-","",4,"","",2,1,"P","","","","","","","","","","","","","","","","","","","","","","","","","","","","","",103.4,1000,100,"","","","","","","","","","","","","",0.0573777273
"X",5,20,2024,2760,125526,42.9957533333333,-70.689855,31,314,1,"-","",4,"","",2,1,"P","","","","","","","","","","","","","","","","","","","","","","","","","","","","","",102.8,1000,100,"","","","","","","","","","","","","",0.0285654223
"X",5,20,2024,2761,125528,42.99698,-70.68886,31,315,1,"-","",4,"","",2,1,"P","","","","","","","","","","","","","","","","","","","","","","","","","","","","","",102.8,1000,100,"","","","","","","","","","","","","",0.0856353857
"X",5,20,2024,2762,125530,42.9977983333333,-70.688205,30,317,1,"-","",4,"","",2,1,"P","","","","","","","","","","","","","","","","","","","","","","","","","","","","","",102.4,1000,100,"","","","","","","","","","","","","",0.0569329525
"X",5,20,2024,2763,125532,42.9986133333333,-70.68756,30,319,1,"-","",4,"","",2,1,"P","","","","","","","","","","","","","","","","","","","","","","","","","","","","","",101.9,1000,100,"","","","","","","","","","","","","",0.0565388815
"X",5,20,2024,2764,125534,42.9994333333333,-70.68693,29,320,1,"-","",4,"","",2,1,"P","","","","","","","","","","","","","","","","","","","","","","","","","","","","","",101.4,1000,100,"","","","","","","","","","","","","",0.0564731463
"X",5,20,2024,2765,125536,42.9998466666667,-70.6866216666667,29,321,1,"-","",4,"","",2,1,"P","","","","","","","","","","","","","","","","","","","","","","","","","","","","","",101.4,1000,100,"","","","","","","","","","","","","",0.0282697875
"X",5,20,2024,2766,125538,43.00109,-70.6857233333333,28,321,1,"-","",4,"","",2,1,"P","","","","","","","","","","","","","","","","","","","","","","","","","","","","","",101.2,1000,100,"","","","","","","","","","","","","",0.0844314736
"X",5,20,2024,2767,125540,43.0019283333333,-70.6851383333333,27,321,1,"-","",4,"","",2,1,"P","","","","","","","","","","","","","","","","","","","","","","","","","","","","","",101.7,1000,100,"","","","","","","","","","","","","",0.0565096014
"X",5,20,2024,2768,125542,43.00277,-70.6845566666667,27,320,1,"-","",4,"","",2,1,"P","","","","","","","","","","","","","","","","","","","","","","","","","","","","","",102,1000,100,"","","","","","","","","","","","","",0.056621607
"X",5,20,2024,2769,125544,43.0036133333333,-70.6839783333333,27,320,1,"-","",4,"","",2,1,"P","","","","","","","","","","","","","","","","","","","","","","","","","","","","","",102,1000,100,"","","","","","","","","","","","","",0.0566450118
"X",5,20,2024,2770,125546,43.0040366666667,-70.6836883333333,27,320,1,"-","",4,"","",2,1,"P","","","","","","","","","","","","","","","","","","","","","","","","","","","","","",102.5,1000,100,"","","","","","","","","","","","","",0.0284283018
"X",5,20,2024,2771,125548,43.00531,-70.682815,27,319,1,"-","",4,"","",2,1,"P","","","","","","","","","","","","","","","","","","","","","","","","","","","","","",102.7,1000,100,"","","","","","","","","","","","","",0.0855291705
"X",5,20,2024,2772,125550,43.0061583333333,-70.6822283333333,27,319,1,"-","",4,"","",2,1,"P","","","","","","","","","","","","","","","","","","","","","","","","","","","","","",102.7,1000,100,"","","","","","","","","","","","","",0.0570772352
"X",5,20,2024,2773,125552,43.0070083333333,-70.6816383333333,27,318,1,"-","",4,"","",2,1,"P","","","","","","","","","","","","","","","","","","","","","","","","","","","","","",102.8,1000,100,"","","","","","","","","","","","","",0.0572324841
"X",5,20,2024,2774,125554,43.0078633333333,-70.6810466666667,27,317,1,"-","",4,"","",2,1,"P","","","","","","","","","","","","","","","","","","","","","","","","","","","","","",103.7,1000,100,"","","","","","","","","","","","","",0.0575331773
"X",5,20,2024,2775,125556,43.0082933333333,-70.6807483333333,27,317,1,"-","",4,"","",2,1,"P","","","","","","","","","","","","","","","","","","","","","","","","","","","","","",104,1000,100,"","","","","","","","","","","","","",0.0289500323
"X",5,20,2024,2776,125558,43.00958,-70.6798466666667,27,316,1,"-","",4,"","",2,1,"P","","","","","","","","","","","","","","","","","","","","","","","","","","","","","",104.2,1000,100,"","","","","","","","","","","","","",0.0868045092
"X",5,20,2024,2777,125600,43.010435,-70.6792316666667,28,315,1,"-","",4,"","",2,1,"P","","","","","","","","","","","","","","","","","","","","","","","","","","","","","",104.2,1000,100,"","","","","","","","","","","","","",0.0580024198
"X",5,20,2024,2778,125602,43.0112883333333,-70.6786033333333,28,316,1,"-","",4,"","",2,1,"P","","","","","","","","","","","","","","","","","","","","","","","","","","","","","",104.8,1000,100,"","","","","","","","","","","","","",0.0581889155
"X",5,20,2024,2779,125604,43.0121416666667,-70.6779766666667,28,316,1,"-","",4,"","",2,1,"P","","","","","","","","","","","","","","","","","","","","","","","","","","","","","",104.3,1000,100,"","","","","","","","","","","","","",0.0581540817
"X",5,20,2024,2780,125606,43.012565,-70.67766,29,316,1,"-","",4,"","",2,1,"P","","","","","","","","","","","","","","","","","","","","","","","","","","","","","",104.5,1000,100,"","","","","","","","","","","","","",0.0289707459
"X",5,20,2024,2781,125606,43.012565,-70.67766,29,316,1,"-","",4,"","",2,1,"P","","","","","","","","","","","","","","","","","","","","","","","","","","","","","",104.5,1000,100,"","","","","","","","","","","","","",0
"X",5,20,2024,2782,125608,43.0138316666667,-70.6766983333333,29,317,1,"-","",4,"","",2,1,"P","","","","","","","","","","","","","","","","","","","","","","","","","","","","","",104.1,1000,100,"","","","","","","","","","","","","",0.086983866
"X",5,20,2024,2783,125610,43.0146716666667,-70.6760483333333,30,318,1,"-","",4,"","",2,1,"P","","","","","","","","","","","","","","","","","","","","","","","","","","","","","",104.2,1000,100,"","","","","","","","","","","","","",0.0579470113
"X",5,20,2024,2784,125612,43.015505,-70.6753966666667,30,318,1,"-","",4,"","",2,1,"P","","","","","","","","","","","","","","","","","","","","","","","","","","","","","",103.6,1000,100,"","","","","","","","","","","","","",0.0576350651
"X",5,20,2024,2785,125614,43.016335,-70.67474,30,319,1,"-","",4,"","",2,1,"P","","","","","","","","","","","","","","","","","","","","","","","","","","","","","",103.6,1000,100,"","","","","","","","","","","","","",0.0575708127
"X",5,20,2024,2786,125616,43.0167483333333,-70.67441,30,319,1,"-","",4,"","",2,1,"P","","","","","","","","","","","","","","","","","","","","","","","","","","","","","",103.5,1000,100,"","","","","","","","","","","","","",0.0287355736
"X",5,20,2024,2787,125618,43.0175716666667,-70.6737433333333,31,318,1,"-","",4,"","",2,1,"P","","","","","","","","","","","","","","","","","","","","","","","","","","","","","",103.7,1000,100,"","","","","","","","","","","","","",0.057446785
"X",5,20,2024,2788,125620,43.01881,-70.6727266666667,31,316,1,"-","",4,"","",2,1,"P","","","","","","","","","","","","","","","","","","","","","","","","","","","","","",104,1000,100,"","","","","","","","","","","","","",0.0867163423
"X",5,20,2024,2789,125622,43.01964,-70.6720416666667,31,316,1,"-","",4,"","",2,1,"P","","","","","","","","","","","","","","","","","","","","","","","","","","","","","",104.8,1000,100,"","","","","","","","","","","","","",0.058202749
"X",5,20,2024,2790,125624,43.0204733333333,-70.6713516666667,31,316,1,"-","",4,"","",2,1,"P","","","","","","","","","","","","","","","","","","","","","","","","","","","","","",105.1,1000,100,"","","","","","","","","","","","","",0.0584873479
"X",5,20,2024,2791,125626,43.02089,-70.6710066666667,31,316,1,"-","",4,"","",2,1,"P","","","","","","","","","","","","","","","","","","","","","","","","","","","","","",105.1,1000,100,"","","","","","","","","","","","","",0.0292435941
"X",5,20,2024,2792,125628,43.022135,-70.6699733333333,31,318,1,"-","",4,"","",2,1,"P","","","","","","","","","","","","","","","","","","","","","","","","","","","","","",104.7,1000,100,"","","","","","","","","","","","","",0.087435814
"X",5,20,2024,2793,125630,43.0229633333333,-70.66929,31,319,1,"-","",4,"","",2,1,"P","","","","","","","","","","","","","","","","","","","","","","","","","","","","","",104.6,1000,100,"","","","","","","","","","","","","",0.058078435
"X",5,20,2024,2794,125632,43.0237916666667,-70.6686116666667,31,320,1,"-","",4,"","",2,1,"P","","","","","","","","","","","","","","","","","","","","","","","","","","","","","",104.2,1000,100,"","","","","","","","","","","","","",0.0579651859
"X",5,20,2024,2795,125634,43.0246183333333,-70.66794,31,321,1,"-","",4,"","",2,1,"P","","","","","","","","","","","","","","","","","","","","","","","","","","","","","",103.9,1000,100,"","","","","","","","","","","","","",0.0577291583
"X",5,20,2024,2796,125636,43.0250283333333,-70.6676033333333,31,322,1,"-","",4,"","",2,1,"P","","","","","","","","","","","","","","","","","","","","","","","","","","","","","",103.4,1000,100,"","","","","","","","","","","","","",0.028711425
"X",5,20,2024,2797,125638,43.0262616666667,-70.6666016666667,31,323,1,"-","",4,"","",2,1,"P","","","","","","","","","","","","","","","","","","","","","","","","","","","","","",103.4,1000,100,"","","","","","","","","","","","","",0.0861183147
"X",5,20,2024,2798,125640,43.0270816666667,-70.6659316666667,31,324,1,"-","",4,"","",2,1,"P","","","","","","","","","","","","","","","","","","","","","","","","","","","","","",103.1,1000,100,"","","","","","","","","","","","","",0.0573472295
"X",5,20,2024,2799,125642,43.0279083333333,-70.66527,30,324,1,"-","",4,"","",2,1,"P","","","","","","","","","","","","","","","","","","","","","","","","","","","","","",103.3,1000,100,"","","","","","","","","","","","","",0.05750545
"X",5,20,2024,2800,125644,43.028735,-70.6646116666667,30,324,1,"-","",4,"","",2,1,"P","","","","","","","","","","","","","","","","","","","","","","","","","","","","","",103.3,1000,100,"","","","","","","","","","","","","",0.0574315069
"X",5,20,2024,2801,125646,43.02915,-70.664285,30,324,1,"-","",4,"","",2,1,"P","","","","","","","","","","","","","","","","","","","","","","","","","","","","","",103.3,1000,100,"","","","","","","","","","","","","",0.028747323
"X",5,20,2024,2802,125648,43.0303983333333,-70.6633133333333,30,325,1,"-","",4,"","",2,1,"P","","","","","","","","","","","","","","","","","","","","","","","","","","","","","",103.4,1000,100,"","","","","","","","","","","","","",0.0862337432
"X",5,20,2024,2803,125650,43.0312316666667,-70.6626683333333,30,325,1,"-","",4,"","",2,1,"P","","","","","","","","","","","","","","","","","","","","","","","","","","","","","",103.6,1000,100,"","","","","","","","","","","","","",0.0574867845
"X",5,20,2024,2804,125652,43.032065,-70.66202,30,324,1,"-","",4,"","",2,1,"P","","","","","","","","","","","","","","","","","","","","","","","","","","","","","",103.7,1000,100,"","","","","","","","","","","","","",0.0575587749
"X",5,20,2024,2805,125654,43.0329,-70.661375,30,324,1,"-","",4,"","",2,1,"P","","","","","","","","","","","","","","","","","","","","","","","","","","","","","",103.9,1000,100,"","","","","","","","","","","","","",0.0575735212
"X",5,20,2024,2806,125656,43.03332,-70.6610533333333,29,323,1,"-","",4,"","",2,1,"P","","","","","","","","","","","","","","","","","","","","","","","","","","","","","",104.1,1000,100,"","","","","","","","","","","","","",0.028899606
"X",5,20,2024,2807,125658,43.03458,-70.6600866666667,29,323,1,"-","",4,"","",2,1,"P","","","","","","","","","","","","","","","","","","","","","","","","","","","","","",104,1000,100,"","","","","","","","","","","","","",0.0867342879
"X",5,20,2024,2808,125700,43.0354266666667,-70.6594466666667,29,322,1,"-","",4,"","",2,1,"P","","","","","","","","","","","","","","","","","","","","","","","","","","","","","",104.6,1000,100,"","","","","","","","","","","","","",0.0580774956
"X",5,20,2024,2809,125702,43.0362766666667,-70.6588083333333,29,323,1,"-","",4,"","",2,1,"P","","","","","","","","","","","","","","","","","","","","","","","","","","","","","",104.5,1000,100,"","","","","","","","","","","","","",0.0582173333
"X",5,20,2024,2810,125704,43.037125,-70.6581733333333,29,323,1,"-","",4,"","",2,1,"P","","","","","","","","","","","","","","","","","","","","","","","","","","","","","",104.5,1000,100,"","","","","","","","","","","","","",0.0580590927
"X",5,20,2024,2811,125706,43.0375483333333,-70.6578583333333,29,324,1,"-","",4,"","",2,1,"P","","","","","","","","","","","","","","","","","","","","","","","","","","","","","",104.3,1000,100,"","","","","","","","","","","","","",0.0289330159
"X",5,20,2024,2812,125706,43.0375483333333,-70.6578583333333,29,324,1,"-","",4,"","",2,1,"P","","","","","","","","","","","","","","","","","","","","","","","","","","","","","",104.3,1000,100,"","","","","","","","","","","","","",0
"X",5,20,2024,2813,125708,43.0388183333333,-70.656915,28,324,1,"-","",4,"","",2,1,"P","","","","","","","","","","","","","","","","","","","","","","","","","","","","","",104.2,1000,100,"","","","","","","","","","","","","",0.0867638544
"X",5,20,2024,2814,125710,43.0396666666667,-70.6562866666667,29,324,1,"-","",4,"","",2,1,"P","","","","","","","","","","","","","","","","","","","","","","","","","","","","","",104.2,1000,100,"","","","","","","","","","","","","",0.0579186954
"X",5,20,2024,2815,125712,43.0405183333333,-70.6556533333333,29,323,1,"-","",4,"","",2,1,"P","","","","","","","","","","","","","","","","","","","","","","","","","","","","","",104.7,1000,100,"","","","","","","","","","","","","",0.0581990492
"X",5,20,2024,2816,125714,43.0413716666667,-70.6550133333333,29,322,1,"-","",4,"","",2,1,"P","","","","","","","","","","","","","","","","","","","","","","","","","","","","","",105,1000,100,"","","","","","","","","","","","","",0.0584268583
"X",5,20,2024,2817,125716,43.0417983333333,-70.6546933333333,29,321,1,"-","",4,"","",2,1,"P","","","","","","","","","","","","","","","","","","","","","","","","","","","","","",105.1,1000,100,"","","","","","","","","","","","","",0.0292133588
"X",5,20,2024,2818,125718,43.0430783333333,-70.6537316666667,29,319,1,"-","",4,"","",2,1,"P","","","","","","","","","","","","","","","","","","","","","","","","","","","","","",105.1,1000,100,"","","","","","","","","","","","","",0.087674971
"X",5,20,2024,2819,125720,43.04393,-70.6530816666667,29,319,1,"-","",4,"","",2,1,"P","","","","","","","","","","","","","","","","","","","","","","","","","","","","","",105.3,1000,100,"","","","","","","","","","","","","",0.0585510564
"X",5,20,2024,2820,125722,43.0447783333333,-70.6524216666667,30,318,1,"-","",4,"","",2,1,"P","","","","","","","","","","","","","","","","","","","","","","","","","","","","","",105.3,1000,100,"","","","","","","","","","","","","",0.058591796
"X",5,20,2024,2821,125724,43.0456233333333,-70.6517566666667,30,316,1,"-","",4,"","",2,1,"P","","","","","","","","","","","","","","","","","","","","","","","","","","","","","",105.3,1000,100,"","","","","","","","","","","","","",0.0585267739
"X",5,20,2024,2822,125726,43.0460466666667,-70.65142,30,315,1,"-","",4,"","",2,1,"P","","","","","","","","","","","","","","","","","","","","","","","","","","","","","",105.6,1000,100,"","","","","","","","","","","","","",0.029398136
"X",5,20,2024,2823,125728,43.0473133333333,-70.650405,31,313,1,"-","",4,"","",2,1,"P","","","","","","","","","","","","","","","","","","","","","","","","","","","","","",105.6,1000,100,"","","","","","","","","","","","","",0.088131784
"X",5,20,2024,2824,125730,43.0481533333333,-70.6497216666667,31,312,1,"-","",4,"","",2,1,"P","","","","","","","","","","","","","","","","","","","","","","","","","","","","","",105.5,1000,100,"","","","","","","","","","","","","",0.0586730859
"X",5,20,2024,2825,125732,43.0489933333333,-70.6490333333333,31,311,1,"-","",4,"","",2,1,"P","","","","","","","","","","","","","","","","","","","","","","","","","","","","","",105.7,1000,100,"","","","","","","","","","","","","",0.0587852825
"X",5,20,2024,2826,125734,43.0498333333333,-70.6483433333333,31,311,1,"-","",4,"","",2,1,"P","","","","","","","","","","","","","","","","","","","","","","","","","","","","","",105.8,1000,100,"","","","","","","","","","","","","",0.058822672
"X",5,20,2024,2827,125736,43.0502533333333,-70.648,31,311,1,"-","",4,"","",2,1,"P","","","","","","","","","","","","","","","","","","","","","","","","","","","","","",105.6,1000,100,"","","","","","","","","","","","","",0.0293736881
"X",5,20,2024,2828,125738,43.05151,-70.6469666666667,31,312,1,"-","",4,"","",2,1,"P","","","","","","","","","","","","","","","","","","","","","","","","","","","","","",105.4,1000,100,"","","","","","","","","","","","","",0.0880242291
"X",5,20,2024,2829,125740,43.0523433333333,-70.646275,31,312,1,"-","",4,"","",2,1,"P","","","","","","","","","","","","","","","","","","","","","","","","","","","","","",105.3,1000,100,"","","","","","","","","","","","","",0.0585170921
"X",5,20,2024,2830,125742,43.0531716666667,-70.6455766666667,32,312,1,"-","",4,"","",2,1,"P","","","","","","","","","","","","","","","","","","","","","","","","","","","","","",105.1,1000,100,"","","","","","","","","","","","","",0.0584132835
"X",5,20,2024,2831,125744,43.053995,-70.644875,32,312,1,"-","",4,"","",2,1,"P","","","","","","","","","","","","","","","","","","","","","","","","","","","","","",104.6,1000,100,"","","","","","","","","","","","","",0.058234858
"X",5,20,2024,2832,125746,43.054405,-70.64452,32,312,1,"-","",4,"","",2,1,"P","","","","","","","","","","","","","","","","","","","","","","","","","","","","","",104.2,1000,100,"","","","","","","","","","","","","",0.0291297771
"X",5,20,2024,2833,125748,43.055625,-70.6434566666667,32,312,1,"-","",4,"","",2,1,"P","","","","","","","","","","","","","","","","","","","","","","","","","","","","","",104.2,1000,100,"","","","","","","","","","","","","",0.0868429091
"X",5,20,2024,2834,125750,43.05643,-70.642745,33,312,1,"-","",4,"","",2,1,"P","","","","","","","","","","","","","","","","","","","","","","","","","","","","","",104.1,1000,100,"","","","","","","","","","","","","",0.0575396366
"X",5,20,2024,2835,125752,43.0572366666667,-70.642035,33,312,1,"-","",4,"","",2,1,"P","","","","","","","","","","","","","","","","","","","","","","","","","","","","","",103.9,1000,100,"","","","","","","","","","","","","",0.0575839127
"X",5,20,2024,2836,125754,43.0580416666667,-70.6413266666667,33,312,1,"-","",4,"","",2,1,"P","","","","","","","","","","","","","","","","","","","","","","","","","","","","","",103.6,1000,100,"","","","","","","","","","","","","",0.0574599778
"X",5,20,2024,2837,125756,43.0584433333333,-70.6409716666667,33,312,1,"-","",4,"","",2,1,"P","","","","","","","","","","","","","","","","","","","","","","","","","","","","","",103.5,1000,100,"","","","","","","","","","","","","",0.0287076486
"X",5,20,2024,2838,125758,43.05965,-70.6399133333333,33,312,1,"-","",4,"","",2,1,"P","","","","","","","","","","","","","","","","","","","","","","","","","","","","","",103.4,1000,100,"","","","","","","","","","","","","",0.0860485464
"X",5,20,2024,2839,125800,43.060455,-70.639215,33,312,1,"-","",4,"","",2,1,"P","","","","","","","","","","","","","","","","","","","","","","","","","","","","","",102.9,1000,100,"","","","","","","","","","","","","",0.0572232758
"X",5,20,2024,2840,125802,43.0612566666667,-70.638515,33,312,1,"-","",4,"","",2,1,"P","","","","","","","","","","","","","","","","","","","","","","","","","","","","","",102.6,1000,100,"","","","","","","","","","","","","",0.05709341
"X",5,20,2024,2841,125804,43.0620533333333,-70.63781,33,312,1,"-","",4,"","",2,1,"P","","","","","","","","","","","","","","","","","","","","","","","","","","","","","",102.4,1000,100,"","","","","","","","","","","","","",0.0569591275
"X",5,20,2024,2842,125806,43.06245,-70.6374533333333,33,313,1,"-","",4,"","",2,1,"P","","","","","","","","","","","","","","","","","","","","","","","","","","","","","",102.6,1000,100,"","","","","","","","","","","","","",0.0284954446
"X",5,20,2024,2843,125806,43.06245,-70.6374533333333,33,313,1,"-","",4,"","",2,1,"P","","","","","","","","","","","","","","","","","","","","","","","","","","","","","",102.6,1000,100,"","","","","","","","","","","","","",0
"X",5,20,2024,2844,125808,43.063635,-70.636375,34,313,1,"-","",4,"","",2,1,"P","","","","","","","","","","","","","","","","","","","","","","","","","","","","","",102.6,1000,100,"","","","","","","","","","","","","",0.0854370956
"X",5,20,2024,2845,125810,43.06442,-70.6356516666667,34,312,1,"-","",4,"","",2,1,"P","","","","","","","","","","","","","","","","","","","","","","","","","","","","","",102.4,1000,100,"","","","","","","","","","","","","",0.056816673
"X",5,20,2024,2846,125812,43.06521,-70.6349266666667,34,311,1,"-","",4,"","",2,1,"P","","","","","","","","","","","","","","","","","","","","","","","","","","","","","",102.5,1000,100,"","","","","","","","","","","","","",0.0571064029
"X",5,20,2024,2847,125814,43.066,-70.6342033333333,34,310,1,"-","",4,"","",2,1,"P","","","","","","","","","","","","","","","","","","","","","","","","","","","","","",102.7,1000,100,"","","","","","","","","","","","","",0.0570654954
"X",5,20,2024,2848,125816,43.0663983333333,-70.6338433333333,34,309,1,"-","",4,"","",2,1,"P","","","","","","","","","","","","","","","","","","","","","","","","","","","","","",102.9,1000,100,"","","","","","","","","","","","","",0.0286588818
"X",5,20,2024,2849,125818,43.0675983333333,-70.6327683333333,34,308,1,"-","",4,"","",2,1,"P","","","","","","","","","","","","","","","","","","","","","","","","","","","","","",103.2,1000,100,"","","","","","","","","","","","","",0.086106693
"X",5,20,2024,2850,125820,43.068395,-70.63205,33,309,1,"-","",4,"","",2,1,"P","","","","","","","","","","","","","","","","","","","","","","","","","","","","","",102.7,1000,100,"","","","","","","","","","","","","",0.057277007
"X",5,20,2024,2851,125822,43.069185,-70.631335,34,310,1,"-","",4,"","",2,1,"P","","","","","","","","","","","","","","","","","","","","","","","","","","","","","",102.3,1000,100,"","","","","","","","","","","","","",0.0568621735
"X",5,20,2024,2852,125824,43.0699716666667,-70.6306233333333,33,311,1,"-","",4,"","",2,1,"P","","","","","","","","","","","","","","","","","","","","","","","","","","","","","",102,1000,100,"","","","","","","","","","","","","",0.0566143732
"X",5,20,2024,2853,125826,43.070365,-70.63027,33,312,1,"-","",4,"","",2,1,"P","","","","","","","","","","","","","","","","","","","","","","","","","","","","","",101.4,1000,100,"","","","","","","","","","","","","",0.0282467957
"X",5,20,2024,2854,125828,43.0715333333333,-70.6292133333333,34,313,1,"-","",4,"","",2,1,"P","","","","","","","","","","","","","","","","","","","","","","","","","","","","","",101,1000,100,"","","","","","","","","","","","","",0.0840746232
"X",5,20,2024,2855,125830,43.0723066666667,-70.628505,34,314,1,"-","",4,"","",2,1,"P","","","","","","","","","","","","","","","","","","","","","","","","","","","","","",100.6,1000,100,"","","","","","","","","","","","","",0.0558661484
"X",5,20,2024,2856,125832,43.0730783333333,-70.6278016666667,34,314,1,"-","",4,"","",2,1,"P","","","","","","","","","","","","","","","","","","","","","","","","","","","","","",100.1,1000,100,"","","","","","","","","","","","","",0.0556609586
"X",5,20,2024,2857,125834,43.0738516666667,-70.6270983333333,34,313,1,"-","",4,"","",2,1,"P","","","","","","","","","","","","","","","","","","","","","","","","","","","","","",100.5,1000,100,"","","","","","","","","","","","","",0.0557440655
"X",5,20,2024,2858,125836,43.07424,-70.6267483333333,33,313,1,"-","",4,"","",2,1,"P","","","","","","","","","","","","","","","","","","","","","","","","","","","","","",100.5,1000,100,"","","","","","","","","","","","","",0.0279150951
"X",5,20,2024,2859,125838,43.0754083333333,-70.6256916666667,33,311,1,"-","",4,"","",2,1,"P","","","","","","","","","","","","","","","","","","","","","","","","","","","","","",100.8,1000,100,"","","","","","","","","","","","","",0.0840730079
"X",5,20,2024,2860,125840,43.0761883333333,-70.6249883333333,33,310,1,"-","",4,"","",2,1,"P","","","","","","","","","","","","","","","","","","","","","","","","","","","","","",100.9,1000,100,"","","","","","","","","","","","","",0.0560772562
"X",5,20,2024,2861,125842,43.0769733333333,-70.624285,33,310,1,"-","",4,"","",2,1,"P","","","","","","","","","","","","","","","","","","","","","","","","","","","","","",101.7,1000,100,"","","","","","","","","","","","","",0.0563279892
"X",5,20,2024,2862,125844,43.0777583333333,-70.6235883333333,33,309,1,"-","",4,"","",2,1,"P","","","","","","","","","","","","","","","","","","","","","","","","","","","","","",101.1,1000,100,"","","","","","","","","","","","","",0.0561682042
"X",5,20,2024,2863,125846,43.0781516666667,-70.62324,33,309,1,"-","",4,"","",2,1,"P","","","","","","","","","","","","","","","","","","","","","","","","","","","","","",100.9,1000,100,"","","","","","","","","","","","","",0.0281260197
"X",5,20,2024,2864,125848,43.079335,-70.622205,33,310,1,"-","",4,"","",2,1,"P","","","","","","","","","","","","","","","","","","","","","","","","","","","","","",101,1000,100,"","","","","","","","","","","","","",0.0843089448
"X",5,20,2024,2865,125850,43.0801216666667,-70.62152,33,311,1,"-","",4,"","",2,1,"P","","","","","","","","","","","","","","","","","","","","","","","","","","","","","",100.8,1000,100,"","","","","","","","","","","","","",0.0559753314
"X",5,20,2024,2866,125852,43.08091,-70.6208366666667,33,312,1,"-","",4,"","",2,1,"P","","","","","","","","","","","","","","","","","","","","","","","","","","","","","",100.5,1000,100,"","","","","","","","","","","","","",0.0560204563
"X",5,20,2024,2867,125854,43.0816916666667,-70.6201533333333,33,312,1,"-","",4,"","",2,1,"P","","","","","","","","","","","","","","","","","","","","","","","","","","","","","",100.1,1000,100,"","","","","","","","","","","","","",0.0556824719
"X",5,20,2024,2868,125856,43.0820816666667,-70.61981,33,312,1,"-","",4,"","",2,1,"P","","","","","","","","","","","","","","","","","","","","","","","","","","","","","",99.9,1000,100,"","","","","","","","","","","","","",0.0278384611
"X",5,20,2024,2869,125858,43.08325,-70.618775,33,312,1,"-","",4,"","",2,1,"P","","","","","","","","","","","","","","","","","","","","","","","","","","","","","",99.9,1000,100,"","","","","","","","","","","","","",0.0835498239
"X",5,20,2024,2870,125900,43.0840266666667,-70.6180783333333,33,311,1,"-","",4,"","",2,1,"P","","","","","","","","","","","","","","","","","","","","","","","","","","","","","",100.2,1000,100,"","","","","","","","","","","","","",0.0557473125
"X",5,20,2024,2871,125902,43.0848066666667,-70.6173766666667,33,310,1,"-","",4,"","",2,1,"P","","","","","","","","","","","","","","","","","","","","","","","","","","","","","",101.2,1000,100,"","","","","","","","","","","","","",0.0560347066
"X",5,20,2024,2872,125904,43.085585,-70.61667,34,308,1,"-","",4,"","",2,1,"P","","","","","","","","","","","","","","","","","","","","","","","","","","","","","",100.7,1000,100,"","","","","","","","","","","","","",0.0560717526
"X",5,20,2024,2873,125906,43.085975,-70.6163133333333,34,307,1,"-","",4,"","",2,1,"P","","","","","","","","","","","","","","","","","","","","","","","","","","","","","",101.1,1000,100,"","","","","","","","","","","","","",0.0281584269
"X",5,20,2024,2874,125908,43.08714,-70.615225,34,306,1,"-","",4,"","",2,1,"P","","","","","","","","","","","","","","","","","","","","","","","","","","","","","",101.4,1000,100,"","","","","","","","","","","","","",0.0846759213
"X",5,20,2024,2875,125910,43.0879183333333,-70.6144883333333,35,305,1,"-","",4,"","",2,1,"P","","","","","","","","","","","","","","","","","","","","","","","","","","","","","",102.2,1000,100,"","","","","","","","","","","","","",0.0568086234
"X",5,20,2024,2876,125912,43.0886916666667,-70.613745,35,305,1,"-","",4,"","",2,1,"P","","","","","","","","","","","","","","","","","","","","","","","","","","","","","",102,1000,100,"","","","","","","","","","","","","",0.0567291407
"X",5,20,2024,2877,125914,43.089465,-70.6129983333333,35,305,1,"-","",4,"","",2,1,"P","","","","","","","","","","","","","","","","","","","","","","","","","","","","","",102.1,1000,100,"","","","","","","","","","","","","",0.0568130032
"X",5,20,2024,2878,125916,43.0898516666667,-70.61263,35,306,1,"-","",4,"","",2,1,"P","","","","","","","","","","","","","","","","","","","","","","","","","","","","","",101.6,1000,100,"","","","","","","","","","","","","",0.0282806448
"X",5,20,2024,2879,125918,43.0910066666667,-70.6115266666667,35,307,1,"-","",4,"","",2,1,"P","","","","","","","","","","","","","","","","","","","","","","","","","","","","","",101.3,1000,100,"","","","","","","","","","","","","",0.0845534903
"X",5,20,2024,2880,125920,43.09177,-70.6108016666667,35,308,1,"-","",4,"","",2,1,"P","","","","","","","","","","","","","","","","","","","","","","","","","","","","","",100.5,1000,100,"","","","","","","","","","","","","",0.0557758305
"X",5,20,2024,2881,125922,43.092525,-70.6100783333333,35,310,1,"-","",4,"","",2,1,"P","","","","","","","","","","","","","","","","","","","","","","","","","","","","","",99.6,1000,100,"","","","","","","","","","","","","",0.0553232896
"X",5,20,2024,2882,125924,43.0932783333333,-70.6093566666667,35,310,1,"-","",4,"","",2,1,"P","","","","","","","","","","","","","","","","","","","","","","","","","","","","","",99.2,1000,100,"","","","","","","","","","","","","",0.0551991828
"X",5,20,2024,2883,125926,43.0936533333333,-70.6089966666667,35,310,1,"-","",4,"","",2,1,"P","","","","","","","","","","","","","","","","","","","","","","","","","","","","","",98.8,1000,100,"","","","","","","","","","","","","",0.0274965823
"X",5,20,2024,2884,125928,43.0947783333333,-70.6079183333333,35,309,1,"-","",4,"","",2,1,"P","","","","","","","","","","","","","","","","","","","","","","","","","","","","","",99,1000,100,"","","","","","","","","","","","","",0.0824474905
"X",5,20,2024,2885,125930,43.0955316666667,-70.6072016666667,35,309,1,"-","",4,"","",2,1,"P","","","","","","","","","","","","","","","","","","","","","","","","","","","","","",99.3,1000,100,"","","","","","","","","","","","","",0.0550731549
"X",5,20,2024,2886,125932,43.0962866666667,-70.6064983333333,34,309,1,"-","",4,"","",2,1,"P","","","","","","","","","","","","","","","","","","","","","","","","","","","","","",98.9,1000,100,"","","","","","","","","","","","","",0.0548242444
"X",5,20,2024,2887,125934,43.0970533333333,-70.6058133333333,33,309,1,"-","",4,"","",2,1,"P","","","","","","","","","","","","","","","","","","","","","","","","","","","","","",99.2,1000,100,"","","","","","","","","","","","","",0.0549613301
"X",5,20,2024,2888,125936,43.0974433333333,-70.6054816666667,31,309,1,"-","",4,"","",2,1,"P","","","","","","","","","","","","","","","","","","","","","","","","","","","","","",99.1,1000,100,"","","","","","","","","","","","","",0.0275632011
"X",5,20,2024,2889,125936,43.0974433333333,-70.6054816666667,31,309,1,"-","",4,"","",2,1,"P","","","","","","","","","","","","","","","","","","","","","","","","","","","","","",99.1,1000,100,"","","","","","","","","","","","","",0
"X",5,20,2024,2890,125938,43.0986433333333,-70.6045666666667,28,309,1,"-","",4,"","",2,1,"P","","","","","","","","","","","","","","","","","","","","","","","","","","","","","",99,1000,100,"","","","","","","","","","","","","",0.0824629857
"X",5,20,2024,2891,125940,43.09948,-70.6040483333333,24,308,1,"-","",4,"","",2,1,"P","","","","","","","","","","","","","","","","","","","","","","","","","","","","","",99.3,1000,100,"","","","","","","","","","","","","",0.0551344398
"X",5,20,2024,2892,125942,43.1003416666667,-70.6036166666667,20,306,1,"-","",4,"","",2,1,"P","","","","","","","","","","","","","","","","","","","","","","","","","","","","","",99.5,1000,100,"","","","","","","","","","","","","",0.0550873207
"X",5,20,2024,2893,125944,43.1012183333333,-70.6032783333333,16,305,1,"-","",4,"","",2,1,"P","","","","","","","","","","","","","","","","","","","","","","","","","","","","","",97.4,1000,100,"","","","","","","","","","","","","",0.0546853144
"X",5,20,2024,2894,125946,43.102125,-70.6030383333333,11,307,1,"-","",4,"","",2,1,"P","","","","","","","","","","","","","","","","","","","","","","","","","","","","","",99.1,1000,100,"","","","","","","","","","","","","",0.0554440856
"X",5,20,2024,2895,125948,43.1030383333333,-70.6029,6,310,1,"-","",4,"","",2,1,"P","","","","","","","","","","","","","","","","","","","","","","","","","","","","","",99,1000,100,"","","","","","","","","","","","","",0.0551712373
"X",5,20,2024,2896,125950,43.1039466666667,-70.6028616666667,2,312,1,"-","",4,"","",2,1,"P","","","","","","","","","","","","","","","","","","","","","","","","","","","","","",99,1000,100,"","","","","","","","","","","","","",0.0545626312
"X",5,20,2024,2897,125952,43.1048616666667,-70.6029183333333,358,312,1,"-","",4,"","",2,1,"P","","","","","","","","","","","","","","","","","","","","","","","","","","","","","",98.2,1000,100,"","","","","","","","","","","","","",0.0549931493
"X",5,20,2024,2898,125954,43.1057566666667,-70.6030516666667,354,313,1,"-","",4,"","",2,1,"P","","","","","","","","","","","","","","","","","","","","","","","","","","","","","",96.3,1000,100,"","","","","","","","","","","","","",0.0540531317
"X",5,20,2024,2899,125956,43.1061983333333,-70.6031366666667,351,313,1,"-","",4,"","",2,1,"P","","","","","","","","","","","","","","","","","","","","","","","","","","","","","",95.8,1000,100,"","","","","","","","","","","","","",0.026778354
"X",5,20,2024,2900,125958,43.107525,-70.6034533333333,350,316,1,"-","",4,"","",2,1,"P","","","","","","","","","","","","","","","","","","","","","","","","","","","","","",96.7,1000,100,"","","","","","","","","","","","","",0.0808541064
"X",5,20,2024,2901,130000,43.108405,-70.6036866666667,349,318,1,"-","",4,"","",2,1,"P","","","","","","","","","","","","","","","","","","","","","","","","","","","","","",96.5,1000,100,"","","","","","","","","","","","","",0.0538164422
"X",5,20,2024,2902,130002,43.1092883333333,-70.6039216666667,349,319,1,"-","",4,"","",2,1,"P","","","","","","","","","","","","","","","","","","","","","","","","","","","","","",96.7,1000,100,"","","","","","","","","","","","","",0.054026796
"X",5,20,2024,2903,130004,43.110165,-70.6041566666667,349,320,1,"-","",4,"","",2,1,"P","","","","","","","","","","","","","","","","","","","","","","","","","","","","","",96.8,1000,100,"","","","","","","","","","","","","",0.0536338946
"X",5,20,2024,2904,130006,43.1106066666667,-70.6042733333333,349,320,1,"-","",4,"","",2,1,"P","","","","","","","","","","","","","","","","","","","","","","","","","","","","","",97,1000,100,"","","","","","","","","","","","","",0.0270064331
"X",5,20,2024,2905,130008,43.1119316666667,-70.6046183333333,349,319,1,"-","",4,"","",2,1,"P","","","","","","","","","","","","","","","","","","","","","","","","","","","","","",97.4,1000,100,"","","","","","","","","","","","","",0.0809780464
"X",5,20,2024,2906,130010,43.11282,-70.604845,349,319,1,"-","",4,"","",2,1,"P","","","","","","","","","","","","","","","","","","","","","","","","","","","","","",97.2,1000,100,"","","","","","","","","","","","","",0.0542533368
"X",5,20,2024,2907,130012,43.1137133333333,-70.6050716666667,350,320,1,"-","",4,"","",2,1,"P","","","","","","","","","","","","","","","","","","","","","","","","","","","","","",98.1,1000,100,"","","","","","","","","","","","","",0.0545484642
"X",5,20,2024,2908,130014,43.1146066666667,-70.6052966666667,350,320,1,"-","",4,"","",2,1,"P","","","","","","","","","","","","","","","","","","","","","","","","","","","","","",98,1000,100,"","","","","","","","","","","","","",0.0545351811
"X",5,20,2024,2909,130016,43.1150516666667,-70.6054066666667,350,320,1,"-","",4,"","",2,1,"P","","","","","","","","","","","","","","","","","","","","","","","","","","","","","",97.7,1000,100,"","","","","","","","","","","","","",0.0271494976
"X",5,20,2024,2910,130018,43.1163866666667,-70.60573,350,320,1,"-","",4,"","",2,1,"P","","","","","","","","","","","","","","","","","","","","","","","","","","","","","",97.7,1000,100,"","","","","","","","","","","","","",0.081397078
"X",5,20,2024,2911,130020,43.11728,-70.6059416666667,350,321,1,"-","",4,"","",2,1,"P","","","","","","","","","","","","","","","","","","","","","","","","","","","","","",98.4,1000,100,"","","","","","","","","","","","","",0.054432472
"X",5,20,2024,2912,130022,43.1181683333333,-70.6061483333333,350,321,1,"-","",4,"","",2,1,"P","","","","","","","","","","","","","","","","","","","","","","","","","","","","","",97.8,1000,100,"","","","","","","","","","","","","",0.0540995438
"X",5,20,2024,2913,130024,43.1190583333333,-70.60635,351,321,1,"-","",4,"","",2,1,"P","","","","","","","","","","","","","","","","","","","","","","","","","","","","","",97.7,1000,100,"","","","","","","","","","","","","",0.0541619902
"X",5,20,2024,2914,130026,43.119505,-70.6064516666667,351,322,1,"-","",4,"","",2,1,"P","","","","","","","","","","","","","","","","","","","","","","","","","","","","","",97.5,1000,100,"","","","","","","","","","","","","",0.0271856801
"X",5,20,2024,2915,130028,43.1208416666667,-70.6067483333333,351,322,1,"-","",4,"","",2,1,"P","","","","","","","","","","","","","","","","","","","","","","","","","","","","","",97.6,1000,100,"","","","","","","","","","","","","",0.0813003845
"X",5,20,2024,2916,130030,43.121735,-70.6069466666667,351,321,1,"-","",4,"","",2,1,"P","","","","","","","","","","","","","","","","","","","","","","","","","","","","","",97.7,1000,100,"","","","","","","","","","","","","",0.0543358307
"X",5,20,2024,2917,130032,43.1226316666667,-70.6071433333333,351,320,1,"-","",4,"","",2,1,"P","","","","","","","","","","","","","","","","","","","","","","","","","","","","","",98,1000,100,"","","","","","","","","","","","","",0.0545217841
"X",5,20,2024,2918,130034,43.1235266666667,-70.6073383333333,351,320,1,"-","",4,"","",2,1,"P","","","","","","","","","","","","","","","","","","","","","","","","","","","","","",98.1,1000,100,"","","","","","","","","","","","","",0.0544114386
"X",5,20,2024,2919,130036,43.1239766666667,-70.6074333333333,351,320,1,"-","",4,"","",2,1,"P","","","","","","","","","","","","","","","","","","","","","","","","","","","","","",98.2,1000,100,"","","","","","","","","","","","","",0.0273370622
"X",5,20,2024,2920,130036,43.1239766666667,-70.6074333333333,351,320,1,"-","",4,"","",2,1,"P","","","","","","","","","","","","","","","","","","","","","","","","","","","","","",98.2,1000,100,"","","","","","","","","","","","","",0
"X",5,20,2024,2921,130038,43.12533,-70.6077266666667,351,320,1,"-","",4,"","",2,1,"P","","","","","","","","","","","","","","","","","","","","","","","","","","","","","",98.6,1000,100,"","","","","","","","","","","","","",0.0822652347
"X",5,20,2024,2922,130040,43.126225,-70.6079366666667,350,321,1,"-","",4,"","",2,1,"P","","","","","","","","","","","","","","","","","","","","","","","","","","","","","",97.5,1000,100,"","","","","","","","","","","","","",0.0545184722
"X",5,20,2024,2923,130042,43.127115,-70.60818,349,320,1,"-","",4,"","",2,1,"P","","","","","","","","","","","","","","","","","","","","","","","","","","","","","",98.1,1000,100,"","","","","","","","","","","","","",0.0544894895
"X",5,20,2024,2924,130044,43.127995,-70.6084833333333,346,320,1,"-","",4,"","",2,1,"P","","","","","","","","","","","","","","","","","","","","","","","","","","","","","",98.3,1000,100,"","","","","","","","","","","","","",0.0544818889
"X",5,20,2024,2925,130046,43.1288633333333,-70.6088616666667,342,320,1,"-","",4,"","",2,1,"P","","","","","","","","","","","","","","","","","","","","","","","","","","","","","",98.1,1000,100,"","","","","","","","","","","","","",0.0547074683
"X",5,20,2024,2926,130048,43.12971,-70.6093266666667,338,321,1,"-","",4,"","",2,1,"P","","","","","","","","","","","","","","","","","","","","","","","","","","","","","",98.4,1000,100,"","","","","","","","","","","","","",0.054765708
"X",5,20,2024,2927,130050,43.130525,-70.6098833333333,334,321,1,"-","",4,"","",2,1,"P","","","","","","","","","","","","","","","","","","","","","","","","","","","","","",98.6,1000,100,"","","","","","","","","","","","","",0.0546753919
"X",5,20,2024,2928,130052,43.1313,-70.6105266666667,329,321,1,"-","",4,"","",2,1,"P","","","","","","","","","","","","","","","","","","","","","","","","","","","","","",97.8,1000,100,"","","","","","","","","","","","","",0.0544039342
"X",5,20,2024,2929,130054,43.1320333333333,-70.6112483333333,324,321,1,"-","",4,"","",2,1,"P","","","","","","","","","","","","","","","","","","","","","","","","","","","","","",97.2,1000,100,"","","","","","","","","","","","","",0.0542079138
"X",5,20,2024,2930,130056,43.132385,-70.6116416666667,320,322,1,"-","",4,"","",2,1,"P","","","","","","","","","","","","","","","","","","","","","","","","","","","","","",97.5,1000,100,"","","","","","","","","","","","","",0.0272549865
"X",5,20,2024,2931,130058,43.1333566666667,-70.61292,315,323,1,"-","",4,"","",2,1,"P","","","","","","","","","","","","","","","","","","","","","","","","","","","","","",96.8,1000,100,"","","","","","","","","","","","","",0.0808747179
"X",5,20,2024,2932,130100,43.1339283333333,-70.6138533333333,310,324,1,"-","",4,"","",2,1,"P","","","","","","","","","","","","","","","","","","","","","","","","","","","","","",96.3,1000,100,"","","","","","","","","","","","","",0.0533892328
"X",5,20,2024,2933,130102,43.1344,-70.614875,304,325,1,"-","",4,"","",2,1,"P","","","","","","","","","","","","","","","","","","","","","","","","","","","","","",95.3,1000,100,"","","","","","","","","","","","","",0.05296978
"X",5,20,2024,2934,130104,43.13475,-70.6159816666667,297,325,1,"-","",4,"","",2,1,"P","","","","","","","","","","","","","","","","","","","","","","","","","","","","","",94.4,1000,100,"","","","","","","","","","","","","",0.0528458796
"X",5,20,2024,2935,130106,43.1349716666667,-70.6171483333333,286,325,1,"-","",4,"","",2,1,"P","","","","","","","","","","","","","","","","","","","","","","","","","","","","","",94.7,1000,100,"","","","","","","","","","","","","",0.0528208759
"X",5,20,2024,2936,130108,43.1350783333333,-70.618335,278,325,1,"-","",4,"","",2,1,"P","","","","","","","","","","","","","","","","","","","","","","","","","","","","","",93.7,1000,100,"","","","","","","","","","","","","",0.0523857864
"X",5,20,2024,2937,130110,43.1350566666667,-70.619525,269,327,1,"-","",4,"","",2,1,"P","","","","","","","","","","","","","","","","","","","","","","","","","","","","","",92.9,1000,100,"","","","","","","","","","","","","",0.0521550767
"X",5,20,2024,2938,130112,43.134915,-70.6206866666667,261,329,1,"-","",4,"","",2,1,"P","","","","","","","","","","","","","","","","","","","","","","","","","","","","","",92.1,1000,100,"","","","","","","","","","","","","",0.0516033404
"X",5,20,2024,2939,130114,43.13466,-70.6218016666667,253,331,1,"-","",4,"","",2,1,"P","","","","","","","","","","","","","","","","","","","","","","","","","","","","","",91.4,1000,100,"","","","","","","","","","","","","",0.0511959237
"X",5,20,2024,2940,130116,43.134305,-70.6228516666667,245,332,1,"-","",4,"","",2,1,"P","","","","","","","","","","","","","","","","","","","","","","","","","","","","","",90.6,1000,100,"","","","","","","","","","","","","",0.0507029627
"X",5,20,2024,2941,130118,43.13388,-70.6238433333333,240,331,1,"-","",4,"","",2,1,"P","","","","","","","","","","","","","","","","","","","","","","","","","","","","","",90.6,1000,100,"","","","","","","","","","","","","",0.0503885569
"X",5,20,2024,2942,130120,43.1334083333333,-70.6247866666667,237,328,1,"-","",4,"","",2,1,"P","","","","","","","","","","","","","","","","","","","","","","","","","","","","","",89.8,1000,100,"","","","","","","","","","","","","",0.0501032043
"X",5,20,2024,2943,130122,43.1328516666667,-70.625675,230,326,1,"-","",4,"","",2,1,"P","","","","","","","","","","","","","","","","","","","","","","","","","","","","","",92.1,1000,100,"","","","","","","","","","","","","",0.0513035108
"X",5,20,2024,2944,130124,43.1322683333333,-70.62654,227,324,1,"-","",4,"","",2,1,"P","","","","","","","","","","","","","","","","","","","","","","","","","","","","","",92.4,1000,100,"","","","","","","","","","","","","",0.0516054589
"X",5,20,2024,2945,130126,43.1319716666667,-70.6269733333333,227,324,1,"-","",4,"","",2,1,"P","","","","","","","","","","","","","","","","","","","","","","","","","","","","","",93.4,1000,100,"","","","","","","","","","","","","",0.0260341226
"X",5,20,2024,2946,130128,43.1310866666667,-70.6282633333333,227,325,1,"-","",4,"","",2,1,"P","","","","","","","","","","","","","","","","","","","","","","","","","","","","","",92.9,1000,100,"","","","","","","","","","","","","",0.0775778573
"X",5,20,2024,2947,130130,43.13048,-70.629095,225,326,1,"-","",4,"","",2,1,"P","","","","","","","","","","","","","","","","","","","","","","","","","","","","","",92.7,1000,100,"","","","","","","","","","","","","",0.0515239544
"X",5,20,2024,2948,130132,43.1298266666667,-70.6298533333333,221,328,1,"-","",4,"","",2,1,"P","","","","","","","","","","","","","","","","","","","","","","","","","","","","","",92.4,1000,100,"","","","","","","","","","","","","",0.0514085602
"X",5,20,2024,2949,130134,43.1291216666667,-70.63051,215,328,1,"-","",4,"","",2,1,"P","","","","","","","","","","","","","","","","","","","","","","","","","","","","","",92,1000,100,"","","","","","","","","","","","","",0.0511824466
"X",5,20,2024,2950,130136,43.1287533333333,-70.6308,209,328,1,"-","",4,"","",2,1,"P","","","","","","","","","","","","","","","","","","","","","","","","","","","","","",91.8,1000,100,"","","","","","","","","","","","","",0.0255058108
"X",5,20,2024,2951,130138,43.127595,-70.6315483333333,205,326,1,"-","",4,"","",2,1,"P","","","","","","","","","","","","","","","","","","","","","","","","","","","","","",92.5,1000,100,"","","","","","","","","","","","","",0.0768897586
"X",5,20,2024,2952,130140,43.12679,-70.63196,201,325,1,"-","",4,"","",2,1,"P","","","","","","","","","","","","","","","","","","","","","","","","","","","","","",92.7,1000,100,"","","","","","","","","","","","","",0.0515892249
"X",5,20,2024,2953,130142,43.12597,-70.6322916666667,197,325,1,"-","",4,"","",2,1,"P","","","","","","","","","","","","","","","","","","","","","","","","","","","","","",92.5,1000,100,"","","","","","","","","","","","","",0.0513335729
"X",5,20,2024,2954,130144,43.1251233333333,-70.63253,192,324,1,"-","",4,"","",2,1,"P","","","","","","","","","","","","","","","","","","","","","","","","","","","","","",93.2,1000,100,"","","","","","","","","","","","","",0.0518960355
"X",5,20,2024,2955,130146,43.124695,-70.6326166666667,188,323,1,"-","",4,"","",2,1,"P","","","","","","","","","","","","","","","","","","","","","","","","","","","","","",93.4,1000,100,"","","","","","","","","","","","","",0.0259962448
"X",5,20,2024,2956,130148,43.1234016666667,-70.6327566666667,184,322,1,"-","",4,"","",2,1,"P","","","","","","","","","","","","","","","","","","","","","","","","","","","","","",93.6,1000,100,"","","","","","","","","","","","","",0.0778943054
"X",5,20,2024,2957,130150,43.12253,-70.6327666666667,180,320,1,"-","",4,"","",2,1,"P","","","","","","","","","","","","","","","","","","","","","","","","","","","","","",93.9,1000,100,"","","","","","","","","","","","","",0.0523370999
"X",5,20,2024,2958,130152,43.1216583333333,-70.632745,179,320,1,"-","",4,"","",2,1,"P","","","","","","","","","","","","","","","","","","","","","","","","","","","","","",93.9,1000,100,"","","","","","","","","","","","","",0.0523438778
"X",5,20,2024,2959,130154,43.120785,-70.6327116666667,178,319,1,"-","",4,"","",2,1,"P","","","","","","","","","","","","","","","","","","","","","","","","","","","","","",94.2,1000,100,"","","","","","","","","","","","","",0.052455677
"X",5,20,2024,2960,130156,43.1203466666667,-70.6326933333333,178,318,1,"-","",4,"","",2,1,"P","","","","","","","","","","","","","","","","","","","","","","","","","","","","","",94.5,1000,100,"","","","","","","","","","","","","",0.0263299951
"X",5,20,2024,2961,130158,43.1190283333333,-70.6326316666667,178,318,1,"-","",4,"","",2,1,"P","","","","","","","","","","","","","","","","","","","","","","","","","","","","","",94.8,1000,100,"","","","","","","","","","","","","",0.0791994595
"X",5,20,2024,2962,130200,43.118145,-70.6325783333333,178,317,1,"-","",4,"","",2,1,"P","","","","","","","","","","","","","","","","","","","","","","","","","","","","","",95.1,1000,100,"","","","","","","","","","","","","",0.0530872186
"X",5,20,2024,2963,130202,43.117265,-70.6324883333333,176,317,1,"-","",4,"","",2,1,"P","","","","","","","","","","","","","","","","","","","","","","","","","","","","","",95.2,1000,100,"","","","","","","","","","","","","",0.0529826303
"X",5,20,2024,2964,130204,43.1163866666667,-70.6323566666667,174,317,1,"-","",4,"","",2,1,"P","","","","","","","","","","","","","","","","","","","","","","","","","","","","","",95.2,1000,100,"","","","","","","","","","","","","",0.0530503185
"X",5,20,2024,2965,130206,43.11595,-70.6322783333333,172,317,1,"-","",4,"","",2,1,"P","","","","","","","","","","","","","","","","","","","","","","","","","","","","","",95,1000,100,"","","","","","","","","","","","","",0.0264414954
"X",5,20,2024,2966,130208,43.1146433333333,-70.6319816666667,170,318,1,"-","",4,"","",2,1,"P","","","","","","","","","","","","","","","","","","","","","","","","","","","","","",95.2,1000,100,"","","","","","","","","","","","","",0.0795230428
"X",5,20,2024,2967,130210,43.1137783333333,-70.6317383333333,168,319,1,"-","",4,"","",2,1,"P","","","","","","","","","","","","","","","","","","","","","","","","","","","","","",95.8,1000,100,"","","","","","","","","","","","","",0.0530187486
"X",5,20,2024,2968,130212,43.11292,-70.6314683333333,167,319,1,"-","",4,"","",2,1,"P","","","","","","","","","","","","","","","","","","","","","","","","","","","","","",95,1000,100,"","","","","","","","","","","","","",0.0528760066
"X",5,20,2024,2969,130214,43.1120666666667,-70.6311733333333,166,319,1,"-","",4,"","",2,1,"P","","","","","","","","","","","","","","","","","","","","","","","","","","","","","",94.7,1000,100,"","","","","","","","","","","","","",0.0528408926
"X",5,20,2024,2970,130216,43.1116433333333,-70.631015,164,319,1,"-","",4,"","",2,1,"P","","","","","","","","","","","","","","","","","","","","","","","","","","","","","",94.6,1000,100,"","","","","","","","","","","","","",0.0263475274
"X",5,20,2024,2971,130218,43.1103933333333,-70.6304616666667,161,318,1,"-","",4,"","",2,1,"P","","","","","","","","","","","","","","","","","","","","","","","","","","","","","",94.8,1000,100,"","","","","","","","","","","","","",0.0788721377
"X",5,20,2024,2972,130220,43.1095716666667,-70.63002,158,317,1,"-","",4,"","",2,1,"P","","","","","","","","","","","","","","","","","","","","","","","","","","","","","",95.2,1000,100,"","","","","","","","","","","","","",0.0529957266
"X",5,20,2024,2973,130222,43.1087633333333,-70.62953,156,316,1,"-","",4,"","",2,1,"P","","","","","","","","","","","","","","","","","","","","","","","","","","","","","",95.4,1000,100,"","","","","","","","","","","","","",0.0530728648
"X",5,20,2024,2974,130224,43.10796,-70.6290133333333,155,316,1,"-","",4,"","",2,1,"P","","","","","","","","","","","","","","","","","","","","","","","","","","","","","",95.7,1000,100,"","","","","","","","","","","","","",0.0532847986
"X",5,20,2024,2975,130226,43.1075566666667,-70.6287516666667,155,316,1,"-","",4,"","",2,1,"P","","","","","","","","","","","","","","","","","","","","","","","","","","","","","",96.8,1000,100,"","","","","","","","","","","","","",0.0267952776
"X",5,20,2024,2976,130228,43.10634,-70.6279733333333,155,316,1,"-","",4,"","",2,1,"P","","","","","","","","","","","","","","","","","","","","","","","","","","","","","",96.5,1000,100,"","","","","","","","","","","","","",0.0806238568
"X",5,20,2024,2977,130230,43.1055283333333,-70.6274683333333,156,315,1,"-","",4,"","",2,1,"P","","","","","","","","","","","","","","","","","","","","","","","","","","","","","",96.5,1000,100,"","","","","","","","","","","","","",0.0535249706
"X",5,20,2024,2978,130232,43.1047116666667,-70.626975,156,314,1,"-","",4,"","",2,1,"P","","","","","","","","","","","","","","","","","","","","","","","","","","","","","",96.2,1000,100,"","","","","","","","","","","","","",0.0535901502
