"rectype","month","day","year","eventno","time","lat","long","heading","alt","legtype","legstage","legno","visiblty","glarel","glarer","beaufort","cloud","wx","sightno","anglel","angler","speccode","number","numcalf","anhead","photos","idrel","confidnc","b1","b2","b3","b4","b5","b6","b7","b8","b9","b10","b11","b12","b13","b14","b15","refno","stratum","utc","radalt","gpsspeed","setalt","setvel","lensfl","ggf","int","gpsq","gpssats","roll","pitch","yaw","maghead","notes","edits","glarev","ph_qual","TrackDist"
"S",3,31,2024,489,82417,41.3671591842491,-71.242261814038,196,460,1,"-","",5,"","",2,3,"C","1","","","","","","","","","","","","","","","","","","","","","","","","","","","","",107.2,1000,100,"","","","","","","","","","","ON WATCH - ","","",0.0275340503
"X",3,31,2024,490,82418,41.366645,-71.2424583333333,195,458,1,"-","",5,"","",2,3,"C","","","","","","","","","","","","","","","","","","","","","","","","","","","","","",107.8,1000,100,"","","","","","","","","","","","","",0.0596507939
"X",3,31,2024,491,82420,41.36567,-71.2427833333333,193,457,1,"-","",5,"","",2,3,"C","","","","","","","","","","","","","","","","","","","","","","","","","","","","","",108.8,1000,100,"","","","","","","","","","","","","",0.0603434539
"X",3,31,2024,492,82422,41.3646833333333,-71.24308,193,455,1,"-","",5,"","",2,3,"C","","","","","","","","","","","","","","","","","","","","","","","","","","","","","",108.9,1000,100,"","","","","","","","","","","","","",0.0607295228
"X",3,31,2024,493,82424,41.3636816666667,-71.24336,192,453,1,"-","",5,"","",2,3,"C","","","","","","","","","","","","","","","","","","","","","","","","","","","","","",110.4,1000,100,"","","","","","","","","","","","","",0.0614498106
"X",3,31,2024,494,82426,41.362675,-71.2436283333333,191,452,1,"-","",5,"","",2,3,"C","","","","","","","","","","","","","","","","","","","","","","","","","","","","","",110.8,1000,100,"","","","","","","","","","","","","",0.0616384013
"X",3,31,2024,495,82428,41.3616683333333,-71.24389,191,456,1,"-","",5,"","",2,3,"C","","","","","","","","","","","","","","","","","","","","","","","","","","","","","",109.6,1000,100,"","","","","","","","","","","","","",0.0615802072
"X",3,31,2024,496,82430,41.3606833333333,-71.244145,191,462,1,"-","",5,"","",2,3,"C","","","","","","","","","","","","","","","","","","","","","","","","","","","","","",107.7,1000,100,"","","","","","","","","","","","","",0.0602459275
"X",3,31,2024,497,82432,41.3597116666667,-71.24439,191,468,1,"-","",5,"","",2,3,"C","","","","","","","","","","","","","","","","","","","","","","","","","","","","","",106.7,1000,100,"","","","","","","","","","","","","",0.0593748681
"X",3,31,2024,498,82434,41.3587516666667,-71.2446183333333,190,471,1,"-","",5,"","",2,3,"C","","","","","","","","","","","","","","","","","","","","","","","","","","","","","",104.9,1000,100,"","","","","","","","","","","","","",0.0585501304
"X",3,31,2024,499,82436,41.3577916666667,-71.244835,189,472,1,"-","",5,"","",2,3,"C","","","","","","","","","","","","","","","","","","","","","","","","","","","","","",105.5,1000,100,"","","","","","","","","","","","","",0.0584600457
"X",3,31,2024,500,82438,41.3568266666667,-71.2450383333333,189,470,1,"-","",5,"","",2,3,"C","","","","","","","","","","","","","","","","","","","","","","","","","","","","","",105.9,1000,100,"","","","","","","","","","","","","",0.0586592101
"X",3,31,2024,501,82440,41.3558516666667,-71.2452283333333,188,467,1,"-","",5,"","",2,3,"C","","","","","","","","","","","","","","","","","","","","","","","","","","","","","",106.8,1000,100,"","","","","","","","","","","","","",0.0591623857
"X",3,31,2024,502,82442,41.3548683333333,-71.245425,189,464,1,"-","",5,"","",2,3,"C","","","","","","","","","","","","","","","","","","","","","","","","","","","","","",107.4,1000,100,"","","","","","","","","","","","","",0.0597013828
"X",3,31,2024,503,82444,41.35387,-71.2456333333333,189,461,1,"-","",5,"","",2,3,"C","","","","","","","","","","","","","","","","","","","","","","","","","","","","","",109.2,1000,100,"","","","","","","","","","","","","",0.060671321
"X",3,31,2024,504,82446,41.3528683333333,-71.2458416666667,189,461,1,"-","",5,"","",2,3,"C","","","","","","","","","","","","","","","","","","","","","","","","","","","","","",109.5,1000,100,"","","","","","","","","","","","","",0.0608690749
"X",3,31,2024,505,82448,41.3518666666667,-71.24604,188,462,1,"-","",5,"","",2,3,"C","","","","","","","","","","","","","","","","","","","","","","","","","","","","","",109.4,1000,100,"","","","","","","","","","","","","",0.0608012035
"X",3,31,2024,506,82450,41.350865,-71.24623,188,464,1,"-","",5,"","",2,3,"C","","","","","","","","","","","","","","","","","","","","","","","","","","","","","",108.8,1000,100,"","","","","","","","","","","","","",0.0607471405
"X",3,31,2024,507,82452,41.3498733333333,-71.2464183333333,188,466,1,"-","",5,"","",2,3,"C","","","","","","","","","","","","","","","","","","","","","","","","","","","","","",108,1000,100,"","","","","","","","","","","","","",0.0601421615
"X",3,31,2024,508,82454,41.34888,-71.2466033333333,188,466,1,"-","",5,"","",2,3,"C","","","","","","","","","","","","","","","","","","","","","","","","","","","","","",107.9,1000,100,"","","","","","","","","","","","","",0.0602202605
"X",3,31,2024,509,82456,41.34789,-71.2467933333333,188,464,1,"-","",5,"","",2,3,"C","","","","","","","","","","","","","","","","","","","","","","","","","","","","","",108.8,1000,100,"","","","","","","","","","","","","",0.0600538004
"X",3,31,2024,510,82458,41.3468883333333,-71.2469883333333,188,462,1,"-","",5,"","",2,3,"C","","","","","","","","","","","","","","","","","","","","","","","","","","","","","",109.7,1000,100,"","","","","","","","","","","","","",0.0607793953
"S",3,31,2024,511,82459,41.3461566481765,-71.2471329834166,188,461,1,"-","",5,"","",2,3,"C","2","","","MV-C","1","","","1","9","0","","","","","","","","","","","","","","","","","","","",110.2,1000,100,"","","","","","","","","","","","","",0.0444119054
"X",3,31,2024,512,82500,41.3458766666667,-71.2471883333333,188,460,1,"-","",5,"","",2,3,"C","","","","","","","","","","","","","","","","","","","","","","","","","","","","","",110.4,1000,100,"","","","","","","","","","","","","",0.0614062507
"X",3,31,2024,513,82502,41.34486,-71.2473833333333,188,459,1,"-","",5,"","",2,3,"C","","","","","","","","","","","","","","","","","","","","","","","","","","","","","",110.7,1000,100,"","","","","","","","","","","","","",0.061670712
"X",3,31,2024,514,82504,41.3438383333333,-71.24757,188,458,1,"-","",5,"","",2,3,"C","","","","","","","","","","","","","","","","","","","","","","","","","","","","","",111.4,1000,100,"","","","","","","","","","","","","",0.0619157199
"X",3,31,2024,515,82506,41.3428166666667,-71.2477483333333,187,458,1,"-","",5,"","",2,3,"C","","","","","","","","","","","","","","","","","","","","","","","","","","","","","",111.2,1000,100,"","","","","","","","","","","","","",0.0618658089
"X",3,31,2024,516,82508,41.341795,-71.247905,186,460,1,"-","",5,"","",2,3,"C","","","","","","","","","","","","","","","","","","","","","","","","","","","","","",110.9,1000,100,"","","","","","","","","","","","","",0.0617465132
"X",3,31,2024,517,82510,41.3407766666667,-71.2480333333333,185,461,1,"-","",5,"","",2,3,"C","","","","","","","","","","","","","","","","","","","","","","","","","","","","","",110.2,1000,100,"","","","","","","","","","","","","",0.0614142659
"X",3,31,2024,518,82512,41.3397616666667,-71.2481516666667,185,463,1,"-","",5,"","",2,3,"C","","","","","","","","","","","","","","","","","","","","","","","","","","","","","",110,1000,100,"","","","","","","","","","","","","",0.0611740776
"X",3,31,2024,519,82514,41.338755,-71.2482783333333,186,465,1,"-","",5,"","",2,3,"C","","","","","","","","","","","","","","","","","","","","","","","","","","","","","",108.9,1000,100,"","","","","","","","","","","","","",0.0607098489
"X",3,31,2024,520,82516,41.337755,-71.2484183333333,186,468,1,"-","",5,"","",2,3,"C","","","","","","","","","","","","","","","","","","","","","","","","","","","","","",108.3,1000,100,"","","","","","","","","","","","","",0.060371246
"X",3,31,2024,521,82518,41.33676,-71.24857,187,469,1,"-","",5,"","",2,3,"C","","","","","","","","","","","","","","","","","","","","","","","","","","","","","",107.8,1000,100,"","","","","","","","","","","","","",0.060130237
"X",3,31,2024,522,82520,41.335765,-71.2487233333333,186,468,1,"-","",5,"","",2,3,"C","","","","","","","","","","","","","","","","","","","","","","","","","","","","","",108.4,1000,100,"","","","","","","","","","","","","",0.0601388388
"X",3,31,2024,523,82522,41.33476,-71.248865,186,465,1,"-","",5,"","",2,3,"C","","","","","","","","","","","","","","","","","","","","","","","","","","","","","",109.2,1000,100,"","","","","","","","","","","","","",0.0606777041
"X",3,31,2024,524,82524,41.3337433333333,-71.24898,184,461,1,"-","",5,"","",2,3,"C","","","","","","","","","","","","","","","","","","","","","","","","","","","","","",110.3,1000,100,"","","","","","","","","","","","","",0.0612609067
"X",3,31,2024,525,82526,41.3327183333333,-71.249065,183,457,1,"-","",5,"","",2,3,"C","","","","","","","","","","","","","","","","","","","","","","","","","","","","","",111.2,1000,100,"","","","","","","","","","","","","",0.0616606614
"X",3,31,2024,526,82528,41.331685,-71.24912,182,453,1,"-","",5,"","",2,3,"C","","","","","","","","","","","","","","","","","","","","","","","","","","","","","",112.3,1000,100,"","","","","","","","","","","","","",0.0620913373
"S",3,31,2024,527,82529,41.331301307487,-71.2491316271639,182,453,2,"1","6",5,"2","1",2,3,"C","3","","","","","","","","","","","","","","","","","","","","","","","","","","","","",112.6,1000,100,"","","","","","","","","","","ON TRACK - ","","",0.0230430372
"X",3,31,2024,528,82530,41.33064,-71.2491516666667,181,451,2,"2","6",5,"2","1",2,3,"C","","","","","","","","","","","","","","","","","","","","","","","","","","","","","",113,1000,100,"","","","","","","","","","","","","",0.0627585189
"X",3,31,2024,529,82532,41.3295883333333,-71.24918,181,450,2,"2","6",5,"2","1",2,3,"C","","","","","","","","","","","","","","","","","","","","","","","","","","","","","",113.3,1000,100,"","","","","","","","","","","","","",0.0631554677
"X",3,31,2024,530,82534,41.3285383333333,-71.2492133333333,181,452,2,"2","6",5,"2","1",2,3,"C","","","","","","","","","","","","","","","","","","","","","","","","","","","","","",112.7,1000,100,"","","","","","","","","","","","","",0.063060391
"X",3,31,2024,531,82536,41.3274983333333,-71.24925,182,454,2,"1","6",5,"2","1",2,3,"C","","","","","","","","","","","","","","","","","","","","","","","","","","","","","",111.9,1000,100,"","","","","","","","","","","","","",0.062463956
"X",3,31,2024,532,82538,41.3265524409512,-71.2492774614286,181,457,2,"2","6",5,"2","1",2,3,"C","","","","","","","","","","","","","","","","","","","","","","","","","","","","","",111,1000,100,"","","","","","","","","","","","","",0.0568053066
"X",3,31,2024,533,82538,41.326465,-71.24928,181,458,2,"2","6",5,"2","1",2,3,"C","","","","","","","","","","","","","","","","","","","","","","","","","","","","","",110.9,1000,100,"","","","","","","","","","","","","",0.0620565489
"X",3,31,2024,534,82540,41.3254416666667,-71.2492983333333,181,461,2,"2","6",5,"2","1",2,3,"C","","","","","","","","","","","","","","","","","","","","","","","","","","","","","",109.9,1000,100,"","","","","","","","","","","","","",0.0614469615
"X",3,31,2024,535,82542,41.3244266666667,-71.2493083333333,180,463,2,"2","6",5,"2","1",2,3,"C","","","","","","","","","","","","","","","","","","","","","","","","","","","","","",109.2,1000,100,"","","","","","","","","","","","","",0.060942732
"X",3,31,2024,536,82544,41.3234116666667,-71.2493216666667,181,462,2,"2","6",5,"2","1",2,3,"C","","","","","","","","","","","","","","","","","","","","","","","","","","","","","",109.9,1000,100,"","","","","","","","","","","","","",0.0609440294
"X",3,31,2024,537,82546,41.32239,-71.2493316666667,180,461,2,"2","6",5,"2","1",2,3,"C","","","","","","","","","","","","","","","","","","","","","","","","","","","","","",110.7,1000,100,"","","","","","","","","","","","","",0.0613429909
"X",3,31,2024,538,82548,41.3213583333333,-71.24934,180,459,2,"2","6",5,"2","1",2,3,"C","","","","","","","","","","","","","","","","","","","","","","","","","","","","","",111.2,1000,100,"","","","","","","","","","","","","",0.061942878
"X",3,31,2024,539,82550,41.3203233333333,-71.24935,181,458,2,"2","6",5,"2","1",2,3,"C","","","","","","","","","","","","","","","","","","","","","","","","","","","","","",111.7,1000,100,"","","","","","","","","","","","","",0.0621435091
"X",3,31,2024,540,82552,41.3192883333333,-71.2493666666667,181,458,2,"2","6",5,"2","1",2,3,"C","","","","","","","","","","","","","","","","","","","","","","","","","","","","","",111.7,1000,100,"","","","","","","","","","","","","",0.0621464176
"X",3,31,2024,541,82554,41.3182533333333,-71.24939,181,459,2,"2","6",5,"2","1",2,3,"C","","","","","","","","","","","","","","","","","","","","","","","","","","","","","",111.6,1000,100,"","","","","","","","","","","","","",0.0621507801
"X",3,31,2024,542,82554,41.3182533333333,-71.24939,181,459,2,"2","6",5,"2","1",2,3,"C","","","","","","","","","","","","","","","","","","","","","","","","","","","","","",111.6,1000,100,"","","","","","","","","","","","","",0
"X",3,31,2024,543,82556,41.3172216666667,-71.24942,181,461,2,"2","6",5,"2","1",2,3,"C","","","","","","","","","","","","","","","","","","","","","","","","","","","","","",111,1000,100,"","","","","","","","","","","","","",0.0619565094
"X",3,31,2024,544,82558,41.3161983333333,-71.2494533333333,181,462,2,"2","6",5,"2","1",2,3,"C","","","","","","","","","","","","","","","","","","","","","","","","","","","","","",110.4,1000,100,"","","","","","","","","","","","","",0.0614597857
"X",3,31,2024,545,82600,41.3151766666667,-71.2494916666667,182,464,2,"2","6",5,"2","1",2,3,"C","","","","","","","","","","","","","","","","","","","","","","","","","","","","","",109.9,1000,100,"","","","","","","","","","","","","",0.0613656865
"X",3,31,2024,546,82602,41.31416,-71.2495383333333,182,466,2,"2","6",5,"2","1",2,3,"C","","","","","","","","","","","","","","","","","","","","","","","","","","","","","",110,1000,100,"","","","","","","","","","","","","",0.0610773983
"X",3,31,2024,547,82604,41.3131483333333,-71.2495866666667,182,466,2,"2","6",5,"2","1",2,3,"C","","","","","","","","","","","","","","","","","","","","","","","","","","","","","",109.3,1000,100,"","","","","","","","","","","","","",0.0607800253
"X",3,31,2024,548,82606,41.3121383333333,-71.2496333333333,182,466,2,"2","6",5,"2","1",2,3,"C","","","","","","","","","","","","","","","","","","","","","","","","","","","","","",109.3,1000,100,"","","","","","","","","","","","","",0.0606773701
"X",3,31,2024,549,82608,41.3111266666667,-71.2496733333333,182,465,2,"2","6",5,"2","1",2,3,"C","","","","","","","","","","","","","","","","","","","","","","","","","","","","","",109.3,1000,100,"","","","","","","","","","","","","",0.0607677104
"S",3,31,2024,550,82609,41.3104224471607,-71.2496930237748,181,464,2,"2","6",5,"3","1",2,3,"C","4","","","","","","","","","","","","","","","","","","","","","","","","","","","","",109.5,1000,100,"","","","","","","","","","","","","",0.0422909853
"X",3,31,2024,551,82610,41.3101133333333,-71.2497016666667,181,464,2,"2","6",5,"3","1",2,3,"C","","","","","","","","","","","","","","","","","","","","","","","","","","","","","",109.6,1000,100,"","","","","","","","","","","","","",0.0608544135
"X",3,31,2024,552,82612,41.309095,-71.24972,181,463,2,"2","6",5,"3","1",2,3,"C","","","","","","","","","","","","","","","","","","","","","","","","","","","","","",109.7,1000,100,"","","","","","","","","","","","","",0.0611467893
"X",3,31,2024,553,82614,41.3080733333333,-71.2497316666667,180,462,2,"2","6",5,"3","1",2,3,"C","","","","","","","","","","","","","","","","","","","","","","","","","","","","","",110.4,1000,100,"","","","","","","","","","","","","",0.0613435904
"X",3,31,2024,554,82616,41.30705,-71.2497433333333,180,460,2,"2","6",5,"3","1",2,3,"C","","","","","","","","","","","","","","","","","","","","","","","","","","","","","",110.9,1000,100,"","","","","","","","","","","","","",0.0614436542
"X",3,31,2024,555,82618,41.3060216666667,-71.2497583333333,181,460,2,"2","6",5,"3","1",2,3,"C","","","","","","","","","","","","","","","","","","","","","","","","","","","","","",111,1000,100,"","","","","","","","","","","","","",0.0617453098
"X",3,31,2024,556,82620,41.30499,-71.2497833333333,181,459,2,"2","6",5,"3","1",2,3,"C","","","","","","","","","","","","","","","","","","","","","","","","","","","","","",111.3,1000,100,"","","","","","","","","","","","","",0.0619520003
"X",3,31,2024,557,82622,41.3039583333333,-71.24982,181,459,2,"2","6",5,"3","1",2,3,"C","","","","","","","","","","","","","","","","","","","","","","","","","","","","","",111,1000,100,"","","","","","","","","","","","","",0.0619638115
"X",3,31,2024,558,82624,41.3029283333333,-71.2498616666667,182,459,2,"2","6",5,"3","1",2,3,"C","","","","","","","","","","","","","","","","","","","","","","","","","","","","","",111.1,1000,100,"","","","","","","","","","","","","",0.06187022
"X",3,31,2024,559,82626,41.3019016666667,-71.2499,182,460,2,"2","6",5,"3","1",2,3,"C","","","","","","","","","","","","","","","","","","","","","","","","","","","","","",110.6,1000,100,"","","","","","","","","","","","","",0.0616657801
"X",3,31,2024,560,82628,41.30088,-71.249935,181,462,2,"2","6",5,"3","1",2,3,"C","","","","","","","","","","","","","","","","","","","","","","","","","","","","","",109.9,1000,100,"","","","","","","","","","","","","",0.0613616449
"X",3,31,2024,561,82630,41.2998616666667,-71.2499666666667,181,463,2,"2","6",5,"3","1",2,3,"C","","","","","","","","","","","","","","","","","","","","","","","","","","","","","",109.4,1000,100,"","","","","","","","","","","","","",0.0611578809
"X",3,31,2024,562,82632,41.2988533333333,-71.249995,181,464,2,"2","6",5,"3","1",2,3,"C","","","","","","","","","","","","","","","","","","","","","","","","","","","","","",109,1000,100,"","","","","","","","","","","","","",0.0605542824
"X",3,31,2024,563,82634,41.2978466666667,-71.25002,181,466,2,"2","6",5,"3","1",2,3,"C","","","","","","","","","","","","","","","","","","","","","","","","","","","","","",108.2,1000,100,"","","","","","","","","","","","","",0.0604512459
"X",3,31,2024,564,82636,41.296845,-71.2500383333333,181,466,2,"2","6",5,"3","1",2,3,"C","","","","","","","","","","","","","","","","","","","","","","","","","","","","","",108,1000,100,"","","","","","","","","","","","","",0.0601462101
"X",3,31,2024,565,82638,41.2958466666667,-71.2500466666667,180,466,2,"2","6",5,"3","1",2,3,"C","","","","","","","","","","","","","","","","","","","","","","","","","","","","","",107.8,1000,100,"","","","","","","","","","","","","",0.0599415684
"X",3,31,2024,566,82640,41.294845,-71.250045,180,465,2,"2","6",5,"3","1",2,3,"C","","","","","","","","","","","","","","","","","","","","","","","","","","","","","",108.3,1000,100,"","","","","","","","","","","","","",0.0601405716
"X",3,31,2024,567,82642,41.2938383333333,-71.2500283333333,179,463,2,"2","6",5,"3","1",2,3,"C","","","","","","","","","","","","","","","","","","","","","","","","","","","","","",108.5,1000,100,"","","","","","","","","","","","","",0.0604454028
"X",3,31,2024,568,82644,41.2928316666667,-71.2499966666667,179,460,2,"2","6",5,"3","1",2,3,"C","","","","","","","","","","","","","","","","","","","","","","","","","","","","","",109.1,1000,100,"","","","","","","","","","","","","",0.0604576059
"S",3,31,2024,569,82645,41.2921960058859,-71.2499757566515,179,459,2,"2","6",5,"3","1",2,3,"C","5","","","MV-C","1","","","1","9","0","","","","","","","","","","","","","","","","","","","",109.5,1000,100,"","","","","","","","","","","","","",0.038177019
"X",3,31,2024,570,82646,41.2918183333333,-71.2499633333333,179,459,2,"2","6",5,"3","1",2,3,"C","","","","","","","","","","","","","","","","","","","","","","","","","","","","","",109.8,1000,100,"","","","","","","","","","","","","",0.0608595764
"X",3,31,2024,571,82648,41.2908,-71.2499383333333,179,458,2,"2","6",5,"3","1",2,3,"C","","","","","","","","","","","","","","","","","","","","","","","","","","","","","",109.8,1000,100,"","","","","","","","","","","","","",0.0611515997
"X",3,31,2024,572,82650,41.28978,-71.2499216666667,179,457,2,"2","6",5,"3","1",2,3,"C","","","","","","","","","","","","","","","","","","","","","","","","","","","","","",110.1,1000,100,"","","","","","","","","","","","","",0.0612458817
"X",3,31,2024,573,82652,41.2887583333333,-71.2499066666667,179,456,2,"2","6",5,"3","1",2,3,"C","","","","","","","","","","","","","","","","","","","","","","","","","","","","","",110.4,1000,100,"","","","","","","","","","","","","",0.0613450662
"X",3,31,2024,574,82654,41.287735,-71.2499033333333,180,454,2,"2","6",5,"3","1",2,3,"C","","","","","","","","","","","","","","","","","","","","","","","","","","","","","",110.8,1000,100,"","","","","","","","","","","","","",0.0614415852
"X",3,31,2024,575,82656,41.2867083333333,-71.2499083333333,180,452,2,"2","6",5,"3","1",2,3,"C","","","","","","","","","","","","","","","","","","","","","","","","","","","","","",110.9,1000,100,"","","","","","","","","","","","","",0.0616419488
"X",3,31,2024,576,82658,41.2856783333333,-71.2499216666667,180,451,2,"2","6",5,"3","1",2,3,"C","","","","","","","","","","","","","","","","","","","","","","","","","","","","","",110.8,1000,100,"","","","","","","","","","","","","",0.0618445965
"X",3,31,2024,577,82700,41.28465,-71.2499366666667,181,450,2,"2","6",5,"3","1",2,3,"C","","","","","","","","","","","","","","","","","","","","","","","","","","","","","",111.1,1000,100,"","","","","","","","","","","","","",0.0617453122
"X",3,31,2024,578,82702,41.2836233333333,-71.2499483333333,180,451,2,"2","6",5,"3","1",2,3,"C","","","","","","","","","","","","","","","","","","","","","","","","","","","","","",110.7,1000,100,"","","","","","","","","","","","","",0.0616437833
"X",3,31,2024,579,82704,41.2826033333333,-71.2499566666667,181,452,2,"2","6",5,"3","1",2,3,"C","","","","","","","","","","","","","","","","","","","","","","","","","","","","","",110,1000,100,"","","","","","","","","","","","","",0.0612424204
"X",3,31,2024,580,82706,41.281585,-71.249965,180,451,2,"2","6",5,"3","1",2,3,"C","","","","","","","","","","","","","","","","","","","","","","","","","","","","","",109.8,1000,100,"","","","","","","","","","","","","",0.0611423549
"X",3,31,2024,581,82708,41.280565,-71.2499716666667,180,449,2,"2","6",5,"3","1",2,3,"C","","","","","","","","","","","","","","","","","","","","","","","","","","","","","",110.4,1000,100,"","","","","","","","","","","","","",0.061242005
"X",3,31,2024,582,82710,41.2795416666667,-71.2499733333333,180,447,2,"2","6",5,"3","1",2,3,"C","","","","","","","","","","","","","","","","","","","","","","","","","","","","","",110.7,1000,100,"","","","","","","","","","","","","",0.0614414472
"X",3,31,2024,583,82712,41.2785166666667,-71.24997,180,445,2,"2","6",5,"3","1",2,3,"C","","","","","","","","","","","","","","","","","","","","","","","","","","","","","",110.7,1000,100,"","","","","","","","","","","","","",0.0615416524
"X",3,31,2024,584,82714,41.2774866666667,-71.24997,180,443,2,"2","6",5,"3","1",2,3,"C","","","","","","","","","","","","","","","","","","","","","","","","","","","","","",111,1000,100,"","","","","","","","","","","","","",0.0618416709
"X",3,31,2024,585,82716,41.2764583333333,-71.2499766666667,181,441,2,"2","6",5,"3","1",2,3,"C","","","","","","","","","","","","","","","","","","","","","","","","","","","","","",111.1,1000,100,"","","","","","","","","","","","","",0.0617423362
"X",3,31,2024,586,82718,41.2754283333333,-71.24999,181,440,2,"2","6",5,"3","1",2,3,"C","","","","","","","","","","","","","","","","","","","","","","","","","","","","","",111.1,1000,100,"","","","","","","","","","","","","",0.0618445974
"X",3,31,2024,587,82720,41.2744016666667,-71.25,181,438,2,"2","6",5,"3","1",2,3,"C","","","","","","","","","","","","","","","","","","","","","","","","","","","","","",111.1,1000,100,"","","","","","","","","","","","","",0.0616431876
"X",3,31,2024,588,82722,41.2733783333333,-71.25001,181,438,2,"2","6",5,"3","1",2,3,"C","","","","","","","","","","","","","","","","","","","","","","","","","","","","","",110.7,1000,100,"","","","","","","","","","","","","",0.0614430582
"X",3,31,2024,589,82724,41.2723583333333,-71.2500133333333,180,439,2,"2","6",5,"3","1",2,3,"C","","","","","","","","","","","","","","","","","","","","","","","","","","","","","",109.5,1000,100,"","","","","","","","","","","","","",0.061241451
"X",3,31,2024,590,82724,41.2723583333333,-71.2500133333333,180,439,2,"2","6",5,"3","1",2,3,"C","","","","","","","","","","","","","","","","","","","","","","","","","","","","","",109.5,1000,100,"","","","","","","","","","","","","",0
"X",3,31,2024,591,82726,41.27135,-71.250005,179,441,2,"2","6",5,"3","1",2,3,"C","","","","","","","","","","","","","","","","","","","","","","","","","","","","","",108.2,1000,100,"","","","","","","","","","","","","",0.0605419622
"X",3,31,2024,592,82728,41.2703533333333,-71.249985,179,443,2,"2","6",5,"3","1",2,3,"C","","","","","","","","","","","","","","","","","","","","","","","","","","","","","",106.9,1000,100,"","","","","","","","","","","","","",0.059847128
"X",3,31,2024,593,82730,41.2693716666667,-71.2499566666667,179,446,2,"2","6",5,"3","1",2,3,"C","","","","","","","","","","","","","","","","","","","","","","","","","","","","","",105.4,1000,100,"","","","","","","","","","","","","",0.0589535824
"X",3,31,2024,594,82732,41.2684016666667,-71.249935,179,448,2,"2","6",5,"3","1",2,3,"C","","","","","","","","","","","","","","","","","","","","","","","","","","","","","",104.7,1000,100,"","","","","","","","","","","","","",0.0582474506
"X",3,31,2024,595,82734,41.267445,-71.2499116666667,179,451,2,"2","6",5,"3","1",2,3,"C","","","","","","","","","","","","","","","","","","","","","","","","","","","","","",102.8,1000,100,"","","","","","","","","","","","","",0.0574483552
"X",3,31,2024,596,82736,41.2664983333333,-71.249885,179,452,2,"2","6",5,"3","1",2,3,"C","","","","","","","","","","","","","","","","","","","","","","","","","","","","","",101.8,1000,100,"","","","","","","","","","","","","",0.0568510383
"X",3,31,2024,597,82738,41.2655583333333,-71.2498533333333,178,453,2,"2","6",5,"3","1",2,3,"C","","","","","","","","","","","","","","","","","","","","","","","","","","","","","",101.4,1000,100,"","","","","","","","","","","","","",0.0564561206
"X",3,31,2024,598,82740,41.2646233333333,-71.2498166666667,178,453,2,"2","6",5,"3","1",2,3,"C","","","","","","","","","","","","","","","","","","","","","","","","","","","","","",100.8,1000,100,"","","","","","","","","","","","","",0.0561622112
"X",3,31,2024,599,82742,41.2636916666667,-71.2497833333333,178,454,2,"2","6",5,"3","1",2,3,"C","","","","","","","","","","","","","","","","","","","","","","","","","","","","","",100.7,1000,100,"","","","","","","","","","","","","",0.0559579179
"X",3,31,2024,600,82744,41.262765,-71.2497616666667,179,454,2,"2","6",5,"3","1",2,3,"C","","","","","","","","","","","","","","","","","","","","","","","","","","","","","",99.8,1000,100,"","","","","","","","","","","","","",0.0556460827
"X",3,31,2024,601,82746,41.26184,-71.2497516666667,180,455,2,"2","6",5,"3","1",2,3,"C","","","","","","","","","","","","","","","","","","","","","","","","","","","","","",99.5,1000,100,"","","","","","","","","","","","","",0.0555392567
"X",3,31,2024,602,82748,41.2609183333333,-71.2497466666667,180,454,2,"2","6",5,"3","1",2,3,"C","","","","","","","","","","","","","","","","","","","","","","","","","","","","","",99.4,1000,100,"","","","","","","","","","","","","",0.0553377481
"X",3,31,2024,603,82750,41.2599966666667,-71.2497466666667,180,454,2,"2","6",5,"3","1",2,3,"C","","","","","","","","","","","","","","","","","","","","","","","","","","","","","",99.3,1000,100,"","","","","","","","","","","","","",0.055337288
"X",3,31,2024,604,82752,41.2590766666667,-71.249745,180,453,2,"2","6",5,"3","1",2,3,"C","","","","","","","","","","","","","","","","","","","","","","","","","","","","","",99.3,1000,100,"","","","","","","","","","","","","",0.0552372718
"X",3,31,2024,605,82754,41.2581566666667,-71.2497383333333,180,452,2,"2","6",5,"3","1",2,3,"C","","","","","","","","","","","","","","","","","","","","","","","","","","","","","",99.3,1000,100,"","","","","","","","","","","","","",0.0552380401
"X",3,31,2024,606,82754,41.2581566666667,-71.2497383333333,180,452,2,"2","6",5,"3","1",2,3,"C","","","","","","","","","","","","","","","","","","","","","","","","","","","","","",99.3,1000,100,"","","","","","","","","","","","","",0
"X",3,31,2024,607,82756,41.257235,-71.24973,180,451,2,"2","6",5,"3","1",2,3,"C","","","","","","","","","","","","","","","","","","","","","","","","","","","","","",99.4,1000,100,"","","","","","","","","","","","","",0.0553385663
"X",3,31,2024,608,82758,41.2563116666667,-71.24973,180,450,2,"2","6",5,"3","1",2,3,"C","","","","","","","","","","","","","","","","","","","","","","","","","","","","","",99.6,1000,100,"","","","","","","","","","","","","",0.0554373554
"X",3,31,2024,609,82800,41.25539,-71.2497383333333,180,450,2,"2","6",5,"3","1",2,3,"C","","","","","","","","","","","","","","","","","","","","","","","","","","","","","",99.6,1000,100,"","","","","","","","","","","","","",0.0553385663
"X",3,31,2024,610,82802,41.2544683333333,-71.24975,181,449,2,"2","6",5,"3","1",2,3,"C","","","","","","","","","","","","","","","","","","","","","","","","","","","","","",99.4,1000,100,"","","","","","","","","","","","","",0.0553397936
"X",3,31,2024,611,82804,41.2535516666667,-71.2497716666667,181,449,2,"2","6",5,"3","1",2,3,"C","","","","","","","","","","","","","","","","","","","","","","","","","","","","","",98.9,1000,100,"","","","","","","","","","","","","",0.0550457743
"X",3,31,2024,612,82806,41.2526333333333,-71.2497966666667,181,449,2,"2","6",5,"3","1",2,3,"C","","","","","","","","","","","","","","","","","","","","","","","","","","","","","",99.5,1000,100,"","","","","","","","","","","","","",0.0551486998
"X",3,31,2024,613,82808,41.2517183333333,-71.2498283333333,182,449,2,"2","6",5,"3","1",2,3,"C","","","","","","","","","","","","","","","","","","","","","","","","","","","","","",98.6,1000,100,"","","","","","","","","","","","","",0.0549556111
"X",3,31,2024,614,82810,41.2508066666667,-71.2498716666667,182,448,2,"2","6",5,"3","1",2,3,"C","","","","","","","","","","","","","","","","","","","","","","","","","","","","","",98.3,1000,100,"","","","","","","","","","","","","",0.054771823
"X",3,31,2024,615,82812,41.2498966666667,-71.24993,183,447,2,"2","6",5,"3","1",2,3,"C","","","","","","","","","","","","","","","","","","","","","","","","","","","","","",98.3,1000,100,"","","","","","","","","","","","","",0.0547002322
"X",3,31,2024,616,82814,41.2489866666667,-71.2500033333333,184,446,2,"2","6",5,"3","1",2,3,"C","","","","","","","","","","","","","","","","","","","","","","","","","","","","","",98.7,1000,100,"","","","","","","","","","","","","",0.0547370086
"X",3,31,2024,617,82816,41.24808,-71.25008,183,447,2,"2","6",5,"3","1",2,3,"C","","","","","","","","","","","","","","","","","","","","","","","","","","","","","",97.4,1000,100,"","","","","","","","","","","","","",0.0545465846
"X",3,31,2024,618,82818,41.247185,-71.2501433333333,182,450,2,"2","6",5,"3","1",2,3,"C","","","","","","","","","","","","","","","","","","","","","","","","","","","","","",96.3,1000,100,"","","","","","","","","","","","","",0.0538122122
"X",3,31,2024,619,82820,41.2463016666667,-71.250185,182,452,2,"2","6",5,"3","1",2,3,"C","","","","","","","","","","","","","","","","","","","","","","","","","","","","","",94.7,1000,100,"","","","","","","","","","","","","",0.0530690817
"X",3,31,2024,620,82822,41.24543,-71.2502133333333,181,454,2,"2","6",5,"3","1",2,3,"C","","","","","","","","","","","","","","","","","","","","","","","","","","","","","",93.8,1000,100,"","","","","","","","","","","","","",0.052350893
"X",3,31,2024,621,82824,41.244555,-71.2502316666667,181,454,2,"2","6",5,"3","1",2,3,"C","","","","","","","","","","","","","","","","","","","","","","","","","","","","","",93.8,1000,100,"","","","","","","","","","","","","",0.052541919
"X",3,31,2024,622,82824,41.244555,-71.2502316666667,181,454,2,"2","6",5,"3","1",2,3,"C","","","","","","","","","","","","","","","","","","","","","","","","","","","","","",93.8,1000,100,"","","","","","","","","","","","","",0
"X",3,31,2024,623,82826,41.2436733333333,-71.2502433333333,180,453,2,"2","6",5,"3","1",2,3,"C","","","","","","","","","","","","","","","","","","","","","","","","","","","","","",95.4,1000,100,"","","","","","","","","","","","","",0.0529382898
"X",3,31,2024,624,82828,41.2427833333333,-71.25025,180,450,2,"2","6",5,"3","1",2,3,"C","","","","","","","","","","","","","","","","","","","","","","","","","","","","","",96.7,1000,100,"","","","","","","","","","","","","",0.0534368544
"X",3,31,2024,625,82830,41.24188,-71.2502633333333,181,447,2,"2","6",5,"3","1",2,3,"C","","","","","","","","","","","","","","","","","","","","","","","","","","","","","",98.4,1000,100,"","","","","","","","","","","","","",0.0542398866
"X",3,31,2024,626,82832,41.2409616666667,-71.250275,180,443,2,"2","6",5,"3","1",2,3,"C","","","","","","","","","","","","","","","","","","","","","","","","","","","","","",98.9,1000,100,"","","","","","","","","","","","","",0.0551396689
"X",3,31,2024,627,82834,41.240035,-71.2503,181,441,2,"2","6",5,"3","1",2,3,"C","","","","","","","","","","","","","","","","","","","","","","","","","","","","","",100.5,1000,100,"","","","","","","","","","","","","",0.0556489376
"X",3,31,2024,628,82836,41.2391016666667,-71.2503366666667,182,440,2,"2","6",5,"3","1",2,3,"C","","","","","","","","","","","","","","","","","","","","","","","","","","","","","",100.7,1000,100,"","","","","","","","","","","","","",0.0560622064
"X",3,31,2024,629,82838,41.238165,-71.2503783333333,182,440,2,"2","6",5,"3","1",2,3,"C","","","","","","","","","","","","","","","","","","","","","","","","","","","","","",101,1000,100,"","","","","","","","","","","","","",0.0562693497
"X",3,31,2024,630,82840,41.2372283333333,-71.2504233333333,182,441,2,"2","6",5,"3","1",2,3,"C","","","","","","","","","","","","","","","","","","","","","","","","","","","","","",100.9,1000,100,"","","","","","","","","","","","","",0.0562745831
"X",3,31,2024,631,82842,41.2362933333333,-71.25045,181,442,2,"2","6",5,"3","1",2,3,"C","","","","","","","","","","","","","","","","","","","","","","","","","","","","","",100.9,1000,100,"","","","","","","","","","","","","",0.0561507371
"X",3,31,2024,632,82844,41.2353683333333,-71.2504566666667,180,445,2,"2","6",5,"3","1",2,3,"C","","","","","","","","","","","","","","","","","","","","","","","","","","","","","",99.5,1000,100,"","","","","","","","","","","","","",0.0555382386
"X",3,31,2024,633,82846,41.2344483333333,-71.250445,179,448,2,"2","6",5,"3","1",2,3,"C","","","","","","","","","","","","","","","","","","","","","","","","","","","","","",98.7,1000,100,"","","","","","","","","","","","","",0.0552397322
"X",3,31,2024,634,82848,41.2335333333333,-71.2504316666667,180,449,2,"2","6",5,"3","1",2,3,"C","","","","","","","","","","","","","","","","","","","","","","","","","","","","","",98.6,1000,100,"","","","","","","","","","","","","",0.0549403168
"X",3,31,2024,635,82850,41.23262,-71.2504283333333,180,449,2,"2","6",5,"3","1",2,3,"C","","","","","","","","","","","","","","","","","","","","","","","","","","","","","",98.6,1000,100,"","","","","","","","","","","","","",0.0548371574
"X",3,31,2024,636,82852,41.231705,-71.2504266666667,180,448,2,"2","6",5,"3","1",2,3,"C","","","","","","","","","","","","","","","","","","","","","","","","","","","","","",98.8,1000,100,"","","","","","","","","","","","","",0.0549370698
"X",3,31,2024,637,82854,41.2307833333333,-71.2504233333333,180,447,2,"2","6",5,"3","1",2,3,"C","","","","","","","","","","","","","","","","","","","","","","","","","","","","","",99.8,1000,100,"","","","","","","","","","","","","",0.0553374927
"X",3,31,2024,638,82856,41.2298633333333,-71.2504216666667,180,448,2,"2","6",5,"3","1",2,3,"C","","","","","","","","","","","","","","","","","","","","","","","","","","","","","",99.2,1000,100,"","","","","","","","","","","","","",0.0552372718
"X",3,31,2024,639,82858,41.228945,-71.250425,180,449,2,"2","6",5,"3","1",2,3,"C","","","","","","","","","","","","","","","","","","","","","","","","","","","","","",99,1000,100,"","","","","","","","","","","","","",0.0551373586
"X",3,31,2024,640,82900,41.2280333333333,-71.2504316666667,180,451,2,"2","6",5,"3","1",2,3,"C","","","","","","","","","","","","","","","","","","","","","","","","","","","","","",98.3,1000,100,"","","","","","","","","","","","","",0.0547377112
"X",3,31,2024,641,82902,41.2271233333333,-71.2504316666667,180,452,2,"2","6",5,"3","1",2,3,"C","","","","","","","","","","","","","","","","","","","","","","","","","","","","","",98,1000,100,"","","","","","","","","","","","","",0.054636816
"X",3,31,2024,642,82904,41.2262166666667,-71.250415,179,453,2,"2","6",5,"3","1",2,3,"C","","","","","","","","","","","","","","","","","","","","","","","","","","","","","",98,1000,100,"","","","","","","","","","","","","",0.0544418836
"X",3,31,2024,643,82906,41.2253066666667,-71.25038,178,452,2,"2","6",5,"3","1",2,3,"C","","","","","","","","","","","","","","","","","","","","","","","","","","","","","",98.6,1000,100,"","","","","","","","","","","","","",0.0546596715
"X",3,31,2024,644,82908,41.2243933333333,-71.2503333333333,178,450,2,"2","6",5,"3","1",2,3,"C","","","","","","","","","","","","","","","","","","","","","","","","","","","","","",99.1,1000,100,"","","","","","","","","","","","","",0.0548774292
"X",3,31,2024,645,82910,41.223475,-71.2502783333333,177,449,2,"2","6",5,"3","1",2,3,"C","","","","","","","","","","","","","","","","","","","","","","","","","","","","","",99.6,1000,100,"","","","","","","","","","","","","",0.0551930665
"X",3,31,2024,646,82912,41.22255,-71.2502266666667,178,448,2,"2","6",5,"3","1",2,3,"C","","","","","","","","","","","","","","","","","","","","","","","","","","","","","",100,1000,100,"","","","","","","","","","","","","",0.0555864133
"X",3,31,2024,647,82914,41.221625,-71.2501866666667,179,449,2,"2","6",5,"3","1",2,3,"C","","","","","","","","","","","","","","","","","","","","","","","","","","","","","",100,1000,100,"","","","","","","","","","","","","",0.0555667925
"X",3,31,2024,648,82916,41.2207016666667,-71.2501633333333,179,450,2,"2","6",5,"3","1",2,3,"C","","","","","","","","","","","","","","","","","","","","","","","","","","","","","",99.7,1000,100,"","","","","","","","","","","","","",0.0554473693
"X",3,31,2024,649,82918,41.2197816666667,-71.2501566666667,180,453,2,"2","6",5,"3","1",2,3,"C","","","","","","","","","","","","","","","","","","","","","","","","","","","","","",98.8,1000,100,"","","","","","","","","","","","","",0.0552380411
"X",3,31,2024,650,82920,41.2188733333333,-71.2501583333333,180,455,2,"2","6",5,"3","1",2,3,"C","","","","","","","","","","","","","","","","","","","","","","","","","","","","","",97.7,1000,100,"","","","","","","","","","","","","",0.0545368005
"X",3,31,2024,651,82922,41.2179666666667,-71.2501683333333,180,456,2,"2","6",5,"3","1",2,3,"C","","","","","","","","","","","","","","","","","","","","","","","","","","","","","",98.2,1000,100,"","","","","","","","","","","","","",0.0544385545
"X",3,31,2024,652,82924,41.21706,-71.2501783333333,180,457,2,"2","6",5,"3","1",2,3,"C","","","","","","","","","","","","","","","","","","","","","","","","","","","","","",97.4,1000,100,"","","","","","","","","","","","","",0.0544385546
"X",3,31,2024,653,82924,41.21706,-71.2501783333333,180,457,2,"2","6",5,"3","1",2,3,"C","","","","","","","","","","","","","","","","","","","","","","","","","","","","","",97.4,1000,100,"","","","","","","","","","","","","",0
"X",3,31,2024,654,82926,41.2161583333333,-71.2501783333333,180,458,2,"2","6",5,"3","1",2,3,"C","","","","","","","","","","","","","","","","","","","","","","","","","","","","","",97.2,1000,100,"","","","","","","","","","","","","",0.0541364789
"X",3,31,2024,655,82928,41.2152566666667,-71.2501716666667,180,457,2,"2","6",5,"3","1",2,3,"C","","","","","","","","","","","","","","","","","","","","","","","","","","","","","",97.3,1000,100,"","","","","","","","","","","","","",0.0541373162
"X",3,31,2024,656,82930,41.214355,-71.25016,179,457,2,"2","6",5,"3","1",2,3,"C","","","","","","","","","","","","","","","","","","","","","","","","","","","","","",97.5,1000,100,"","","","","","","","","","","","","",0.0541390432
"X",3,31,2024,657,82932,41.21345,-71.2501466666667,179,457,2,"2","6",5,"3","1",2,3,"C","","","","","","","","","","","","","","","","","","","","","","","","","","","","","",97.7,1000,100,"","","","","","","","","","","","","",0.0543399507
"X",3,31,2024,658,82934,41.2125416666667,-71.2501383333333,180,455,2,"2","6",5,"3","1",2,3,"C","","","","","","","","","","","","","","","","","","","","","","","","","","","","","",98.3,1000,100,"","","","","","","","","","","","","",0.0545380474
"X",3,31,2024,659,82936,41.2116266666667,-71.2501383333333,180,453,2,"2","6",5,"3","1",2,3,"C","","","","","","","","","","","","","","","","","","","","","","","","","","","","","",99.4,1000,100,"","","","","","","","","","","","","",0.0549370183
"X",3,31,2024,660,82938,41.2107016666667,-71.2501416666667,180,451,2,"2","6",5,"3","1",2,3,"C","","","","","","","","","","","","","","","","","","","","","","","","","","","","","",100.1,1000,100,"","","","","","","","","","","","","",0.0555376269
"X",3,31,2024,661,82940,41.2097733333333,-71.2501466666667,180,451,2,"2","6",5,"3","1",2,3,"C","","","","","","","","","","","","","","","","","","","","","","","","","","","","","",100.2,1000,100,"","","","","","","","","","","","","",0.0557380153
"X",3,31,2024,662,82942,41.2088466666667,-71.2501433333333,180,452,2,"2","6",5,"3","1",2,3,"C","","","","","","","","","","","","","","","","","","","","","","","","","","","","","",100.1,1000,100,"","","","","","","","","","","","","",0.055637694
"X",3,31,2024,663,82944,41.207925,-71.250135,179,454,2,"2","6",5,"3","1",2,3,"C","","","","","","","","","","","","","","","","","","","","","","","","","","","","","",99.4,1000,100,"","","","","","","","","","","","","",0.0553385682
"X",3,31,2024,664,82946,41.207005,-71.25012,179,456,2,"2","6",5,"3","1",2,3,"C","","","","","","","","","","","","","","","","","","","","","","","","","","","","","",99.5,1000,100,"","","","","","","","","","","","","",0.0552413759
"X",3,31,2024,665,82948,41.2060883333333,-71.25011,180,458,2,"2","6",5,"3","1",2,3,"C","","","","","","","","","","","","","","","","","","","","","","","","","","","","","",98.8,1000,100,"","","","","","","","","","","","","",0.0550389394
"X",3,31,2024,666,82950,41.2051733333333,-71.2501033333333,180,459,2,"2","6",5,"3","1",2,3,"C","","","","","","","","","","","","","","","","","","","","","","","","","","","","","",98.8,1000,100,"","","","","","","","","","","","","",0.0549378437
"X",3,31,2024,667,82952,41.2042583333333,-71.2501,180,460,2,"2","6",5,"3","1",2,3,"C","","","","","","","","","","","","","","","","","","","","","","","","","","","","","",98.8,1000,100,"","","","","","","","","","","","","",0.0549372246
"X",3,31,2024,668,82954,41.20334,-71.2501033333333,180,460,2,"2","6",5,"3","1",2,3,"C","","","","","","","","","","","","","","","","","","","","","","","","","","","","","",99.2,1000,100,"","","","","","","","","","","","","",0.0551373588
"X",3,31,2024,669,82956,41.20242,-71.2501066666667,180,460,2,"2","6",5,"3","1",2,3,"C","","","","","","","","","","","","","","","","","","","","","","","","","","","","","",99.4,1000,100,"","","","","","","","","","","","","",0.0552374258
"X",3,31,2024,670,82958,41.2014983333333,-71.2501083333333,180,460,2,"2","6",5,"3","1",2,3,"C","","","","","","","","","","","","","","","","","","","","","","","","","","","","","",99.6,1000,100,"","","","","","","","","","","","","",0.0553373392
"X",3,31,2024,671,83000,41.200575,-71.250105,180,460,2,"2","6",5,"3","1",2,3,"C","","","","","","","","","","","","","","","","","","","","","","","","","","","","","",99.9,1000,100,"","","","","","","","","","","","","",0.0554375599
"X",3,31,2024,672,83002,41.19965,-71.2500933333333,179,460,2,"2","6",5,"3","1",2,3,"C","","","","","","","","","","","","","","","","","","","","","","","","","","","","","",100,1000,100,"","","","","","","","","","","","","",0.0555399236
"X",3,31,2024,673,83004,41.1987233333333,-71.2500716666667,179,460,2,"2","6",5,"3","1",2,3,"C","","","","","","","","","","","","","","","","","","","","","","","","","","","","","",100,1000,100,"","","","","","","","","","","","","",0.0556460996
"X",3,31,2024,674,83006,41.1977983333333,-71.2500416666667,178,461,2,"2","6",5,"3","1",2,3,"C","","","","","","","","","","","","","","","","","","","","","","","","","","","","","",100.1,1000,100,"","","","","","","","","","","","","",0.0555539572
"X",3,31,2024,675,83008,41.1968733333333,-71.25001,178,462,2,"2","6",5,"3","1",2,3,"C","","","","","","","","","","","","","","","","","","","","","","","","","","","","","",99.8,1000,100,"","","","","","","","","","","","","",0.0555558456
"X",3,31,2024,676,83010,41.19595,-71.2499783333333,179,464,2,"2","6",5,"3","1",2,3,"C","","","","","","","","","","","","","","","","","","","","","","","","","","","","","",99.6,1000,100,"","","","","","","","","","","","","",0.055455812
"X",3,31,2024,677,83012,41.1950316666667,-71.2499566666667,179,466,2,"2","6",5,"3","1",2,3,"C","","","","","","","","","","","","","","","","","","","","","","","","","","","","","",99.3,1000,100,"","","","","","","","","","","","","",0.0551458415
"X",3,31,2024,678,83014,41.1941133333333,-71.24995,180,467,2,"2","6",5,"3","1",2,3,"C","","","","","","","","","","","","","","","","","","","","","","","","","","","","","",99,1000,100,"","","","","","","","","","","","","",0.0551379758
"X",3,31,2024,679,83016,41.193195,-71.24995,180,468,2,"2","6",5,"3","1",2,3,"C","","","","","","","","","","","","","","","","","","","","","","","","","","","","","",99,1000,100,"","","","","","","","","","","","","",0.0551371532
"X",3,31,2024,680,83018,41.1922766666667,-71.24996,181,467,2,"2","6",5,"3","1",2,3,"C","","","","","","","","","","","","","","","","","","","","","","","","","","","","","",99.4,1000,100,"","","","","","","","","","","","","",0.0551390042
"X",3,31,2024,681,83020,41.19135,-71.24998,181,466,2,"2","6",5,"3","1",2,3,"C","","","","","","","","","","","","","","","","","","","","","","","","","","","","","",100.2,1000,100,"","","","","","","","","","","","","",0.0556448277
"P",3,31,2024,682,83022,41.1905343709494,-71.2500048489572,181,465,2,"2","6",5,"3","1",2,3,"C","6","","","CREW","1","","","1","9","0","","","","","","","","","","","","","","","","","","","",100.3,1000,100,"","","","","","","","","","","","","",0.0489836092
"X",3,31,2024,683,83022,41.19042,-71.2500083333333,181,465,2,"2","6",5,"3","1",2,3,"C","","","","","","","","","","","","","","","","","","","","","","","","","","","","","",100.3,1000,100,"","","","","","","","","","","","","",0.0558522977
"X",3,31,2024,684,83024,41.1894883333333,-71.2500433333333,182,465,2,"2","6",5,"3","1",2,3,"C","","","","","","","","","","","","","","","","","","","","","","","","","","","","","",100.6,1000,100,"","","","","","","","","","","","","",0.0559600412
"X",3,31,2024,685,83024,41.1894883333333,-71.2500433333333,182,465,2,"2","6",5,"3","1",2,3,"C","","","","","","","","","","","","","","","","","","","","","","","","","","","","","",100.6,1000,100,"","","","","","","","","","","","","",0
"X",3,31,2024,686,83026,41.188555,-71.2500816666667,182,464,2,"2","6",5,"3","1",2,3,"C","","","","","","","","","","","","","","","","","","","","","","","","","","","","","",100.8,1000,100,"","","","","","","","","","","","","",0.0560645201
"X",3,31,2024,687,83028,41.1876216666667,-71.25012,182,465,2,"2","6",5,"3","1",2,3,"C","","","","","","","","","","","","","","","","","","","","","","","","","","","","","",100.6,1000,100,"","","","","","","","","","","","","",0.0560645208
"X",3,31,2024,688,83030,41.1866883333333,-71.25016,182,467,2,"2","6",5,"3","1",2,3,"C","","","","","","","","","","","","","","","","","","","","","","","","","","","","","",101.4,1000,100,"","","","","","","","","","","","","",0.0560668987
"X",3,31,2024,689,83032,41.1857566666667,-71.2502016666667,182,468,2,"2","6",5,"3","1",2,3,"C","","","","","","","","","","","","","","","","","","","","","","","","","","","","","",100.7,1000,100,"","","","","","","","","","","","","",0.0559693668
"X",3,31,2024,690,83034,41.1848316666667,-71.2502416666667,182,469,2,"2","6",5,"3","1",2,3,"C","","","","","","","","","","","","","","","","","","","","","","","","","","","","","",100.2,1000,100,"","","","","","","","","","","","","",0.0555668256
"X",3,31,2024,691,83036,41.1839083333333,-71.2502766666667,181,470,2,"2","6",5,"3","1",2,3,"C","","","","","","","","","","","","","","","","","","","","","","","","","","","","","",99.8,1000,100,"","","","","","","","","","","","","",0.0554599095
"X",3,31,2024,692,83038,41.182985,-71.25029,180,472,2,"2","6",5,"3","1",2,3,"C","","","","","","","","","","","","","","","","","","","","","","","","","","","","","",100.1,1000,100,"","","","","","","","","","","","","",0.0554406293
"X",3,31,2024,693,83040,41.1820633333333,-71.2502816666667,179,472,2,"2","6",5,"3","1",2,3,"C","","","","","","","","","","","","","","","","","","","","","","","","","","","","","",99.5,1000,100,"","","","","","","","","","","","","",0.0553385692
"X",3,31,2024,694,83042,41.1811416666667,-71.2502666666667,179,471,2,"2","6",5,"3","1",2,3,"C","","","","","","","","","","","","","","","","","","","","","","","","","","","","","",99.9,1000,100,"","","","","","","","","","","","","",0.0553414391
"X",3,31,2024,695,83044,41.1802116666667,-71.2502533333333,180,470,2,"2","6",5,"3","1",2,3,"C","","","","","","","","","","","","","","","","","","","","","","","","","","","","","",100.6,1000,100,"","","","","","","","","","","","","",0.0558408758
"X",3,31,2024,696,83046,41.1792766666667,-71.2502416666667,180,469,2,"2","6",5,"3","1",2,3,"C","","","","","","","","","","","","","","","","","","","","","","","","","","","","","",101.2,1000,100,"","","","","","","","","","","","","",0.056140303
"X",3,31,2024,697,83048,41.17834,-71.2502366666667,180,469,2,"2","6",5,"3","1",2,3,"C","","","","","","","","","","","","","","","","","","","","","","","","","","","","","",101.5,1000,100,"","","","","","","","","","","","","",0.0562383488
"X",3,31,2024,698,83050,41.1773983333333,-71.2502383333333,180,469,2,"2","6",5,"3","1",2,3,"C","","","","","","","","","","","","","","","","","","","","","","","","","","","","","",101.6,1000,100,"","","","","","","","","","","","","",0.0565381473
"X",3,31,2024,699,83052,41.1764566666667,-71.2502466666667,180,469,2,"2","6",5,"3","1",2,3,"C","","","","","","","","","","","","","","","","","","","","","","","","","","","","","",101.8,1000,100,"","","","","","","","","","","","","",0.0565393514
"X",3,31,2024,700,83054,41.175515,-71.2502583333333,180,469,2,"2","6",5,"3","1",2,3,"C","","","","","","","","","","","","","","","","","","","","","","","","","","","","","",101.8,1000,100,"","","","","","","","","","","","","",0.0565405554
"X",3,31,2024,701,83056,41.174575,-71.25026,180,469,2,"2","6",5,"3","1",2,3,"C","","","","","","","","","","","","","","","","","","","","","","","","","","","","","",101.2,1000,100,"","","","","","","","","","","","","",0.05643808
"X",3,31,2024,702,83058,41.1736366666667,-71.2502466666667,179,469,2,"2","6",5,"3","1",2,3,"C","","","","","","","","","","","","","","","","","","","","","","","","","","","","","",101.7,1000,100,"","","","","","","","","","","","","",0.0563411847
"X",3,31,2024,703,83100,41.172695,-71.250225,179,469,2,"2","6",5,"3","1",2,3,"C","","","","","","","","","","","","","","","","","","","","","","","","","","","","","",101.6,1000,100,"","","","","","","","","","","","","",0.056546576
"X",3,31,2024,704,83102,41.171755,-71.2502033333333,179,470,2,"2","6",5,"3","1",2,3,"C","","","","","","","","","","","","","","","","","","","","","","","","","","","","","",101.6,1000,100,"","","","","","","","","","","","","",0.0564465239
"X",3,31,2024,705,83104,41.170815,-71.250185,179,470,2,"2","6",5,"3","1",2,3,"C","","","","","","","","","","","","","","","","","","","","","","","","","","","","","",101.7,1000,100,"","","","","","","","","","","","","",0.0564441117
"X",3,31,2024,706,83106,41.16987,-71.25017,179,471,2,"2","6",5,"3","1",2,3,"C","","","","","","","","","","","","","","","","","","","","","","","","","","","","","",102,1000,100,"","","","","","","","","","","","","",0.056742282
"X",3,31,2024,707,83108,41.1689283333333,-71.25016,180,472,2,"2","6",5,"3","1",2,3,"C","","","","","","","","","","","","","","","","","","","","","","","","","","","","","",101.7,1000,100,"","","","","","","","","","","","","",0.0565399036
"X",3,31,2024,708,83110,41.1679883333333,-71.2501566666667,180,472,2,"2","6",5,"3","1",2,3,"C","","","","","","","","","","","","","","","","","","","","","","","","","","","","","",101.7,1000,100,"","","","","","","","","","","","","",0.0564382308
"X",3,31,2024,709,83112,41.167045,-71.250155,180,471,2,"2","6",5,"3","1",2,3,"C","","","","","","","","","","","","","","","","","","","","","","","","","","","","","",101.8,1000,100,"","","","","","","","","","","","","",0.0566382147
"X",3,31,2024,710,83114,41.1660966666667,-71.2501516666667,180,470,2,"2","6",5,"3","1",2,3,"C","","","","","","","","","","","","","","","","","","","","","","","","","","","","","",102.7,1000,100,"","","","","","","","","","","","","",0.0569385662
"X",3,31,2024,711,83116,41.165145,-71.2501466666667,180,468,2,"2","6",5,"3","1",2,3,"C","","","","","","","","","","","","","","","","","","","","","","","","","","","","","",103.2,1000,100,"","","","","","","","","","","","","",0.0571389487
"X",3,31,2024,712,83118,41.1641833333333,-71.250145,180,466,2,"2","6",5,"3","1",2,3,"C","","","","","","","","","","","","","","","","","","","","","","","","","","","","","",103.9,1000,100,"","","","","","","","","","","","","",0.0577389554
"X",3,31,2024,713,83120,41.1632166666667,-71.2501433333333,180,464,2,"2","6",5,"3","1",2,3,"C","","","","","","","","","","","","","","","","","","","","","","","","","","","","","",104.8,1000,100,"","","","","","","","","","","","","",0.0580391575
"X",3,31,2024,714,83122,41.1622483333333,-71.250135,180,464,2,"2","6",5,"3","1",2,3,"C","","","","","","","","","","","","","","","","","","","","","","","","","","","","","",104.5,1000,100,"","","","","","","","","","","","","",0.0581403962
"X",3,31,2024,715,83124,41.1612816666667,-71.2501216666667,179,465,2,"2","6",5,"3","1",2,3,"C","","","","","","","","","","","","","","","","","","","","","","","","","","","","","",104.2,1000,100,"","","","","","","","","","","","","",0.0580422377
"X",3,31,2024,716,83126,41.1603166666667,-71.2501133333333,180,466,2,"2","6",5,"3","1",2,3,"C","","","","","","","","","","","","","","","","","","","","","","","","","","","","","",104.2,1000,100,"","","","","","","","","","","","","",0.0579402656
"X",3,31,2024,717,83128,41.1593483333333,-71.25011,180,466,2,"2","6",5,"3","1",2,3,"C","","","","","","","","","","","","","","","","","","","","","","","","","","","","","",104.4,1000,100,"","","","","","","","","","","","","",0.0581393713
"X",3,31,2024,718,83130,41.1583816666667,-71.2501116666667,180,465,2,"2","6",5,"3","1",2,3,"C","","","","","","","","","","","","","","","","","","","","","","","","","","","","","",104.4,1000,100,"","","","","","","","","","","","","",0.0580391575
"X",3,31,2024,719,83132,41.15741,-71.2501233333333,181,464,2,"2","6",5,"3","1",2,3,"C","","","","","","","","","","","","","","","","","","","","","","","","","","","","","",104.8,1000,100,"","","","","","","","","","","","","",0.0583416946
"X",3,31,2024,720,83134,41.15644,-71.2501466666667,181,464,2,"2","6",5,"3","1",2,3,"C","","","","","","","","","","","","","","","","","","","","","","","","","","","","","",104.5,1000,100,"","","","","","","","","","","","","",0.0582487944
"X",3,31,2024,721,83136,41.1554666666667,-71.25018,182,462,2,"2","6",5,"3","1",2,3,"C","","","","","","","","","","","","","","","","","","","","","","","","","","","","","",105.4,1000,100,"","","","","","","","","","","","","",0.0584588022
"X",3,31,2024,722,83138,41.15449,-71.2502133333333,181,461,2,"2","6",5,"3","1",2,3,"C","","","","","","","","","","","","","","","","","","","","","","","","","","","","","",105.8,1000,100,"","","","","","","","","","","","","",0.0586588714
"X",3,31,2024,723,83140,41.1535133333333,-71.2502283333333,180,460,2,"2","6",5,"3","1",2,3,"C","","","","","","","","","","","","","","","","","","","","","","","","","","","","","",105.9,1000,100,"","","","","","","","","","","","","",0.0586434338
"X",3,31,2024,724,83142,41.1525316666667,-71.2502266666667,180,459,2,"2","6",5,"3","1",2,3,"C","","","","","","","","","","","","","","","","","","","","","","","","","","","","","",105.7,1000,100,"","","","","","","","","","","","","",0.0589397636
"X",3,31,2024,725,83144,41.151545,-71.2502216666667,180,458,2,"2","6",5,"3","1",2,3,"C","","","","","","","","","","","","","","","","","","","","","","","","","","","","","",106.5,1000,100,"","","","","","","","","","","","","",0.059240349
"X",3,31,2024,726,83146,41.150555,-71.2502233333333,180,458,2,"2","6",5,"3","1",2,3,"C","","","","","","","","","","","","","","","","","","","","","","","","","","","","","",106.6,1000,100,"","","","","","","","","","","","","",0.0594401003
"X",3,31,2024,727,83148,41.1495666666667,-71.2502333333333,181,458,2,"2","6",5,"3","1",2,3,"C","","","","","","","","","","","","","","","","","","","","","","","","","","","","","",106.6,1000,100,"","","","","","","","","","","","","",0.0593417073
"X",3,31,2024,728,83150,41.14858,-71.2502516666667,181,458,2,"2","6",5,"3","1",2,3,"C","","","","","","","","","","","","","","","","","","","","","","","","","","","","","",106.3,1000,100,"","","","","","","","","","","","","",0.0592457159
"X",3,31,2024,729,83152,41.1475933333333,-71.2502683333333,181,458,2,"2","6",5,"3","1",2,3,"C","","","","","","","","","","","","","","","","","","","","","","","","","","","","","",106.4,1000,100,"","","","","","","","","","","","","",0.0592447098
"X",3,31,2024,730,83154,41.146605,-71.2502633333333,179,458,2,"2","6",5,"3","1",2,3,"C","","","","","","","","","","","","","","","","","","","","","","","","","","","","","",106.7,1000,100,"","","","","","","","","","","","","",0.0593404157
"X",3,31,2024,731,83156,41.1456166666667,-71.2502383333333,179,458,2,"2","6",5,"3","1",2,3,"C","","","","","","","","","","","","","","","","","","","","","","","","","","","","","",106.4,1000,100,"","","","","","","","","","","","","",0.0593507493
"X",3,31,2024,732,83158,41.1446316666667,-71.2502,178,458,2,"2","6",5,"3","1",2,3,"C","","","","","","","","","","","","","","","","","","","","","","","","","","","","","",106.1,1000,100,"","","","","","","","","","","","","",0.0591652413
