"rectype","month","day","year","eventno","time","lat","long","heading","alt","legtype","legstage","legno","visiblty","glarel","glarer","beaufort","cloud","wx","sightno","anglel","angler","speccode","number","numcalf","anhead","photos","idrel","confidnc","b1","b2","b3","b4","b5","b6","b7","b8","b9","b10","b11","b12","b13","b14","b15","refno","stratum","utc","radalt","gpsspeed","setalt","setvel","lensfl","ggf","int","gpsq","gpssats","roll","pitch","yaw","maghead","notes","edits","glarev","ph_qual","TrackDist"
"S",2,25,2024,490,83110,41.63808557,-70.01204364,77,297,1,"-","",5,"","",2,2,"C","1","","","","","","","","","","","","","","","","","","","","","","","","","","","","",102.7,1000,100,"","","","","","","","","","","","","",0.113768922
"X",2,25,2024,491,83111,41.63819,-70.01141667,76,296,1,"-","",5,"","",2,2,"C","","","","","","","","","","","","","","","","","","","","","","","","","","","","","",102.8,1000,100,"","","","","","","","","","","","","",0.142592367
"X",2,25,2024,492,83116,41.63886333,-70.00837667,72,294,1,"-","",5,"","",2,2,"C","","","","","","","","","","","","","","","","","","","","","","","","","","","","","",102.3,1000,100,"","","","","","","","","","","","","",0.142273434
"X",2,25,2024,493,83121,41.63967667,-70.00542167,69,290,1,"-","",5,"","",2,2,"C","","","","","","","","","","","","","","","","","","","","","","","","","","","","","",101.7,1000,100,"","","","","","","","","","","","","",0.141299748
"X",2,25,2024,494,83126,41.64060167,-70.00252833,66,281,1,"-","",5,"","",2,2,"C","","","","","","","","","","","","","","","","","","","","","","","","","","","","","",101.7,1000,100,"","","","","","","","","","","","","",0.141204793
"X",2,25,2024,495,83131,41.64157333,-69.99963167,65,284,1,"-","",5,"","",2,2,"C","","","","","","","","","","","","","","","","","","","","","","","","","","","","","",101.9,1000,100,"","","","","","","","","","","","","",0.142464815
"X",2,25,2024,496,83136,41.64253167,-69.99682333,66,297,1,"-","",5,"","",2,2,"C","","","","","","","","","","","","","","","","","","","","","","","","","","","","","",99,1000,100,"","","","","","","","","","","","","",0.138522235
"X",2,25,2024,497,83141,41.64343667,-69.99406333,67,299,1,"-","",5,"","",2,2,"C","","","","","","","","","","","","","","","","","","","","","","","","","","","","","",97,1000,100,"","","","","","","","","","","","","",0.135232742
"X",2,25,2024,498,83146,41.644345,-69.991295,66,286,1,"-","",5,"","",2,2,"C","","","","","","","","","","","","","","","","","","","","","","","","","","","","","",98.3,1000,100,"","","","","","","","","","","","","",0.135653952
"X",2,25,2024,499,83151,41.64524667,-69.98847167,67,278,1,"-","",5,"","",2,2,"C","","","","","","","","","","","","","","","","","","","","","","","","","","","","","",99.5,1000,100,"","","","","","","","","","","","","",0.137757605
"X",2,25,2024,500,83156,41.646175,-69.98565167,66,281,1,"-","",5,"","",2,2,"C","","","","","","","","","","","","","","","","","","","","","","","","","","","","","",99.3,1000,100,"","","","","","","","","","","","","",0.138256111
"X",2,25,2024,501,83201,41.64706667,-69.98285167,67,293,1,"-","",5,"","",2,2,"C","","","","","","","","","","","","","","","","","","","","","","","","","","","","","",97.8,1000,100,"","","","","","","","","","","","","",0.136555786
"X",2,25,2024,502,83206,41.647945,-69.98009,67,294,1,"-","",5,"","",2,2,"C","","","","","","","","","","","","","","","","","","","","","","","","","","","","","",97.1,1000,100,"","","","","","","","","","","","","",0.134658216
"X",2,25,2024,503,83211,41.64883833,-69.9773,67,282,1,"-","",5,"","",2,2,"C","","","","","","","","","","","","","","","","","","","","","","","","","","","","","",99.3,1000,100,"","","","","","","","","","","","","",0.136179378
"X",2,25,2024,504,83216,41.649745,-69.97442667,67,277,1,"-","",5,"","",2,2,"C","","","","","","","","","","","","","","","","","","","","","","","","","","","","","",100.8,1000,100,"","","","","","","","","","","","","",0.139931463
"X",2,25,2024,505,83221,41.65068667,-69.97156,66,288,1,"-","",5,"","",2,2,"C","","","","","","","","","","","","","","","","","","","","","","","","","","","","","",100.5,1000,100,"","","","","","","","","","","","","",0.140486733
"X",2,25,2024,506,83226,41.65164,-69.96876833,66,295,1,"-","",5,"","",2,2,"C","","","","","","","","","","","","","","","","","","","","","","","","","","","","","",98.4,1000,100,"","","","","","","","","","","","","",0.137701184
"X",2,25,2024,507,83231,41.65257667,-69.96602833,65,299,1,"-","",5,"","",2,2,"C","","","","","","","","","","","","","","","","","","","","","","","","","","","","","",97.2,1000,100,"","","","","","","","","","","","","",0.135175442
"X",2,25,2024,508,83236,41.653535,-69.963305,65,293,1,"-","",5,"","",2,2,"C","","","","","","","","","","","","","","","","","","","","","","","","","","","","","",97.6,1000,100,"","","","","","","","","","","","","",0.135043375
"X",2,25,2024,509,83241,41.65452667,-69.96056333,64,294,1,"-","",5,"","",2,2,"C","","","","","","","","","","","","","","","","","","","","","","","","","","","","","",99.4,1000,100,"","","","","","","","","","","","","",0.136646293
"X",2,25,2024,510,83246,41.655565,-69.95783167,63,301,1,"-","",5,"","",2,2,"C","","","","","","","","","","","","","","","","","","","","","","","","","","","","","",99.3,1000,100,"","","","","","","","","","","","","",0.137488498
"X",2,25,2024,511,83251,41.65664833,-69.95511167,62,304,1,"-","",5,"","",2,2,"C","","","","","","","","","","","","","","","","","","","","","","","","","","","","","",100.2,1000,100,"","","","","","","","","","","","","",0.138270662
"X",2,25,2024,512,83256,41.65774,-69.95236833,62,315,1,"-","",5,"","",2,2,"C","","","","","","","","","","","","","","","","","","","","","","","","","","","","","",100.3,1000,100,"","","","","","","","","","","","","",0.139427869
"X",2,25,2024,513,83301,41.658825,-69.949675,62,323,1,"-","",5,"","",2,2,"C","","","","","","","","","","","","","","","","","","","","","","","","","","","","","",98.9,1000,100,"","","","","","","","","","","","","",0.137260063
"X",2,25,2024,514,83306,41.65992167,-69.94703833,61,323,1,"-","",5,"","",2,2,"C","","","","","","","","","","","","","","","","","","","","","","","","","","","","","",97.9,1000,100,"","","","","","","","","","","","","",0.135365627
"X",2,25,2024,515,83311,41.66104,-69.94440167,60,328,1,"-","",5,"","",2,2,"C","","","","","","","","","","","","","","","","","","","","","","","","","","","","","",97.7,1000,100,"","","","","","","","","","","","","",0.136001378
"X",2,25,2024,516,83316,41.66215833,-69.94175833,61,328,1,"-","",5,"","",2,2,"C","","","","","","","","","","","","","","","","","","","","","","","","","","","","","",98.9,1000,100,"","","","","","","","","","","","","",0.13625972
"X",2,25,2024,517,83321,41.66327333,-69.93906833,61,326,1,"-","",5,"","",2,2,"C","","","","","","","","","","","","","","","","","","","","","","","","","","","","","",99.7,1000,100,"","","","","","","","","","","","","",0.137985989
"X",2,25,2024,518,83326,41.664385,-69.93635333,61,324,1,"-","",5,"","",2,2,"C","","","","","","","","","","","","","","","","","","","","","","","","","","","","","",100.4,1000,100,"","","","","","","","","","","","","",0.138869455
"X",2,25,2024,519,83331,41.66552833,-69.93364667,60,328,1,"-","",5,"","",2,2,"C","","","","","","","","","","","","","","","","","","","","","","","","","","","","","",100.8,1000,100,"","","","","","","","","","","","","",0.139465872
"X",2,25,2024,520,83336,41.66668667,-69.930915,61,331,1,"-","",5,"","",2,2,"C","","","","","","","","","","","","","","","","","","","","","","","","","","","","","",102.2,1000,100,"","","","","","","","","","","","","",0.140883531
"X",2,25,2024,521,83341,41.66786833,-69.92814667,60,334,1,"-","",5,"","",2,2,"C","","","","","","","","","","","","","","","","","","","","","","","","","","","","","",103.7,1000,100,"","","","","","","","","","","","","",0.143003949
"X",2,25,2024,522,83346,41.66906833,-69.92535167,60,337,1,"-","",5,"","",2,2,"C","","","","","","","","","","","","","","","","","","","","","","","","","","","","","",104.5,1000,100,"","","","","","","","","","","","","",0.144586956
"X",2,25,2024,523,83351,41.67024333,-69.92255667,61,346,1,"-","",5,"","",2,2,"C","","","","","","","","","","","","","","","","","","","","","","","","","","","","","",103.1,1000,100,"","","","","","","","","","","","","",0.143842865
"X",2,25,2024,524,83356,41.67145333,-69.91976667,60,348,1,"-","",5,"","",2,2,"C","","","","","","","","","","","","","","","","","","","","","","","","","","","","","",104.7,1000,100,"","","","","","","","","","","","","",0.144689095
"X",2,25,2024,525,83401,41.67271833,-69.91702667,58,349,1,"-","",5,"","",2,2,"C","","","","","","","","","","","","","","","","","","","","","","","","","","","","","",104.3,1000,100,"","","","","","","","","","","","","",0.14446075
"X",2,25,2024,526,83406,41.67398833,-69.914275,59,346,1,"-","",5,"","",2,2,"C","","","","","","","","","","","","","","","","","","","","","","","","","","","","","",105.2,1000,100,"","","","","","","","","","","","","",0.145061592
"X",2,25,2024,527,83411,41.67526,-69.91147167,59,347,1,"-","",5,"","",2,2,"C","","","","","","","","","","","","","","","","","","","","","","","","","","","","","",106.1,1000,100,"","","","","","","","","","","","","",0.147087593
"S",2,25,2024,528,83414,41.6761876,-69.9093787,60,352,2,"1","2",5,"3","2",2,2,"C","2","","","","","","","","","","","","","","","","","","","","","","","","","","","","",106.2,1000,100,"","","","","","","","","","","","","",0.109139611
"X",2,25,2024,529,83416,41.67650833,-69.908655,60,354,2,"2","2",5,"3","2",2,2,"C","","","","","","","","","","","","","","","","","","","","","","","","","","","","","",106.2,1000,100,"","","","","","","","","","","","","",0.146877072
"X",2,25,2024,530,83421,41.67773667,-69.905785,61,351,2,"2","2",5,"3","2",2,2,"C","","","","","","","","","","","","","","","","","","","","","","","","","","","","","",107.5,1000,100,"","","","","","","","","","","","","",0.148336175
"X",2,25,2024,531,83426,41.67900333,-69.90293167,59,345,2,"2","2",5,"3","2",2,2,"C","","","","","","","","","","","","","","","","","","","","","","","","","","","","","",107.5,1000,100,"","","","","","","","","","","","","",0.148848686
"X",2,25,2024,532,83431,41.68029,-69.90005833,59,335,2,"1","2",5,"3","2",2,2,"C","","","","","","","","","","","","","","","","","","","","","","","","","","","","","",108.4,1000,100,"","","","","","","","","","","","","",0.150232091
"X",2,25,2024,533,83431,41.68038663,-69.89983607,60,334,2,"2","2",5,"3","2",2,2,"C","","","","","","","","","","","","","","","","","","","","","","","","","","","","","",108.5,1000,100,"","","","","","","","","","","","","",0.011532317
"X",2,25,2024,534,83436,41.68156167,-69.89713333,60,326,2,"2","2",5,"3","2",2,2,"C","","","","","","","","","","","","","","","","","","","","","","","","","","","","","",109.6,1000,100,"","","","","","","","","","","","","",0.151766522
"X",2,25,2024,535,83441,41.68284,-69.89418667,60,323,2,"2","2",5,"3","2",2,2,"C","","","","","","","","","","","","","","","","","","","","","","","","","","","","","",109.9,1000,100,"","","","","","","","","","","","","",0.152805363
"X",2,25,2024,536,83446,41.68410667,-69.89122,60,321,2,"2","2",5,"3","2",2,2,"C","","","","","","","","","","","","","","","","","","","","","","","","","","","","","",111.2,1000,100,"","","","","","","","","","","","","",0.153230364
"X",2,25,2024,537,83451,41.685345,-69.88824167,61,324,2,"2","2",5,"3","2",2,2,"C","","","","","","","","","","","","","","","","","","","","","","","","","","","","","",109.8,1000,100,"","","","","","","","","","","","","",0.152847797
"X",2,25,2024,538,83456,41.68656333,-69.88533833,61,328,2,"2","2",5,"3","2",2,2,"C","","","","","","","","","","","","","","","","","","","","","","","","","","","","","",106.8,1000,100,"","","","","","","","","","","","","",0.149324412
"S",2,25,2024,539,83500,41.68750308,-69.88318856,60,327,2,"2","2",5,"3","2",3,2,"C","3","","","","","","","","","","","","","","","","","","","","","","","","","","","","",106.5,1000,100,"","","","","","","","","","","","","",0.11169023
"X",2,25,2024,540,83501,41.68780333,-69.88250167,59,327,2,"2","2",5,"3","2",3,2,"C","","","","","","","","","","","","","","","","","","","","","","","","","","","","","",106.4,1000,100,"","","","","","","","","","","","","",0.147376491
"X",2,25,2024,541,83506,41.689055,-69.87971333,59,323,2,"2","2",5,"3","2",3,2,"C","","","","","","","","","","","","","","","","","","","","","","","","","","","","","",105.2,1000,100,"","","","","","","","","","","","","",0.145867884
"X",2,25,2024,542,83506,41.689055,-69.87971333,59,323,2,"2","2",5,"3","2",3,2,"C","","","","","","","","","","","","","","","","","","","","","","","","","","","","","",105.2,1000,100,"","","","","","","","","","","","","",0
"X",2,25,2024,543,83511,41.69033667,-69.876935,58,317,2,"2","2",5,"3","2",3,2,"C","","","","","","","","","","","","","","","","","","","","","","","","","","","","","",105.2,1000,100,"","","","","","","","","","","","","",0.146420251
"X",2,25,2024,544,83516,41.69161667,-69.87417,58,320,2,"2","2",5,"3","2",3,2,"C","","","","","","","","","","","","","","","","","","","","","","","","","","","","","",104.9,1000,100,"","","","","","","","","","","","","",0.14585715
"X",2,25,2024,545,83521,41.69288333,-69.871425,59,324,2,"2","2",5,"3","2",3,2,"C","","","","","","","","","","","","","","","","","","","","","","","","","","","","","",103.6,1000,100,"","","","","","","","","","","","","",0.144671298
"X",2,25,2024,546,83526,41.69412333,-69.86872,58,321,2,"2","2",5,"3","2",3,2,"C","","","","","","","","","","","","","","","","","","","","","","","","","","","","","",102.1,1000,100,"","","","","","","","","","","","","",0.142302668
"X",2,25,2024,547,83531,41.695365,-69.86600333,59,315,2,"2","2",5,"3","2",3,2,"C","","","","","","","","","","","","","","","","","","","","","","","","","","","","","",103.6,1000,100,"","","","","","","","","","","","","",0.142798898
"X",2,25,2024,548,83536,41.69657667,-69.86324333,60,320,2,"2","2",5,"3","2",3,2,"C","","","","","","","","","","","","","","","","","","","","","","","","","","","","","",103.3,1000,100,"","","","","","","","","","","","","",0.143536139
"X",2,25,2024,549,83541,41.69778667,-69.86049,60,320,2,"2","2",5,"3","2",3,2,"C","","","","","","","","","","","","","","","","","","","","","","","","","","","","","",102.7,1000,100,"","","","","","","","","","","","","",0.14322579
"X",2,25,2024,550,83546,41.698985,-69.85773833,60,319,2,"2","2",5,"3","2",3,2,"C","","","","","","","","","","","","","","","","","","","","","","","","","","","","","",103,1000,100,"","","","","","","","","","","","","",0.14280522
"X",2,25,2024,551,83551,41.70018167,-69.85498833,60,320,2,"2","2",5,"3","2",3,2,"C","","","","","","","","","","","","","","","","","","","","","","","","","","","","","",102.9,1000,100,"","","","","","","","","","","","","",0.142688289
"X",2,25,2024,552,83556,41.70137,-69.85224167,60,323,2,"2","2",5,"3","2",3,2,"C","","","","","","","","","","","","","","","","","","","","","","","","","","","","","",102.7,1000,100,"","","","","","","","","","","","","",0.142305721
"X",2,25,2024,553,83601,41.70251833,-69.84949333,62,327,2,"2","2",5,"3","2",3,2,"C","","","","","","","","","","","","","","","","","","","","","","","","","","","","","",101.7,1000,100,"","","","","","","","","","","","","",0.141180157
"X",2,25,2024,554,83606,41.70366,-69.84674,61,326,2,"2","2",5,"3","2",3,2,"C","","","","","","","","","","","","","","","","","","","","","","","","","","","","","",102.2,1000,100,"","","","","","","","","","","","","",0.141179097
"X",2,25,2024,555,83611,41.70480833,-69.844,60,323,2,"2","2",5,"3","2",3,2,"C","","","","","","","","","","","","","","","","","","","","","","","","","","","","","",101.4,1000,100,"","","","","","","","","","","","","",0.140850477
"X",2,25,2024,556,83616,41.706035,-69.841335,58,322,2,"2","2",5,"3","2",3,2,"C","","","","","","","","","","","","","","","","","","","","","","","","","","","","","",101.2,1000,100,"","","","","","","","","","","","","",0.140336921
"X",2,25,2024,557,83621,41.707265,-69.83872333,58,331,2,"2","2",5,"3","2",3,2,"C","","","","","","","","","","","","","","","","","","","","","","","","","","","","","",98.8,1000,100,"","","","","","","","","","","","","",0.138412421
"X",2,25,2024,558,83626,41.70846833,-69.836125,59,334,2,"2","2",5,"3","2",3,2,"C","","","","","","","","","","","","","","","","","","","","","","","","","","","","","",98.7,1000,100,"","","","","","","","","","","","","",0.137054729
"X",2,25,2024,559,83631,41.70963,-69.83348667,60,332,2,"2","2",5,"3","2",3,2,"C","","","","","","","","","","","","","","","","","","","","","","","","","","","","","",99.4,1000,100,"","","","","","","","","","","","","",0.137292009
"X",2,25,2024,560,83636,41.71078333,-69.83079333,60,322,2,"2","2",5,"3","2",3,2,"C","","","","","","","","","","","","","","","","","","","","","","","","","","","","","",101.2,1000,100,"","","","","","","","","","","","","",0.13916953
"X",2,25,2024,561,83636,41.71078333,-69.83079333,60,322,2,"2","2",5,"3","2",3,2,"C","","","","","","","","","","","","","","","","","","","","","","","","","","","","","",101.2,1000,100,"","","","","","","","","","","","","",0
"X",2,25,2024,562,83641,41.71196,-69.82804333,60,311,2,"2","2",5,"3","2",3,2,"C","","","","","","","","","","","","","","","","","","","","","","","","","","","","","",102.6,1000,100,"","","","","","","","","","","","","",0.142067819
"X",2,25,2024,563,83646,41.71313833,-69.82529833,60,313,2,"2","2",5,"3","2",3,2,"C","","","","","","","","","","","","","","","","","","","","","","","","","","","","","",101.9,1000,100,"","","","","","","","","","","","","",0.141921336
"X",2,25,2024,564,83651,41.71434,-69.822595,58,317,2,"2","2",5,"3","2",3,2,"C","","","","","","","","","","","","","","","","","","","","","","","","","","","","","",101.7,1000,100,"","","","","","","","","","","","","",0.141015191
"X",2,25,2024,565,83656,41.71555833,-69.81989333,59,317,2,"2","2",5,"3","2",3,2,"C","","","","","","","","","","","","","","","","","","","","","","","","","","","","","",101.9,1000,100,"","","","","","","","","","","","","",0.141463892
"X",2,25,2024,566,83701,41.71672833,-69.81714667,60,320,2,"2","2",5,"3","2",3,2,"C","","","","","","","","","","","","","","","","","","","","","","","","","","","","","",102.2,1000,100,"","","","","","","","","","","","","",0.141731479
"X",2,25,2024,567,83706,41.717875,-69.8144,61,326,2,"2","2",5,"3","2",3,2,"C","","","","","","","","","","","","","","","","","","","","","","","","","","","","","",101.7,1000,100,"","","","","","","","","","","","","",0.141040432
"X",2,25,2024,568,83706,41.717875,-69.8144,61,326,2,"2","2",5,"3","2",3,2,"C","","","","","","","","","","","","","","","","","","","","","","","","","","","","","",101.7,1000,100,"","","","","","","","","","","","","",0
"X",2,25,2024,569,83711,41.71904,-69.81168167,60,324,2,"2","2",5,"3","2",3,2,"C","","","","","","","","","","","","","","","","","","","","","","","","","","","","","",100.6,1000,100,"","","","","","","","","","","","","",0.140476489
"X",2,25,2024,570,83716,41.72022333,-69.809005,59,320,2,"2","2",5,"3","2",3,2,"C","","","","","","","","","","","","","","","","","","","","","","","","","","","","","",100.6,1000,100,"","","","","","","","","","","","","",0.139416055
"X",2,25,2024,571,83721,41.72143667,-69.80634167,58,314,2,"2","2",5,"3","2",3,2,"C","","","","","","","","","","","","","","","","","","","","","","","","","","","","","",101.9,1000,100,"","","","","","","","","","","","","",0.139830249
"X",2,25,2024,572,83726,41.722665,-69.80365167,59,307,2,"2","2",5,"3","2",3,2,"C","","","","","","","","","","","","","","","","","","","","","","","","","","","","","",102,1000,100,"","","","","","","","","","","","","",0.141317618
"X",2,25,2024,573,83731,41.72386333,-69.80094333,60,304,2,"2","2",5,"3","2",3,2,"C","","","","","","","","","","","","","","","","","","","","","","","","","","","","","",101.3,1000,100,"","","","","","","","","","","","","",0.141090153
"X",2,25,2024,574,83736,41.725025,-69.79827,60,308,2,"2","2",5,"3","2",3,2,"C","","","","","","","","","","","","","","","","","","","","","","","","","","","","","",99.1,1000,100,"","","","","","","","","","","","","",0.138620756
"X",2,25,2024,575,83741,41.72615333,-69.79560667,61,313,2,"2","2",5,"3","2",3,2,"C","","","","","","","","","","","","","","","","","","","","","","","","","","","","","",98.5,1000,100,"","","","","","","","","","","","","",0.137232911
"X",2,25,2024,576,83746,41.72728833,-69.79296667,60,310,2,"2","2",5,"3","2",3,2,"C","","","","","","","","","","","","","","","","","","","","","","","","","","","","","",98.9,1000,100,"","","","","","","","","","","","","",0.136522137
"X",2,25,2024,577,83751,41.72845833,-69.79034333,59,305,2,"2","2",5,"3","2",3,2,"C","","","","","","","","","","","","","","","","","","","","","","","","","","","","","",98.9,1000,100,"","","","","","","","","","","","","",0.136939696
"X",2,25,2024,578,83756,41.72963333,-69.78771333,59,300,2,"2","2",5,"3","2",3,2,"C","","","","","","","","","","","","","","","","","","","","","","","","","","","","","",99.5,1000,100,"","","","","","","","","","","","","",0.137348316
"X",2,25,2024,579,83801,41.73080333,-69.78509,59,300,2,"2","2",5,"3","2",3,2,"C","","","","","","","","","","","","","","","","","","","","","","","","","","","","","",98.9,1000,100,"","","","","","","","","","","","","",0.136936013
"X",2,25,2024,580,83806,41.731975,-69.78246167,59,307,2,"2","2",5,"3","2",3,2,"C","","","","","","","","","","","","","","","","","","","","","","","","","","","","","",98.5,1000,100,"","","","","","","","","","","","","",0.137177819
"X",2,25,2024,581,83811,41.73314667,-69.77987833,59,317,2,"2","2",5,"3","2",3,2,"C","","","","","","","","","","","","","","","","","","","","","","","","","","","","","",97.7,1000,100,"","","","","","","","","","","","","",0.135448977
"X",2,25,2024,582,83816,41.73434,-69.77727667,59,325,2,"2","2",5,"3","2",3,2,"C","","","","","","","","","","","","","","","","","","","","","","","","","","","","","",98.9,1000,100,"","","","","","","","","","","","","",0.136826456
"X",2,25,2024,583,83821,41.73549833,-69.77462,60,327,2,"2","2",5,"3","2",3,2,"C","","","","","","","","","","","","","","","","","","","","","","","","","","","","","",99.6,1000,100,"","","","","","","","","","","","","",0.137858014
"X",2,25,2024,584,83826,41.73665667,-69.77193167,60,328,2,"2","2",5,"3","2",3,2,"C","","","","","","","","","","","","","","","","","","","","","","","","","","","","","",100.7,1000,100,"","","","","","","","","","","","","",0.139082996
"X",2,25,2024,585,83831,41.73783667,-69.76924,59,330,2,"2","2",5,"3","2",3,2,"C","","","","","","","","","","","","","","","","","","","","","","","","","","","","","",100.9,1000,100,"","","","","","","","","","","","","",0.13986488
"X",2,25,2024,586,83836,41.73905667,-69.76654833,59,330,2,"2","2",5,"3","2",3,2,"C","","","","","","","","","","","","","","","","","","","","","","","","","","","","","",102.2,1000,100,"","","","","","","","","","","","","",0.141094676
"X",2,25,2024,587,83836,41.73905667,-69.76654833,59,330,2,"2","2",5,"3","2",3,2,"C","","","","","","","","","","","","","","","","","","","","","","","","","","","","","",102.2,1000,100,"","","","","","","","","","","","","",0
"X",2,25,2024,588,83841,41.74029,-69.76381833,59,327,2,"2","2",5,"3","2",3,2,"C","","","","","","","","","","","","","","","","","","","","","","","","","","","","","",104,1000,100,"","","","","","","","","","","","","",0.142976259
"X",2,25,2024,589,83846,41.74154167,-69.76104667,59,329,2,"2","2",5,"3","2",3,2,"C","","","","","","","","","","","","","","","","","","","","","","","","","","","","","",104.7,1000,100,"","","","","","","","","","","","","",0.145141132
"X",2,25,2024,590,83851,41.742815,-69.75828167,58,328,2,"2","2",5,"3","2",3,2,"C","","","","","","","","","","","","","","","","","","","","","","","","","","","","","",105,1000,100,"","","","","","","","","","","","","",0.145562628
"X",2,25,2024,591,83856,41.74412667,-69.75550833,57,332,2,"2","2",5,"3","2",3,2,"C","","","","","","","","","","","","","","","","","","","","","","","","","","","","","",106.2,1000,100,"","","","","","","","","","","","","",0.14709757
"X",2,25,2024,592,83901,41.74545833,-69.75277833,56,331,2,"2","2",5,"3","2",3,2,"C","","","","","","","","","","","","","","","","","","","","","","","","","","","","","",105.3,1000,100,"","","","","","","","","","","","","",0.146113177
"X",2,25,2024,593,83906,41.74679,-69.75005833,57,330,2,"2","2",5,"3","2",3,2,"C","","","","","","","","","","","","","","","","","","","","","","","","","","","","","",105,1000,100,"","","","","","","","","","","","","",0.145736318
"X",2,25,2024,594,83911,41.74807,-69.74729833,58,330,2,"2","2",5,"3","2",3,2,"C","","","","","","","","","","","","","","","","","","","","","","","","","","","","","",104.4,1000,100,"","","","","","","","","","","","","",0.145574374
"X",2,25,2024,595,83916,41.74931833,-69.74452333,59,331,2,"2","2",5,"3","2",3,2,"C","","","","","","","","","","","","","","","","","","","","","","","","","","","","","",104.9,1000,100,"","","","","","","","","","","","","",0.14515258
"X",2,25,2024,596,83921,41.75056833,-69.74176167,59,331,2,"2","2",5,"3","2",3,2,"C","","","","","","","","","","","","","","","","","","","","","","","","","","","","","",104.5,1000,100,"","","","","","","","","","","","","",0.144691251
"X",2,25,2024,597,83926,41.75182333,-69.73897333,59,326,2,"2","2",5,"3","2",3,2,"C","","","","","","","","","","","","","","","","","","","","","","","","","","","","","",105.1,1000,100,"","","","","","","","","","","","","",0.145866576
"X",2,25,2024,598,83931,41.75307333,-69.73614667,60,321,2,"2","2",5,"3","2",3,2,"C","","","","","","","","","","","","","","","","","","","","","","","","","","","","","",106.3,1000,100,"","","","","","","","","","","","","",0.147184039
"X",2,25,2024,599,83936,41.754315,-69.733325,60,319,2,"2","2",5,"3","2",3,2,"C","","","","","","","","","","","","","","","","","","","","","","","","","","","","","",105.2,1000,100,"","","","","","","","","","","","","",0.146734483
"X",2,25,2024,600,83941,41.75554333,-69.73051667,60,315,2,"2","2",5,"3","2",3,2,"C","","","","","","","","","","","","","","","","","","","","","","","","","","","","","",105,1000,100,"","","","","","","","","","","","","",0.14581179
"X",2,25,2024,601,83946,41.75676,-69.72772833,59,315,2,"2","2",5,"3","2",3,2,"C","","","","","","","","","","","","","","","","","","","","","","","","","","","","","",104.3,1000,100,"","","","","","","","","","","","","",0.144682754
"X",2,25,2024,602,83951,41.75798833,-69.72500333,59,316,2,"2","2",5,"3","2",3,2,"C","","","","","","","","","","","","","","","","","","","","","","","","","","","","","",102.3,1000,100,"","","","","","","","","","","","","",0.142600421
"X",2,25,2024,603,83956,41.75918333,-69.72233167,60,315,2,"2","2",5,"3","2",3,2,"C","","","","","","","","","","","","","","","","","","","","","","","","","","","","","",100.4,1000,100,"","","","","","","","","","","","","",0.139519796
"X",2,25,2024,604,84001,41.76033333,-69.71963167,61,314,2,"2","2",5,"3","2",3,2,"C","","","","","","","","","","","","","","","","","","","","","","","","","","","","","",100.3,1000,100,"","","","","","","","","","","","","",0.139248462
"X",2,25,2024,605,84006,41.76144833,-69.71691667,61,316,2,"2","2",5,"3","2",3,2,"C","","","","","","","","","","","","","","","","","","","","","","","","","","","","","",99.7,1000,100,"","","","","","","","","","","","","",0.138804766
"X",2,25,2024,606,84011,41.76257167,-69.71421833,61,320,2,"2","2",5,"3","2",3,2,"C","","","","","","","","","","","","","","","","","","","","","","","","","","","","","",99.7,1000,100,"","","","","","","","","","","","","",0.138392657
"X",2,25,2024,607,84016,41.76370167,-69.71154667,61,324,2,"2","2",5,"3","2",3,2,"C","","","","","","","","","","","","","","","","","","","","","","","","","","","","","",98.9,1000,100,"","","","","","","","","","","","","",0.137546207
"X",2,25,2024,608,84021,41.76484667,-69.708925,60,327,2,"2","2",5,"3","2",3,2,"C","","","","","","","","","","","","","","","","","","","","","","","","","","","","","",97.4,1000,100,"","","","","","","","","","","","","",0.136053878
"X",2,25,2024,609,84026,41.766015,-69.70634333,59,324,2,"2","2",5,"3","2",3,2,"C","","","","","","","","","","","","","","","","","","","","","","","","","","","","","",97.2,1000,100,"","","","","","","","","","","","","",0.135230657
"X",2,25,2024,610,84031,41.7672,-69.70373667,59,318,2,"2","2",5,"3","2",3,2,"C","","","","","","","","","","","","","","","","","","","","","","","","","","","","","",98.5,1000,100,"","","","","","","","","","","","","",0.136705347
"X",2,25,2024,611,84036,41.76837833,-69.70108833,59,313,2,"2","2",5,"3","2",3,2,"C","","","","","","","","","","","","","","","","","","","","","","","","","","","","","",100,1000,100,"","","","","","","","","","","","","",0.138094689
"X",2,25,2024,612,84036,41.76837833,-69.70108833,59,313,2,"2","2",5,"3","2",3,2,"C","","","","","","","","","","","","","","","","","","","","","","","","","","","","","",100,1000,100,"","","","","","","","","","","","","",0
"X",2,25,2024,613,84041,41.769535,-69.69839667,60,311,2,"2","2",5,"3","2",3,2,"C","","","","","","","","","","","","","","","","","","","","","","","","","","","","","",100.3,1000,100,"","","","","","","","","","","","","",0.139108872
"X",2,25,2024,614,84046,41.77067833,-69.69572,61,311,2,"2","2",5,"3","2",3,2,"C","","","","","","","","","","","","","","","","","","","","","","","","","","","","","",99.4,1000,100,"","","","","","","","","","","","","",0.138125807
"X",2,25,2024,615,84051,41.77185333,-69.69304667,59,315,2,"2","2",5,"3","2",3,2,"C","","","","","","","","","","","","","","","","","","","","","","","","","","","","","",100.2,1000,100,"","","","","","","","","","","","","",0.138950019
"X",2,25,2024,616,84056,41.77298667,-69.690385,61,316,2,"2","2",5,"3","2",3,2,"C","","","","","","","","","","","","","","","","","","","","","","","","","","","","","",98.5,1000,100,"","","","","","","","","","","","","",0.137240942
"X",2,25,2024,617,84101,41.774085,-69.68771167,61,313,2,"2","2",5,"3","2",3,2,"C","","","","","","","","","","","","","","","","","","","","","","","","","","","","","",98.5,1000,100,"","","","","","","","","","","","","",0.136666774
"X",2,25,2024,618,84106,41.77517667,-69.685055,61,309,2,"2","2",5,"3","2",3,2,"C","","","","","","","","","","","","","","","","","","","","","","","","","","","","","",97.7,1000,100,"","","","","","","","","","","","","",0.135818196
"X",2,25,2024,619,84111,41.77624333,-69.6824,62,306,2,"2","2",5,"3","2",3,2,"C","","","","","","","","","","","","","","","","","","","","","","","","","","","","","",97.3,1000,100,"","","","","","","","","","","","","",0.135032757
"X",2,25,2024,620,84116,41.77729833,-69.67974333,62,306,2,"2","2",5,"3","2",3,2,"C","","","","","","","","","","","","","","","","","","","","","","","","","","","","","",97.4,1000,100,"","","","","","","","","","","","","",0.134766078
"X",2,25,2024,621,84121,41.77834167,-69.677125,62,310,2,"2","2",5,"3","2",3,2,"C","","","","","","","","","","","","","","","","","","","","","","","","","","","","","",96.2,1000,100,"","","","","","","","","","","","","",0.132920318
"X",2,25,2024,622,84126,41.77944833,-69.674525,60,308,2,"2","2",5,"3","2",3,2,"C","","","","","","","","","","","","","","","","","","","","","","","","","","","","","",96.6,1000,100,"","","","","","","","","","","","","",0.134038899
"X",2,25,2024,623,84131,41.78061667,-69.67198167,58,307,2,"2","2",5,"3","2",3,2,"C","","","","","","","","","","","","","","","","","","","","","","","","","","","","","",96.7,1000,100,"","","","","","","","","","","","","",0.133743889
"X",2,25,2024,624,84136,41.78184833,-69.66949667,56,306,2,"2","2",5,"3","2",3,2,"C","","","","","","","","","","","","","","","","","","","","","","","","","","","","","",97,1000,100,"","","","","","","","","","","","","",0.133592354
"X",2,25,2024,625,84141,41.783095,-69.66700167,57,305,2,"2","2",5,"3","2",3,2,"C","","","","","","","","","","","","","","","","","","","","","","","","","","","","","",97.3,1000,100,"","","","","","","","","","","","","",0.134462895
"X",2,25,2024,626,84146,41.78430333,-69.664465,58,306,2,"2","2",5,"3","2",3,2,"C","","","","","","","","","","","","","","","","","","","","","","","","","","","","","",97.1,1000,100,"","","","","","","","","","","","","",0.134761885
"X",2,25,2024,627,84151,41.785485,-69.66189,59,308,2,"2","2",5,"3","2",3,2,"C","","","","","","","","","","","","","","","","","","","","","","","","","","","","","",97.8,1000,100,"","","","","","","","","","","","","",0.135363473
"X",2,25,2024,628,84156,41.78663333,-69.65928667,60,317,2,"2","2",5,"3","2",3,2,"C","","","","","","","","","","","","","","","","","","","","","","","","","","","","","",97.9,1000,100,"","","","","","","","","","","","","",0.135413688
"X",2,25,2024,629,84201,41.78772667,-69.656655,61,322,2,"2","2",5,"3","2",3,2,"C","","","","","","","","","","","","","","","","","","","","","","","","","","","","","",97.7,1000,100,"","","","","","","","","","","","","",0.134867372
"X",2,25,2024,630,84206,41.78884167,-69.65401167,61,325,2,"2","2",5,"3","2",3,2,"C","","","","","","","","","","","","","","","","","","","","","","","","","","","","","",98,1000,100,"","","","","","","","","","","","","",0.135957885
"X",2,25,2024,631,84211,41.78998333,-69.651375,60,325,2,"2","2",5,"3","2",3,2,"C","","","","","","","","","","","","","","","","","","","","","","","","","","","","","",99,1000,100,"","","","","","","","","","","","","",0.136493387
"X",2,25,2024,632,84216,41.79117167,-69.64871,59,324,2,"2","2",5,"3","2",3,2,"C","","","","","","","","","","","","","","","","","","","","","","","","","","","","","",100.3,1000,100,"","","","","","","","","","","","","",0.139006924
"X",2,25,2024,633,84221,41.79237,-69.646045,59,325,2,"2","2",5,"3","2",3,2,"C","","","","","","","","","","","","","","","","","","","","","","","","","","","","","",101,1000,100,"","","","","","","","","","","","","",0.139314145
"X",2,25,2024,634,84226,41.793575,-69.64337667,59,320,2,"2","2",5,"3","2",3,2,"C","","","","","","","","","","","","","","","","","","","","","","","","","","","","","",100.9,1000,100,"","","","","","","","","","","","","",0.139646976
"X",2,25,2024,635,84231,41.79482,-69.64071,58,320,2,"2","2",5,"3","2",3,2,"C","","","","","","","","","","","","","","","","","","","","","","","","","","","","","",101.5,1000,100,"","","","","","","","","","","","","",0.140841018
"X",2,25,2024,636,84236,41.79605833,-69.63803667,58,324,2,"2","2",5,"3","2",3,2,"C","","","","","","","","","","","","","","","","","","","","","","","","","","","","","",101.6,1000,100,"","","","","","","","","","","","","",0.140880407
"X",2,25,2024,637,84241,41.79734333,-69.63539833,57,332,2,"2","2",5,"3","2",3,2,"C","","","","","","","","","","","","","","","","","","","","","","","","","","","","","",101.7,1000,100,"","","","","","","","","","","","","",0.141062896
"X",2,25,2024,638,84246,41.79865,-69.63276833,57,330,2,"2","2",5,"3","2",3,2,"C","","","","","","","","","","","","","","","","","","","","","","","","","","","","","",102.5,1000,100,"","","","","","","","","","","","","",0.141466044
"X",2,25,2024,639,84251,41.799965,-69.63010667,57,331,2,"2","2",5,"3","2",3,2,"C","","","","","","","","","","","","","","","","","","","","","","","","","","","","","",103.2,1000,100,"","","","","","","","","","","","","",0.142921436
"X",2,25,2024,640,84256,41.80127667,-69.62744,57,328,2,"2","2",5,"3","2",3,2,"C","","","","","","","","","","","","","","","","","","","","","","","","","","","","","",103.8,1000,100,"","","","","","","","","","","","","",0.142995679
"X",2,25,2024,641,84301,41.802585,-69.62474,57,323,2,"2","2",5,"3","2",3,2,"C","","","","","","","","","","","","","","","","","","","","","","","","","","","","","",104.2,1000,100,"","","","","","","","","","","","","",0.144132069
"X",2,25,2024,642,84306,41.80386833,-69.62201833,58,319,2,"2","2",5,"3","2",3,2,"C","","","","","","","","","","","","","","","","","","","","","","","","","","","","","",104.2,1000,100,"","","","","","","","","","","","","",0.144136068
"X",2,25,2024,643,84311,41.80513,-69.61928167,59,313,2,"2","2",5,"3","2",3,2,"C","","","","","","","","","","","","","","","","","","","","","","","","","","","","","",103.7,1000,100,"","","","","","","","","","","","","",0.144013331
"X",2,25,2024,644,84316,41.80634667,-69.61651833,60,310,2,"2","2",5,"3","2",3,2,"C","","","","","","","","","","","","","","","","","","","","","","","","","","","","","",103.6,1000,100,"","","","","","","","","","","","","",0.143634949
"X",2,25,2024,645,84321,41.80753833,-69.61375167,60,311,2,"2","2",5,"3","2",3,2,"C","","","","","","","","","","","","","","","","","","","","","","","","","","","","","",103,1000,100,"","","","","","","","","","","","","",0.143004551
"X",2,25,2024,646,84326,41.80869167,-69.61099333,61,312,2,"2","2",5,"3","2",3,2,"C","","","","","","","","","","","","","","","","","","","","","","","","","","","","","",102.5,1000,100,"","","","","","","","","","","","","",0.141539676
"X",2,25,2024,647,84331,41.80983333,-69.60821167,62,316,2,"2","2",5,"3","2",3,2,"C","","","","","","","","","","","","","","","","","","","","","","","","","","","","","",103.2,1000,100,"","","","","","","","","","","","","",0.142110185
"X",2,25,2024,648,84336,41.81095167,-69.60543,61,318,2,"2","2",5,"3","2",3,2,"C","","","","","","","","","","","","","","","","","","","","","","","","","","","","","",101.7,1000,100,"","","","","","","","","","","","","",0.141437837
"X",2,25,2024,649,84341,41.81207,-69.60265833,62,318,2,"2","2",5,"3","2",3,2,"C","","","","","","","","","","","","","","","","","","","","","","","","","","","","","",101.6,1000,100,"","","","","","","","","","","","","",0.141042222
"X",2,25,2024,650,84346,41.81318333,-69.59988667,61,314,2,"2","2",5,"3","2",3,2,"C","","","","","","","","","","","","","","","","","","","","","","","","","","","","","",101.6,1000,100,"","","","","","","","","","","","","",0.140897652
"X",2,25,2024,651,84351,41.814315,-69.59713833,61,308,2,"2","2",5,"3","2",3,2,"C","","","","","","","","","","","","","","","","","","","","","","","","","","","","","",101.5,1000,100,"","","","","","","","","","","","","",0.140506438
"X",2,25,2024,652,84356,41.81547667,-69.59441667,60,306,2,"2","2",5,"3","2",3,2,"C","","","","","","","","","","","","","","","","","","","","","","","","","","","","","",101.4,1000,100,"","","","","","","","","","","","","",0.140347592
"X",2,25,2024,653,84401,41.81664167,-69.59174667,59,310,2,"2","2",5,"3","2",3,2,"C","","","","","","","","","","","","","","","","","","","","","","","","","","","","","",99,1000,100,"","","","","","","","","","","","","",0.138445206
"X",2,25,2024,654,84406,41.81781667,-69.589105,59,315,2,"2","2",5,"3","2",3,2,"C","","","","","","","","","","","","","","","","","","","","","","","","","","","","","",99,1000,100,"","","","","","","","","","","","","",0.137657443
"X",2,25,2024,655,84411,41.818985,-69.586485,59,316,2,"2","2",5,"3","2",3,2,"C","","","","","","","","","","","","","","","","","","","","","","","","","","","","","",99.2,1000,100,"","","","","","","","","","","","","",0.136618041
"X",2,25,2024,656,84416,41.820145,-69.58382167,60,312,2,"2","2",5,"3","2",3,2,"C","","","","","","","","","","","","","","","","","","","","","","","","","","","","","",100.2,1000,100,"","","","","","","","","","","","","",0.138030501
"X",2,25,2024,657,84421,41.82128833,-69.581125,61,310,2,"2","2",5,"3","2",3,2,"C","","","","","","","","","","","","","","","","","","","","","","","","","","","","","",100.1,1000,100,"","","","","","","","","","","","","",0.138820824
"X",2,25,2024,658,84426,41.82242667,-69.57842,60,311,2,"2","2",5,"3","2",3,2,"C","","","","","","","","","","","","","","","","","","","","","","","","","","","","","",100.1,1000,100,"","","","","","","","","","","","","",0.138995301
"X",2,25,2024,659,84431,41.82354667,-69.575745,61,309,2,"2","2",5,"3","2",3,2,"C","","","","","","","","","","","","","","","","","","","","","","","","","","","","","",98.9,1000,100,"","","","","","","","","","","","","",0.137283715
"X",2,25,2024,660,84436,41.82464667,-69.57306,61,308,2,"2","2",5,"3","2",3,2,"C","","","","","","","","","","","","","","","","","","","","","","","","","","","","","",99.3,1000,100,"","","","","","","","","","","","","",0.137089623
"X",2,25,2024,661,84436,41.82464667,-69.57306,61,308,2,"2","2",5,"3","2",3,2,"C","","","","","","","","","","","","","","","","","","","","","","","","","","","","","",99.3,1000,100,"","","","","","","","","","","","","",0
"X",2,25,2024,662,84441,41.82576,-69.570385,61,308,2,"2","2",5,"3","2",3,2,"C","","","","","","","","","","","","","","","","","","","","","","","","","","","","","",98.5,1000,100,"","","","","","","","","","","","","",0.137084479
"X",2,25,2024,663,84446,41.82685833,-69.56770833,61,306,2,"2","2",5,"3","2",3,2,"C","","","","","","","","","","","","","","","","","","","","","","","","","","","","","",99.3,1000,100,"","","","","","","","","","","","","",0.136711091
"X",2,25,2024,664,84451,41.82799833,-69.56501667,60,308,2,"2","2",5,"3","2",3,2,"C","","","","","","","","","","","","","","","","","","","","","","","","","","","","","",99.7,1000,100,"","","","","","","","","","","","","",0.138516443
"X",2,25,2024,665,84456,41.82919,-69.56238667,59,314,2,"2","2",5,"3","2",3,2,"C","","","","","","","","","","","","","","","","","","","","","","","","","","","","","",98.9,1000,100,"","","","","","","","","","","","","",0.137708761
"X",2,25,2024,666,84501,41.83040667,-69.55978667,57,326,2,"2","2",5,"3","2",3,2,"C","","","","","","","","","","","","","","","","","","","","","","","","","","","","","",99,1000,100,"","","","","","","","","","","","","",0.137354258
"X",2,25,2024,667,84506,41.83160667,-69.55718833,59,334,2,"2","2",5,"3","2",3,2,"C","","","","","","","","","","","","","","","","","","","","","","","","","","","","","",98.8,1000,100,"","","","","","","","","","","","","",0.136759445
"X",2,25,2024,668,84511,41.83275167,-69.55457,60,338,2,"2","2",5,"3","2",3,2,"C","","","","","","","","","","","","","","","","","","","","","","","","","","","","","",97.9,1000,100,"","","","","","","","","","","","","",0.135817966
"X",2,25,2024,669,84516,41.83389833,-69.55192333,60,339,2,"2","2",5,"3","2",3,2,"C","","","","","","","","","","","","","","","","","","","","","","","","","","","","","",99.5,1000,100,"","","","","","","","","","","","","",0.136961072
"X",2,25,2024,670,84521,41.835045,-69.549255,61,338,2,"2","2",5,"3","2",3,2,"C","","","","","","","","","","","","","","","","","","","","","","","","","","","","","",99.6,1000,100,"","","","","","","","","","","","","",0.137797991
"X",2,25,2024,671,84526,41.836225,-69.54653167,60,335,2,"2","2",5,"3","2",3,2,"C","","","","","","","","","","","","","","","","","","","","","","","","","","","","","",102.5,1000,100,"","","","","","","","","","","","","",0.140928205
"X",2,25,2024,672,84531,41.83740667,-69.54377667,61,335,2,"2","2",5,"3","2",3,2,"C","","","","","","","","","","","","","","","","","","","","","","","","","","","","","",102,1000,100,"","","","","","","","","","","","","",0.142202469
"X",2,25,2024,673,84536,41.83854833,-69.54100167,61,334,2,"2","2",5,"3","2",3,2,"C","","","","","","","","","","","","","","","","","","","","","","","","","","","","","",102.4,1000,100,"","","","","","","","","","","","","",0.141800164
"X",2,25,2024,674,84541,41.83968667,-69.538215,61,332,2,"2","2",5,"3","2",3,2,"C","","","","","","","","","","","","","","","","","","","","","","","","","","","","","",102.7,1000,100,"","","","","","","","","","","","","",0.142158964
"X",2,25,2024,675,84546,41.84084,-69.53543,61,331,2,"2","2",5,"3","2",3,2,"C","","","","","","","","","","","","","","","","","","","","","","","","","","","","","",103.5,1000,100,"","","","","","","","","","","","","",0.142527021
"X",2,25,2024,676,84551,41.84201167,-69.532655,61,334,2,"2","2",5,"3","2",3,2,"C","","","","","","","","","","","","","","","","","","","","","","","","","","","","","",103.1,1000,100,"","","","","","","","","","","","","",0.142673764
"X",2,25,2024,677,84556,41.84320667,-69.52986667,60,338,2,"2","2",5,"3","2",3,2,"C","","","","","","","","","","","","","","","","","","","","","","","","","","","","","",104.3,1000,100,"","","","","","","","","","","","","",0.143884354
"X",2,25,2024,678,84601,41.84444833,-69.52710833,59,344,2,"2","2",5,"3","2",3,2,"C","","","","","","","","","","","","","","","","","","","","","","","","","","","","","",103.8,1000,100,"","","","","","","","","","","","","",0.144149668
"X",2,25,2024,679,84606,41.84572167,-69.52436833,58,345,2,"2","2",5,"3","2",3,2,"C","","","","","","","","","","","","","","","","","","","","","","","","","","","","","",105,1000,100,"","","","","","","","","","","","","",0.144443646
"X",2,25,2024,680,84611,41.84706167,-69.52158333,57,344,2,"2","2",5,"3","2",3,2,"C","","","","","","","","","","","","","","","","","","","","","","","","","","","","","",107.5,1000,100,"","","","","","","","","","","","","",0.148286073
"X",2,25,2024,681,84616,41.84841333,-69.51875667,57,344,2,"2","2",5,"3","2",3,2,"C","","","","","","","","","","","","","","","","","","","","","","","","","","","","","",108.5,1000,100,"","","","","","","","","","","","","",0.15022993
"S",2,25,2024,682,84619,41.84938275,-69.5166856,58,347,2,"2","2",5,"3","2",3,3,"C","4","","","","","","","","","","","","","","","","","","","","","","","","","","","","",108.5,1000,100,"","","","","","","","","","","","","",0.109396558
"X",2,25,2024,683,84621,41.849745,-69.51591167,58,348,2,"2","2",5,"3","2",3,3,"C","","","","","","","","","","","","","","","","","","","","","","","","","","","","","",108.4,1000,100,"","","","","","","","","","","","","",0.150276047
"X",2,25,2024,684,84626,41.85106,-69.51306167,58,344,2,"2","2",5,"3","2",3,3,"C","","","","","","","","","","","","","","","","","","","","","","","","","","","","","",107.4,1000,100,"","","","","","","","","","","","","",0.149933858
"X",2,25,2024,685,84631,41.85235333,-69.51021,59,337,2,"2","2",5,"3","2",3,3,"C","","","","","","","","","","","","","","","","","","","","","","","","","","","","","",107.9,1000,100,"","","","","","","","","","","","","",0.149314371
"X",2,25,2024,686,84636,41.85364,-69.50733833,59,339,2,"2","2",5,"3","2",3,3,"C","","","","","","","","","","","","","","","","","","","","","","","","","","","","","",108.1,1000,100,"","","","","","","","","","","","","",0.149870139
"X",2,25,2024,687,84636,41.85364,-69.50733833,59,339,2,"2","2",5,"3","2",3,3,"C","","","","","","","","","","","","","","","","","","","","","","","","","","","","","",108.1,1000,100,"","","","","","","","","","","","","",0
"X",2,25,2024,688,84641,41.85488833,-69.504495,60,340,2,"2","2",5,"3","2",3,3,"C","","","","","","","","","","","","","","","","","","","","","","","","","","","","","",105.6,1000,100,"","","","","","","","","","","","","",0.147601698
"X",2,25,2024,689,84646,41.85612333,-69.501665,60,338,2,"2","2",5,"3","2",3,3,"C","","","","","","","","","","","","","","","","","","","","","","","","","","","","","",105.9,1000,100,"","","","","","","","","","","","","",0.146679901
"X",2,25,2024,690,84651,41.857345,-69.49882167,60,339,2,"2","2",5,"3","2",3,3,"C","","","","","","","","","","","","","","","","","","","","","","","","","","","","","",106,1000,100,"","","","","","","","","","","","","",0.146790914
"X",2,25,2024,691,84656,41.85854833,-69.49597667,61,337,2,"2","2",5,"3","2",3,3,"C","","","","","","","","","","","","","","","","","","","","","","","","","","","","","",105,1000,100,"","","","","","","","","","","","","",0.146306705
"X",2,25,2024,692,84701,41.85975667,-69.49316833,60,334,2,"2","2",5,"3","2",3,3,"C","","","","","","","","","","","","","","","","","","","","","","","","","","","","","",104.5,1000,100,"","","","","","","","","","","","","",0.145031052
"X",2,25,2024,693,84706,41.86095833,-69.49037167,60,329,2,"2","2",5,"3","2",3,3,"C","","","","","","","","","","","","","","","","","","","","","","","","","","","","","",103.8,1000,100,"","","","","","","","","","","","","",0.144377071
"X",2,25,2024,694,84706,41.86095833,-69.49037167,60,329,2,"2","2",5,"3","2",3,3,"C","","","","","","","","","","","","","","","","","","","","","","","","","","","","","",103.8,1000,100,"","","","","","","","","","","","","",0
"X",2,25,2024,695,84711,41.862165,-69.48757667,60,326,2,"2","2",5,"3","2",3,3,"C","","","","","","","","","","","","","","","","","","","","","","","","","","","","","",104.2,1000,100,"","","","","","","","","","","","","",0.144460804
"X",2,25,2024,696,84716,41.863365,-69.48480833,60,325,2,"2","2",5,"3","2",3,3,"C","","","","","","","","","","","","","","","","","","","","","","","","","","","","","",103,1000,100,"","","","","","","","","","","","","",0.14322665
"X",2,25,2024,697,84721,41.86456833,-69.48207,60,324,2,"2","2",5,"3","2",3,3,"C","","","","","","","","","","","","","","","","","","","","","","","","","","","","","",102.5,1000,100,"","","","","","","","","","","","","",0.142168508
"X",2,25,2024,698,84726,41.86576,-69.47931833,60,327,2,"2","2",5,"3","2",3,3,"C","","","","","","","","","","","","","","","","","","","","","","","","","","","","","",102.1,1000,100,"","","","","","","","","","","","","",0.142326891
"X",2,25,2024,699,84731,41.86696833,-69.47660333,59,330,2,"2","2",5,"3","2",3,3,"C","","","","","","","","","","","","","","","","","","","","","","","","","","","","","",102,1000,100,"","","","","","","","","","","","","",0.141420801
"X",2,25,2024,700,84736,41.86819,-69.47391,59,326,2,"2","2",5,"3","2",3,3,"C","","","","","","","","","","","","","","","","","","","","","","","","","","","","","",101.7,1000,100,"","","","","","","","","","","","","",0.141002916
"X",2,25,2024,701,84741,41.869435,-69.47122667,58,320,2,"2","2",5,"3","2",3,3,"C","","","","","","","","","","","","","","","","","","","","","","","","","","","","","",101.9,1000,100,"","","","","","","","","","","","","",0.141355087
"X",2,25,2024,702,84746,41.87066833,-69.46853667,59,317,2,"2","2",5,"3","2",3,3,"C","","","","","","","","","","","","","","","","","","","","","","","","","","","","","",101.8,1000,100,"","","","","","","","","","","","","",0.14123767
"X",2,25,2024,703,84751,41.87188,-69.46587333,59,318,2,"2","2",5,"3","2",3,3,"C","","","","","","","","","","","","","","","","","","","","","","","","","","","","","",100.2,1000,100,"","","","","","","","","","","","","",0.139539267
"X",2,25,2024,704,84756,41.87305667,-69.46318667,60,321,2,"2","2",5,"3","2",3,3,"C","","","","","","","","","","","","","","","","","","","","","","","","","","","","","",100.6,1000,100,"","","","","","","","","","","","","",0.139351568
"X",2,25,2024,705,84801,41.87421833,-69.46046167,60,316,2,"2","2",5,"3","2",3,3,"C","","","","","","","","","","","","","","","","","","","","","","","","","","","","","",101.2,1000,100,"","","","","","","","","","","","","",0.140379927
"X",2,25,2024,706,84806,41.875385,-69.45775,60,312,2,"2","2",5,"3","2",3,3,"C","","","","","","","","","","","","","","","","","","","","","","","","","","","","","",100.7,1000,100,"","","","","","","","","","","","","",0.14001096
"X",2,25,2024,707,84811,41.87655833,-69.45505667,59,313,2,"2","2",5,"3","2",3,3,"C","","","","","","","","","","","","","","","","","","","","","","","","","","","","","",100.2,1000,100,"","","","","","","","","","","","","",0.139501694
"X",2,25,2024,708,84816,41.87769,-69.45239,61,317,2,"2","2",5,"3","2",3,3,"C","","","","","","","","","","","","","","","","","","","","","","","","","","","","","",98.1,1000,100,"","","","","","","","","","","","","",0.137216356
"X",2,25,2024,709,84821,41.87878,-69.449735,61,313,2,"2","2",5,"3","2",3,3,"C","","","","","","","","","","","","","","","","","","","","","","","","","","","","","",97.8,1000,100,"","","","","","","","","","","","","",0.135536189
"X",2,25,2024,710,84826,41.87989,-69.44703333,61,311,2,"2","2",5,"3","2",3,3,"C","","","","","","","","","","","","","","","","","","","","","","","","","","","","","",100.1,1000,100,"","","","","","","","","","","","","",0.137941069
"X",2,25,2024,711,84831,41.88100667,-69.444315,61,309,2,"2","2",5,"3","2",3,3,"C","","","","","","","","","","","","","","","","","","","","","","","","","","","","","",100.2,1000,100,"","","","","","","","","","","","","",0.138784929
"X",2,25,2024,712,84836,41.88214167,-69.44160333,61,311,2,"2","2",5,"3","2",3,3,"C","","","","","","","","","","","","","","","","","","","","","","","","","","","","","",100.6,1000,100,"","","","","","","","","","","","","",0.139058298
"X",2,25,2024,713,84836,41.88214167,-69.44160333,61,311,2,"2","2",5,"3","2",3,3,"C","","","","","","","","","","","","","","","","","","","","","","","","","","","","","",100.6,1000,100,"","","","","","","","","","","","","",0
"X",2,25,2024,714,84841,41.88327167,-69.43894667,60,319,2,"2","2",5,"3","2",3,3,"C","","","","","","","","","","","","","","","","","","","","","","","","","","","","","",97.8,1000,100,"","","","","","","","","","","","","",0.13676947
"X",2,25,2024,715,84846,41.884395,-69.436335,60,322,2,"2","2",5,"3","2",3,3,"C","","","","","","","","","","","","","","","","","","","","","","","","","","","","","",97.4,1000,100,"","","","","","","","","","","","","",0.1348241
"X",2,25,2024,716,84851,41.88552833,-69.43369667,60,325,2,"2","2",5,"3","2",3,3,"C","","","","","","","","","","","","","","","","","","","","","","","","","","","","","",98.4,1000,100,"","","","","","","","","","","","","",0.136154803
"X",2,25,2024,717,84856,41.88667167,-69.43102667,60,326,2,"2","2",5,"3","2",3,3,"C","","","","","","","","","","","","","","","","","","","","","","","","","","","","","",99.6,1000,100,"","","","","","","","","","","","","",0.13767918
"X",2,25,2024,718,84901,41.88786667,-69.42834833,59,318,2,"2","2",5,"3","2",3,3,"C","","","","","","","","","","","","","","","","","","","","","","","","","","","","","",101,1000,100,"","","","","","","","","","","","","",0.139569325
"X",2,25,2024,719,84906,41.88907667,-69.42567667,58,317,2,"2","2",5,"3","2",3,3,"C","","","","","","","","","","","","","","","","","","","","","","","","","","","","","",100.6,1000,100,"","","","","","","","","","","","","",0.139777849
"X",2,25,2024,720,84911,41.89032,-69.423045,57,313,2,"2","2",5,"3","2",3,3,"C","","","","","","","","","","","","","","","","","","","","","","","","","","","","","",100.6,1000,100,"","","","","","","","","","","","","",0.139313713
"X",2,25,2024,721,84916,41.89156667,-69.420385,58,311,2,"2","2",5,"3","2",3,3,"C","","","","","","","","","","","","","","","","","","","","","","","","","","","","","",100.9,1000,100,"","","","","","","","","","","","","",0.14048915
"X",2,25,2024,722,84921,41.89277333,-69.41772167,59,311,2,"2","2",5,"3","2",3,3,"C","","","","","","","","","","","","","","","","","","","","","","","","","","","","","",100.4,1000,100,"","","","","","","","","","","","","",0.139349732
"X",2,25,2024,723,84926,41.89395667,-69.41504167,60,317,2,"2","2",5,"3","2",3,3,"C","","","","","","","","","","","","","","","","","","","","","","","","","","","","","",100.8,1000,100,"","","","","","","","","","","","","",0.139264768
"X",2,25,2024,724,84931,41.89511333,-69.41232167,60,317,2,"2","2",5,"3","2",3,3,"C","","","","","","","","","","","","","","","","","","","","","","","","","","","","","",101.2,1000,100,"","","","","","","","","","","","","",0.140002329
"X",2,25,2024,725,84936,41.89626667,-69.409595,61,313,2,"2","2",5,"3","2",3,3,"C","","","","","","","","","","","","","","","","","","","","","","","","","","","","","",100.8,1000,100,"","","","","","","","","","","","","",0.140160217
"X",2,25,2024,726,84936,41.89626667,-69.409595,61,313,2,"2","2",5,"3","2",3,3,"C","","","","","","","","","","","","","","","","","","","","","","","","","","","","","",100.8,1000,100,"","","","","","","","","","","","","",0
"X",2,25,2024,727,84941,41.89741833,-69.40689833,60,316,2,"2","2",5,"3","2",3,3,"C","","","","","","","","","","","","","","","","","","","","","","","","","","","","","",99.9,1000,100,"","","","","","","","","","","","","",0.13894439
"X",2,25,2024,728,84946,41.89857667,-69.40422667,59,315,2,"2","2",5,"3","2",3,3,"C","","","","","","","","","","","","","","","","","","","","","","","","","","","","","",99.7,1000,100,"","","","","","","","","","","","","",0.138175577
"X",2,25,2024,729,84951,41.89974333,-69.40153,60,308,2,"2","2",5,"3","2",3,3,"C","","","","","","","","","","","","","","","","","","","","","","","","","","","","","",100.8,1000,100,"","","","","","","","","","","","","",0.13939099
"X",2,25,2024,730,84956,41.90091833,-69.39884167,60,308,2,"2","2",5,"3","2",3,3,"C","","","","","","","","","","","","","","","","","","","","","","","","","","","","","",100,1000,100,"","","","","","","","","","","","","",0.139319927
"X",2,25,2024,731,85001,41.90205333,-69.396185,60,314,2,"2","2",5,"3","2",3,3,"C","","","","","","","","","","","","","","","","","","","","","","","","","","","","","",98.6,1000,100,"","","","","","","","","","","","","",0.136888359
"X",2,25,2024,732,85006,41.90319333,-69.39357,60,318,2,"2","2",5,"3","2",3,3,"C","","","","","","","","","","","","","","","","","","","","","","","","","","","","","",97.7,1000,100,"","","","","","","","","","","","","",0.135426348
"X",2,25,2024,733,85011,41.90433,-69.39092833,60,310,2,"2","2",5,"3","2",3,3,"C","","","","","","","","","","","","","","","","","","","","","","","","","","","","","",98.9,1000,100,"","","","","","","","","","","","","",0.136353828
"X",2,25,2024,734,85016,41.905485,-69.38823667,60,306,2,"2","2",5,"3","2",3,3,"C","","","","","","","","","","","","","","","","","","","","","","","","","","","","","",100.7,1000,100,"","","","","","","","","","","","","",0.138837299
"X",2,25,2024,735,85021,41.90662667,-69.38554667,60,308,2,"2","2",5,"3","2",3,3,"C","","","","","","","","","","","","","","","","","","","","","","","","","","","","","",99.2,1000,100,"","","","","","","","","","","","","",0.138372603
"X",2,25,2024,736,85026,41.90776167,-69.38289,60,306,2,"2","2",5,"3","2",3,3,"C","","","","","","","","","","","","","","","","","","","","","","","","","","","","","",98.6,1000,100,"","","","","","","","","","","","","",0.136879154
"X",2,25,2024,737,85031,41.908885,-69.38024667,61,307,2,"2","2",5,"3","2",3,3,"C","","","","","","","","","","","","","","","","","","","","","","","","","","","","","",97.3,1000,100,"","","","","","","","","","","","","",0.136012262
"X",2,25,2024,738,85036,41.910015,-69.377645,59,308,2,"2","2",5,"3","2",3,3,"C","","","","","","","","","","","","","","","","","","","","","","","","","","","","","",97.1,1000,100,"","","","","","","","","","","","","",0.134598209
"X",2,25,2024,739,85036,41.910015,-69.377645,59,308,2,"2","2",5,"3","2",3,3,"C","","","","","","","","","","","","","","","","","","","","","","","","","","","","","",97.1,1000,100,"","","","","","","","","","","","","",0
"X",2,25,2024,740,85041,41.91117833,-69.37504167,59,311,2,"2","2",5,"3","2",3,3,"C","","","","","","","","","","","","","","","","","","","","","","","","","","","","","",98.4,1000,100,"","","","","","","","","","","","","",0.135680075
"X",2,25,2024,741,85046,41.91238833,-69.372435,58,307,2,"2","2",5,"3","2",3,3,"C","","","","","","","","","","","","","","","","","","","","","","","","","","","","","",99.3,1000,100,"","","","","","","","","","","","","",0.137268013
"X",2,25,2024,742,85051,41.91362167,-69.36982667,58,306,2,"2","2",5,"3","2",3,3,"C","","","","","","","","","","","","","","","","","","","","","","","","","","","","","",99.7,1000,100,"","","","","","","","","","","","","",0.138075545
