"rectype","month","day","year","eventno","time","lat","long","heading","alt","legtype","legstage","legno","visiblty","glarel","glarer","beaufort","cloud","wx","sightno","anglel","angler","speccode","number","numcalf","anhead","photos","idrel","confidnc","b1","b2","b3","b4","b5","b6","b7","b8","b9","b10","b11","b12","b13","b14","b15","refno","stratum","utc","radalt","gpsspeed","setalt","setvel","lensfl","ggf","int","gpsq","gpssats","roll","pitch","yaw","maghead","notes","edits","glarev","ph_qual","TrackDist"
"S",7,22,2024,1640,92238,41.4063088687813,-71.4034153018081,230,408,1,"-","",5,"","",1,4,"H","","","","","","","","","","","","","","","","","","","","","","","","","","","","","",109,1500,100,"","","","","","","","","","","","","",0.0315856112
"X",7,22,2024,1641,92239,41.4059941666667,-71.4039041833333,230,408,1,"-","",5,"","",1,4,"H","","","","","","","","","","","","","","","","","","","","","","","","","","","","","",109.1,1500,100,"","","","","","","","","","","","","",0.0605977776
"X",7,22,2024,1642,92241,41.4053370833333,-71.40493655,230,408,1,"-","",5,"","",1,4,"H","","","","","","","","","","","","","","","","","","","","","","","","","","","","","",109.3,1500,100,"","","","","","","","","","","","","",0.0609738349
"X",7,22,2024,1643,92243,41.4046859666667,-71.4059683,230,408,1,"-","",5,"","",1,4,"H","","","","","","","","","","","","","","","","","","","","","","","","","","","","","",109.3,1500,100,"","","","","","","","","","","","","",0.0607217639
"X",7,22,2024,1644,92245,41.4040375833333,-71.4070023166667,230,407,1,"-","",5,"","",1,4,"H","","","","","","","","","","","","","","","","","","","","","","","","","","","","","",109.3,1500,100,"","","","","","","","","","","","","",0.0606948734
"X",7,22,2024,1645,92247,41.4033923,-71.4080375333333,231,407,1,"-","",5,"","",1,4,"H","","","","","","","","","","","","","","","","","","","","","","","","","","","","","",109.4,1500,100,"","","","","","","","","","","","","",0.0606175714
"X",7,22,2024,1646,92249,41.4027472666667,-71.4090726333333,230,406,1,"-","",5,"","",1,4,"H","","","","","","","","","","","","","","","","","","","","","","","","","","","","","",109.3,1500,100,"","","","","","","","","","","","","",0.0606042936
"X",7,22,2024,1647,92251,41.40209865,-71.4101033166667,230,405,1,"-","",5,"","",1,4,"H","","","","","","","","","","","","","","","","","","","","","","","","","","","","","",109.2,1500,100,"","","","","","","","","","","","","",0.0605898455
"X",7,22,2024,1648,92253,41.4014465666667,-71.4111288666667,230,403,1,"-","",5,"","",1,4,"H","","","","","","","","","","","","","","","","","","","","","","","","","","","","","",109.1,1500,100,"","","","","","","","","","","","","",0.0605476555
"X",7,22,2024,1649,92255,41.4007905666667,-71.4121518,230,402,1,"-","",5,"","",1,4,"H","","","","","","","","","","","","","","","","","","","","","","","","","","","","","",109.1,1500,100,"","","","","","","","","","","","","",0.0606107127
"X",7,22,2024,1650,92257,41.40013265,-71.4131722333333,230,400,1,"-","",5,"","",1,4,"H","","","","","","","","","","","","","","","","","","","","","","","","","","","","","",109.2,1500,100,"","","","","","","","","","","","","",0.0606004805
"X",7,22,2024,1651,92259,41.3994724666667,-71.4141911166667,229,398,1,"-","",5,"","",1,4,"H","","","","","","","","","","","","","","","","","","","","","","","","","","","","","",109.2,1500,100,"","","","","","","","","","","","","",0.0606367859
"X",7,22,2024,1652,92301,41.3988115666667,-71.4152094,229,396,1,"-","",5,"","",1,4,"H","","","","","","","","","","","","","","","","","","","","","","","","","","","","","",109.3,1500,100,"","","","","","","","","","","","","",0.0606448374
"X",7,22,2024,1653,92303,41.3981479333333,-71.4162271,229,395,1,"-","",5,"","",1,4,"H","","","","","","","","","","","","","","","","","","","","","","","","","","","","","",109.3,1500,100,"","","","","","","","","","","","","",0.0607328666
"X",7,22,2024,1654,92305,41.39748525,-71.417243,229,394,1,"-","",5,"","",1,4,"H","","","","","","","","","","","","","","","","","","","","","","","","","","","","","",109.2,1500,100,"","","","","","","","","","","","","",0.0606346161
"X",7,22,2024,1655,92307,41.3968247166667,-71.41825925,229,392,1,"-","",5,"","",1,4,"H","","","","","","","","","","","","","","","","","","","","","","","","","","","","","",109.2,1500,100,"","","","","","","","","","","","","",0.0605622536
"X",7,22,2024,1656,92309,41.3961664333333,-71.4192776666667,229,391,1,"-","",5,"","",1,4,"H","","","","","","","","","","","","","","","","","","","","","","","","","","","","","",109,1500,100,"","","","","","","","","","","","","",0.0605481213
"X",7,22,2024,1657,92311,41.3955156666667,-71.4202982166667,230,392,1,"-","",5,"","",1,4,"H","","","","","","","","","","","","","","","","","","","","","","","","","","","","","",108.5,1500,100,"","","","","","","","","","","","","",0.0603280254
"X",7,22,2024,1658,92313,41.3948762333333,-71.4213119666667,230,394,1,"-","",5,"","",1,4,"H","","","","","","","","","","","","","","","","","","","","","","","","","","","","","",107.6,1500,100,"","","","","","","","","","","","","",0.0596551662
"X",7,22,2024,1659,92315,41.39424705,-71.4223176166667,230,397,1,"-","",5,"","",1,4,"H","","","","","","","","","","","","","","","","","","","","","","","","","","","","","",106.6,1500,100,"","","","","","","","","","","","","",0.0589806847
"X",7,22,2024,1660,92317,41.3936245333333,-71.42331635,230,399,1,"-","",5,"","",1,4,"H","","","","","","","","","","","","","","","","","","","","","","","","","","","","","",105.7,1500,100,"","","","","","","","","","","","","",0.0584855026
"X",7,22,2024,1661,92319,41.3930053666667,-71.42431055,230,399,1,"-","",5,"","",1,4,"H","","","","","","","","","","","","","","","","","","","","","","","","","","","","","",105.1,1500,100,"","","","","","","","","","","","","",0.0582002471
"X",7,22,2024,1662,92321,41.3923860666667,-71.4253032166667,230,399,1,"-","",5,"","",1,4,"H","","","","","","","","","","","","","","","","","","","","","","","","","","","","","",104.9,1500,100,"","","","","","","","","","","","","",0.0581525706
"X",7,22,2024,1663,92323,41.3917652333333,-71.4262956333333,230,397,1,"-","",5,"","",1,4,"H","","","","","","","","","","","","","","","","","","","","","","","","","","","","","",105.1,1500,100,"","","","","","","","","","","","","",0.0582031574
"X",7,22,2024,1664,92325,41.3911381833333,-71.4272910333333,230,396,1,"-","",5,"","",1,4,"H","","","","","","","","","","","","","","","","","","","","","","","","","","","","","",105.3,1500,100,"","","","","","","","","","","","","",0.058546076
"X",7,22,2024,1665,92325,41.3911381833333,-71.4272910333333,230,396,1,"-","",5,"","",1,4,"H","","","","","","","","","","","","","","","","","","","","","","","","","","","","","",105.3,1500,100,"","","","","","","","","","","","","",0
"X",7,22,2024,1666,92327,41.3905087666667,-71.4282858333333,230,394,1,"-","",5,"","",1,4,"H","","","","","","","","","","","","","","","","","","","","","","","","","","","","","",105.6,1500,100,"","","","","","","","","","","","","",0.0586172214
"X",7,22,2024,1667,92329,41.3898791,-71.42928445,230,393,1,"-","",5,"","",1,4,"H","","","","","","","","","","","","","","","","","","","","","","","","","","","","","",105.8,1500,100,"","","","","","","","","","","","","",0.0587587344
"X",7,22,2024,1668,92331,41.3892515833333,-71.4302852,230,392,1,"-","",5,"","",1,4,"H","","","","","","","","","","","","","","","","","","","","","","","","","","","","","",105.8,1500,100,"","","","","","","","","","","","","",0.058749796
"X",7,22,2024,1669,92333,41.38862585,-71.4312844166667,230,392,1,"-","",5,"","",1,4,"H","","","","","","","","","","","","","","","","","","","","","","","","","","","","","",105.6,1500,100,"","","","","","","","","","","","","",0.0586284806
"X",7,22,2024,1670,92335,41.38800275,-71.4322832666667,230,392,1,"-","",5,"","",1,4,"H","","","","","","","","","","","","","","","","","","","","","","","","","","","","","",105.4,1500,100,"","","","","","","","","","","","","",0.0585149229
"X",7,22,2024,1671,92337,41.3873857166667,-71.4332821333333,231,392,1,"-","",5,"","",1,4,"H","","","","","","","","","","","","","","","","","","","","","","","","","","","","","",105,1500,100,"","","","","","","","","","","","","",0.0582836283
"X",7,22,2024,1672,92339,41.3867774,-71.4342777666667,231,394,1,"-","",5,"","",1,4,"H","","","","","","","","","","","","","","","","","","","","","","","","","","","","","",104.3,1500,100,"","","","","","","","","","","","","",0.0578396961
"X",7,22,2024,1673,92341,41.3861765833333,-71.4352682666667,231,395,1,"-","",5,"","",1,4,"H","","","","","","","","","","","","","","","","","","","","","","","","","","","","","",103.5,1500,100,"","","","","","","","","","","","","",0.0573767268
"X",7,22,2024,1674,92343,41.3855832666667,-71.4362504333333,231,397,1,"-","",5,"","",1,4,"H","","","","","","","","","","","","","","","","","","","","","","","","","","","","","",102.7,1500,100,"","","","","","","","","","","","","",0.0568021322
"X",7,22,2024,1675,92345,41.3849914,-71.4372237833333,231,399,1,"-","",5,"","",1,4,"H","","","","","","","","","","","","","","","","","","","","","","","","","","","","","",101.8,1500,100,"","","","","","","","","","","","","",0.0564387837
"X",7,22,2024,1676,92347,41.3844008333333,-71.4381866333333,231,400,1,"-","",5,"","",1,4,"H","","","","","","","","","","","","","","","","","","","","","","","","","","","","","",101.1,1500,100,"","","","","","","","","","","","","",0.056022981
"X",7,22,2024,1677,92349,41.3838086,-71.43914305,231,400,1,"-","",5,"","",1,4,"H","","","","","","","","","","","","","","","","","","","","","","","","","","","","","",100.7,1500,100,"","","","","","","","","","","","","",0.055862853
"X",7,22,2024,1678,92351,41.3832161333333,-71.4400959,230,400,1,"-","",5,"","",1,4,"H","","","","","","","","","","","","","","","","","","","","","","","","","","","","","",100.5,1500,100,"","","","","","","","","","","","","",0.055748267
"X",7,22,2024,1679,92353,41.3826214,-71.4410470666667,230,399,1,"-","",5,"","",1,4,"H","","","","","","","","","","","","","","","","","","","","","","","","","","","","","",100.6,1500,100,"","","","","","","","","","","","","",0.0557772276
"X",7,22,2024,1680,92355,41.3820219,-71.4419978833333,230,398,1,"-","",5,"","",1,4,"H","","","","","","","","","","","","","","","","","","","","","","","","","","","","","",100.7,1500,100,"","","","","","","","","","","","","",0.0559491068
"X",7,22,2024,1681,92357,41.3814181,-71.4429461833333,230,397,1,"-","",5,"","",1,4,"H","","","","","","","","","","","","","","","","","","","","","","","","","","","","","",100.8,1500,100,"","","","","","","","","","","","","",0.056029358
"X",7,22,2024,1682,92359,41.3808116833333,-71.4438922333333,230,397,1,"-","",5,"","",1,4,"H","","","","","","","","","","","","","","","","","","","","","","","","","","","","","",100.9,1500,100,"","","","","","","","","","","","","",0.0560543324
"X",7,22,2024,1683,92401,41.3802061,-71.4448360166667,230,397,1,"-","",5,"","",1,4,"H","","","","","","","","","","","","","","","","","","","","","","","","","","","","","",100.8,1500,100,"","","","","","","","","","","","","",0.055944502
"X",7,22,2024,1684,92403,41.37960255,-71.4457800333333,230,398,1,"-","",5,"","",1,4,"H","","","","","","","","","","","","","","","","","","","","","","","","","","","","","",100.6,1500,100,"","","","","","","","","","","","","",0.0558735369
"X",7,22,2024,1685,92405,41.3790044666667,-71.4467232166667,230,399,1,"-","",5,"","",1,4,"H","","","","","","","","","","","","","","","","","","","","","","","","","","","","","",100.3,1500,100,"","","","","","","","","","","","","",0.0556328462
"X",7,22,2024,1686,92407,41.3784111666667,-71.4476653333333,230,400,1,"-","",5,"","",1,4,"H","","","","","","","","","","","","","","","","","","","","","","","","","","","","","",99.9,1500,100,"","","","","","","","","","","","","",0.0554113863
"X",7,22,2024,1687,92409,41.3778212,-71.44860445,230,401,1,"-","",5,"","",1,4,"H","","","","","","","","","","","","","","","","","","","","","","","","","","","","","",99.5,1500,100,"","","","","","","","","","","","","",0.0551795356
"X",7,22,2024,1688,92411,41.3772331333333,-71.4495393,230,402,1,"-","",5,"","",1,4,"H","","","","","","","","","","","","","","","","","","","","","","","","","","","","","",99.1,1500,100,"","","","","","","","","","","","","",0.0549592214
"X",7,22,2024,1689,92413,41.37664925,-71.4504730666667,230,404,1,"-","",5,"","",1,4,"H","","","","","","","","","","","","","","","","","","","","","","","","","","","","","",98.8,1500,100,"","","","","","","","","","","","","",0.0547609867
"X",7,22,2024,1690,92415,41.3760721666667,-71.4514098166667,231,405,1,"-","",5,"","",1,4,"H","","","","","","","","","","","","","","","","","","","","","","","","","","","","","",98.4,1500,100,"","","","","","","","","","","","","",0.0546046293
"S",7,22,2024,1691,92416,41.3757520198182,-71.4519383886844,231,405,1,"-","",5,"","",1,4,"H","S1","","","SPFV","3","","","1","9","0","","","","","","","","","","","","","","","","","","","",98.3,1500,100,"","","","","","","","","","","","","",0.0306037373
"X",7,22,2024,1692,92417,41.3755019833333,-71.4523512,231,406,1,"-","",5,"","",1,4,"H","","","","","","","","","","","","","","","","","","","","","","","","","","","","","",98.2,1500,100,"","","","","","","","","","","","","",0.0545052671
"X",7,22,2024,1693,92419,41.3749363333333,-71.4532971333333,232,406,1,"-","",5,"","",1,4,"H","","","","","","","","","","","","","","","","","","","","","","","","","","","","","",98.2,1500,100,"","","","","","","","","","","","","",0.0544951825
"X",7,22,2024,1694,92421,41.374377,-71.4542516333333,232,405,1,"-","",5,"","",1,4,"H","","","","","","","","","","","","","","","","","","","","","","","","","","","","","",98.2,1500,100,"","","","","","","","","","","","","",0.0545636094
"X",7,22,2024,1695,92423,41.3738266166667,-71.4552172333333,233,405,1,"-","",5,"","",1,4,"H","","","","","","","","","","","","","","","","","","","","","","","","","","","","","",98.4,1500,100,"","","","","","","","","","","","","",0.0546322271
"S",7,22,2024,1696,92424,41.3735352920026,-71.4557417201083,233,404,1,"-","",5,"","",1,4,"H","S2","","","RECV","3","","","1","9","0","","","","","","","","","","","","","","","","","","","",98.5,1500,100,"","","","","","","","","","","","","",0.0294000493
"X",7,22,2024,1697,92425,41.37328445,-71.4561933166667,234,404,1,"-","",5,"","",1,4,"H","","","","","","","","","","","","","","","","","","","","","","","","","","","","","",98.5,1500,100,"","","","","","","","","","","","","",0.0547144564
"X",7,22,2024,1698,92425,41.37328445,-71.4561933166667,234,404,1,"-","",5,"","",1,4,"H","","","","","","","","","","","","","","","","","","","","","","","","","","","","","",98.5,1500,100,"","","","","","","","","","","","","",0
"X",7,22,2024,1699,92427,41.3727500333333,-71.4571784666667,234,403,1,"-","",5,"","",1,4,"H","","","","","","","","","","","","","","","","","","","","","","","","","","","","","",98.6,1500,100,"","","","","","","","","","","","","",0.0547697362
"X",7,22,2024,1700,92429,41.3722212166667,-71.45817255,235,402,1,"-","",5,"","",1,4,"H","","","","","","","","","","","","","","","","","","","","","","","","","","","","","",98.8,1500,100,"","","","","","","","","","","","","",0.054901604
"X",7,22,2024,1701,92431,41.37169765,-71.4591752166667,235,401,1,"-","",5,"","",1,4,"H","","","","","","","","","","","","","","","","","","","","","","","","","","","","","",99,1500,100,"","","","","","","","","","","","","",0.055037213
"X",7,22,2024,1702,92433,41.3711799333333,-71.46018635,236,401,1,"-","",5,"","",1,4,"H","","","","","","","","","","","","","","","","","","","","","","","","","","","","","",99.3,1500,100,"","","","","","","","","","","","","",0.0551523552
"S",7,22,2024,1703,92435,41.3707046564599,-71.4611292593179,236,400,1,"-","",5,"","",1,4,"H","S3","","","SV-L","4","","","1","9","0","","","","","","","","","","","","","","","","","","","",99.4,1500,100,"","","","","","","","","","","","","",0.0511786322
"X",7,22,2024,1704,92435,41.3706670833333,-71.4612038,236,400,1,"-","",5,"","",1,4,"H","","","","","","","","","","","","","","","","","","","","","","","","","","","","","",99.4,1500,100,"","","","","","","","","","","","","",0.0552245358
"X",7,22,2024,1705,92437,41.3701593833333,-71.4622281666667,237,400,1,"-","",5,"","",1,4,"H","","","","","","","","","","","","","","","","","","","","","","","","","","","","","",99.6,1500,100,"","","","","","","","","","","","","",0.0553128117
"X",7,22,2024,1706,92439,41.3696573833333,-71.4632595666667,237,400,1,"-","",5,"","",1,4,"H","","","","","","","","","","","","","","","","","","","","","","","","","","","","","",99.7,1500,100,"","","","","","","","","","","","","",0.0553908639
"X",7,22,2024,1707,92441,41.36916255,-71.4642972833333,238,399,1,"-","",5,"","",1,4,"H","","","","","","","","","","","","","","","","","","","","","","","","","","","","","",99.8,1500,100,"","","","","","","","","","","","","",0.055398222
"X",7,22,2024,1708,92443,41.3686740333333,-71.4653413166667,238,399,1,"-","",5,"","",1,4,"H","","","","","","","","","","","","","","","","","","","","","","","","","","","","","",99.9,1500,100,"","","","","","","","","","","","","",0.0554373702
"X",7,22,2024,1709,92445,41.36819005,-71.4663903666667,238,400,1,"-","",5,"","",1,4,"H","","","","","","","","","","","","","","","","","","","","","","","","","","","","","",100,1500,100,"","","","","","","","","","","","","",0.0554865864
"X",7,22,2024,1710,92447,41.3677084333333,-71.4674394,239,400,1,"-","",5,"","",1,4,"H","","","","","","","","","","","","","","","","","","","","","","","","","","","","","",99.9,1500,100,"","","","","","","","","","","","","",0.0554119611
"P",7,22,2024,1711,92448,41.3675496905804,-71.4677845155604,239,400,1,"-","",5,"","",1,4,"H","S4","","","FV-C","2","","","1","9","0","","","","","","","","","","","","","","","","","","","",99.9,1500,100,"","","","","","","","","","","","","",0.0182390897
"X",7,22,2024,1712,92449,41.3672267166667,-71.4684866666667,238,401,1,"-","",5,"","",1,4,"H","","","","","","","","","","","","","","","","","","","","","","","","","","","","","",99.8,1500,100,"","","","","","","","","","","","","",0.0553475058
"X",7,22,2024,1713,92451,41.3667415333333,-71.4695280666667,238,402,1,"-","",5,"","",1,4,"H","","","","","","","","","","","","","","","","","","","","","","","","","","","","","",99.6,1500,100,"","","","","","","","","","","","","",0.0552320853
"X",7,22,2024,1714,92453,41.3662493166667,-71.4705547,237,403,1,"-","",5,"","",1,4,"H","","","","","","","","","","","","","","","","","","","","","","","","","","","","","",99.3,1500,100,"","","","","","","","","","","","","",0.0548943757
"X",7,22,2024,1715,92455,41.3657479166667,-71.4715664333333,236,404,1,"-","",5,"","",1,4,"H","","","","","","","","","","","","","","","","","","","","","","","","","","","","","",98.8,1500,100,"","","","","","","","","","","","","",0.0546319518
"X",7,22,2024,1716,92457,41.3652368666667,-71.47256385,236,407,1,"-","",5,"","",1,4,"H","","","","","","","","","","","","","","","","","","","","","","","","","","","","","",98.4,1500,100,"","","","","","","","","","","","","",0.0544196369
"X",7,22,2024,1717,92459,41.3647186666667,-71.473549,235,409,1,"-","",5,"","",1,4,"H","","","","","","","","","","","","","","","","","","","","","","","","","","","","","",98,1500,100,"","","","","","","","","","","","","",0.0542095592
"P",7,22,2024,1718,92500,41.3644400776517,-71.474068366,235,409,1,"-","",5,"","",1,4,"H","S5","","","RECV","1","","","1","9","0","","","","","","","","","","","","","","","","","","","",97.9,1500,100,"","","","","","","","","","","","","",0.0287663064
"X",7,22,2024,1719,92501,41.3641943833333,-71.4745264,234,409,1,"-","",5,"","",1,4,"H","","","","","","","","","","","","","","","","","","","","","","","","","","","","","",97.8,1500,100,"","","","","","","","","","","","","",0.0541358002
"X",7,22,2024,1720,92503,41.3636643833333,-71.4754992666667,234,410,1,"-","",5,"","",1,4,"H","","","","","","","","","","","","","","","","","","","","","","","","","","","","","",97.6,1500,100,"","","","","","","","","","","","","",0.0541709323
"X",7,22,2024,1721,92505,41.3631299666667,-71.4764668833333,234,410,1,"-","",5,"","",1,4,"H","","","","","","","","","","","","","","","","","","","","","","","","","","","","","",97.6,1500,100,"","","","","","","","","","","","","",0.0541366919
"X",7,22,2024,1722,92507,41.3625922166667,-71.4774327166667,234,410,1,"-","",5,"","",1,4,"H","","","","","","","","","","","","","","","","","","","","","","","","","","","","","",97.7,1500,100,"","","","","","","","","","","","","",0.0541912764
"X",7,22,2024,1723,92509,41.3620536166667,-71.4783992666667,234,410,1,"-","",5,"","",1,4,"H","","","","","","","","","","","","","","","","","","","","","","","","","","","","","",97.8,1500,100,"","","","","","","","","","","","","",0.0542479132
"X",7,22,2024,1724,92511,41.3617841,-71.47888255,234,410,1,"-","",5,"","",1,4,"H","","","","","","","","","","","","","","","","","","","","","","","","","","","","","",97.8,1500,100,"","","","","","","","","","","","","",0.0271321232
"X",7,22,2024,1725,92513,41.3609737,-71.48032855,233,410,1,"-","",5,"","",1,4,"H","","","","","","","","","","","","","","","","","","","","","","","","","","","","","",97.8,1500,100,"","","","","","","","","","","","","",0.0813240173
"X",7,22,2024,1726,92515,41.3604307166667,-71.4812880666667,233,410,1,"-","",5,"","",1,4,"H","","","","","","","","","","","","","","","","","","","","","","","","","","","","","",97.6,1500,100,"","","","","","","","","","","","","",0.0541526603
"X",7,22,2024,1727,92517,41.35988735,-71.4822437666667,233,411,1,"-","",5,"","",1,4,"H","","","","","","","","","","","","","","","","","","","","","","","","","","","","","",97.5,1500,100,"","","","","","","","","","","","","",0.0540296053
"X",7,22,2024,1728,92519,41.3593436333333,-71.4831982833333,233,411,1,"-","",5,"","",1,4,"H","","","","","","","","","","","","","","","","","","","","","","","","","","","","","",97.3,1500,100,"","","","","","","","","","","","","",0.0540000946
"X",7,22,2024,1729,92521,41.3587989666667,-71.48415255,233,410,1,"-","",5,"","",1,4,"H","","","","","","","","","","","","","","","","","","","","","","","","","","","","","",97.3,1500,100,"","","","","","","","","","","","","",0.0540259134
"X",7,22,2024,1730,92523,41.35825335,-71.4851077666667,233,410,1,"-","",5,"","",1,4,"H","","","","","","","","","","","","","","","","","","","","","","","","","","","","","",97.4,1500,100,"","","","","","","","","","","","","",0.0540948076
"X",7,22,2024,1731,92525,41.35770595,-71.4860644333333,233,409,1,"-","",5,"","",1,4,"H","","","","","","","","","","","","","","","","","","","","","","","","","","","","","",97.6,1500,100,"","","","","","","","","","","","","",0.0542119566
"S",7,22,2024,1732,92526,41.3574646226717,-71.486486787379,233,408,1,"-","",5,"","",1,4,"H","S6","","","RECV","4","","","1","9","0","","","","","","","","","","","","","","","","","","","",97.7,1500,100,"","","","","","","","","","","","","",0.0239214325
"X",7,22,2024,1733,92527,41.3571577,-71.4870239333333,233,408,1,"-","",5,"","",1,4,"H","","","","","","","","","","","","","","","","","","","","","","","","","","","","","",97.9,1500,100,"","","","","","","","","","","","","",0.0543447446
"X",7,22,2024,1734,92529,41.3566076666667,-71.48798465,233,408,1,"-","",5,"","",1,4,"H","","","","","","","","","","","","","","","","","","","","","","","","","","","","","",98,1500,100,"","","","","","","","","","","","","",0.0544535427
"X",7,22,2024,1735,92531,41.3560556166667,-71.4889426166667,232,408,1,"-","",5,"","",1,4,"H","","","","","","","","","","","","","","","","","","","","","","","","","","","","","",98,1500,100,"","","","","","","","","","","","","",0.0544289936
"X",7,22,2024,1736,92533,41.35549985,-71.48989605,232,408,1,"-","",5,"","",1,4,"H","","","","","","","","","","","","","","","","","","","","","","","","","","","","","",98,1500,100,"","","","","","","","","","","","","",0.0544039539
"X",7,22,2024,1737,92535,41.3549393333333,-71.4908427,232,408,1,"-","",5,"","",1,4,"H","","","","","","","","","","","","","","","","","","","","","","","","","","","","","",97.9,1500,100,"","","","","","","","","","","","","",0.0543392774
"S",7,22,2024,1738,92535,41.3548593306542,-71.4909750230103,232,408,1,"-","",5,"","",1,4,"H","S7","","","SPFV","1","","","1","9","0","","","","","","","","","","","","","","","","","","","",97.9,1500,100,"","","","","","","","","","","","","",0.007657464
"X",7,22,2024,1739,92537,41.35437225,-71.4917806333333,231,408,1,"-","",5,"","",1,4,"H","","","","","","","","","","","","","","","","","","","","","","","","","","","","","",97.7,1500,100,"","","","","","","","","","","","","",0.0542781221
"X",7,22,2024,1740,92539,41.35379445,-71.4927065333333,230,409,1,"-","",5,"","",1,4,"H","","","","","","","","","","","","","","","","","","","","","","","","","","","","","",97.7,1500,100,"","","","","","","","","","","","","",0.0542661882
"X",7,22,2024,1741,92541,41.3532053166667,-71.4936196666667,229,409,1,"-","",5,"","",1,4,"H","","","","","","","","","","","","","","","","","","","","","","","","","","","","","",97.7,1500,100,"","","","","","","","","","","","","",0.0542663387
"X",7,22,2024,1742,92543,41.3526102166667,-71.4945251833333,229,409,1,"-","",5,"","",1,4,"H","","","","","","","","","","","","","","","","","","","","","","","","","","","","","",97.7,1500,100,"","","","","","","","","","","","","",0.0542420565
"X",7,22,2024,1743,92545,41.3520131,-71.49542795,229,410,1,"-","",5,"","",1,4,"H","","","","","","","","","","","","","","","","","","","","","","","","","","","","","",97.7,1500,100,"","","","","","","","","","","","","",0.0542291169
"X",7,22,2024,1744,92547,41.3514144333333,-71.49632655,228,410,1,"-","",5,"","",1,4,"H","","","","","","","","","","","","","","","","","","","","","","","","","","","","","",97.6,1500,100,"","","","","","","","","","","","","",0.0541503678
"X",7,22,2024,1745,92549,41.3508130166667,-71.49722015,228,411,1,"-","",5,"","",1,4,"H","","","","","","","","","","","","","","","","","","","","","","","","","","","","","",97.5,1500,100,"","","","","","","","","","","","","",0.0540923858
"X",7,22,2024,1746,92551,41.3502069666667,-71.4981068333333,228,412,1,"-","",5,"","",1,4,"H","","","","","","","","","","","","","","","","","","","","","","","","","","","","","",97.3,1500,100,"","","","","","","","","","","","","",0.0540478476
"X",7,22,2024,1747,92553,41.3495955333333,-71.49898635,227,412,1,"-","",5,"","",1,4,"H","","","","","","","","","","","","","","","","","","","","","","","","","","","","","",97.3,1500,100,"","","","","","","","","","","","","",0.0540288129
"X",7,22,2024,1748,92555,41.3492875,-71.4994233833333,227,413,1,"-","",5,"","",1,4,"H","","","","","","","","","","","","","","","","","","","","","","","","","","","","","",97.3,1500,100,"","","","","","","","","","","","","",0.0270195399
"X",7,22,2024,1749,92555,41.3489782666667,-71.4998586166667,227,413,1,"-","",5,"","",1,4,"H","","","","","","","","","","","","","","","","","","","","","","","","","","","","","",97.3,1500,100,"","","","","","","","","","","","","",0.027009994
"P",7,22,2024,1750,92555,41.3489524702744,-71.4998941499427,227,413,1,"-","",5,"","",1,4,"H","S8","","","RECV","4","","","1","9","0","","","","","","","","","","","","","","","","","","","",97.3,1500,100,"","","","","","","","","","","","","",0.0022279784
"X",7,22,2024,1751,92557,41.3483529,-71.5007200166667,226,413,1,"-","",5,"","",1,4,"H","","","","","","","","","","","","","","","","","","","","","","","","","","","","","",97.2,1500,100,"","","","","","","","","","","","","",0.0540112951
"X",7,22,2024,1752,92559,41.3477139333333,-71.5015628333333,224,414,1,"-","",5,"","",1,4,"H","","","","","","","","","","","","","","","","","","","","","","","","","","","","","",97.2,1500,100,"","","","","","","","","","","","","",0.0539897627
"P",7,22,2024,1753,92600,41.3474285545542,-71.5019193146627,224,414,1,"-","",5,"","",1,4,"H","S9","","","RECV","1","","","1","9","0","","","","","","","","","","","","","","","","","","","",97.2,1500,100,"","","","","","","","","","","","","",0.0234895179
"X",7,22,2024,1754,92601,41.3470588833333,-71.5023810833333,223,414,1,"-","",5,"","",1,4,"H","","","","","","","","","","","","","","","","","","","","","","","","","","","","","",97.1,1500,100,"","","","","","","","","","","","","",0.0539170093
"X",7,22,2024,1755,92603,41.34638785,-71.5031735833333,221,414,1,"-","",5,"","",1,4,"H","","","","","","","","","","","","","","","","","","","","","","","","","","","","","",97,1500,100,"","","","","","","","","","","","","",0.053844319
"X",7,22,2024,1756,92605,41.3457018,-71.503942,220,414,1,"-","",5,"","",1,4,"H","","","","","","","","","","","","","","","","","","","","","","","","","","","","","",96.9,1500,100,"","","","","","","","","","","","","",0.0538175098
"X",7,22,2024,1757,92607,41.3449985833333,-71.5046817,218,414,1,"-","",5,"","",1,4,"H","","","","","","","","","","","","","","","","","","","","","","","","","","","","","",96.9,1500,100,"","","","","","","","","","","","","",0.0537989921
"X",7,22,2024,1758,92609,41.3442780833333,-71.5053900333333,216,414,1,"-","",5,"","",1,4,"H","","","","","","","","","","","","","","","","","","","","","","","","","","","","","",96.8,1500,100,"","","","","","","","","","","","","",0.0537659303
"X",7,22,2024,1759,92611,41.3435407833333,-71.5060654833333,214,414,1,"-","",5,"","",1,4,"H","","","","","","","","","","","","","","","","","","","","","","","","","","","","","",96.7,1500,100,"","","","","","","","","","","","","",0.053727362
"X",7,22,2024,1760,92613,41.3427898833333,-71.5067089666667,212,414,1,"-","",5,"","",1,4,"H","","","","","","","","","","","","","","","","","","","","","","","","","","","","","",96.5,1500,100,"","","","","","","","","","","","","",0.0536091715
"X",7,22,2024,1761,92615,41.3420275333333,-71.50732075,211,415,1,"-","",5,"","",1,4,"H","","","","","","","","","","","","","","","","","","","","","","","","","","","","","",96.3,1500,100,"","","","","","","","","","","","","",0.0534375224
"P",7,22,2024,1762,92615,41.3419666910707,-71.5073664668419,211,415,1,"-","",5,"","",1,4,"H","S10","","","RECV","5","","","1","9","0","","","","","","","","","","","","","","","","","","","",96.3,1500,100,"","","","","","","","","","","","","",0.00419419
"X",7,22,2024,1763,92617,41.3412541,-71.5079019,209,416,1,"-","",5,"","",1,4,"H","","","","","","","","","","","","","","","","","","","","","","","","","","","","","",96,1500,100,"","","","","","","","","","","","","",0.0533168982
"X",7,22,2024,1764,92619,41.3404717333333,-71.50845395,208,416,1,"-","",5,"","",1,4,"H","","","","","","","","","","","","","","","","","","","","","","","","","","","","","",95.7,1500,100,"","","","","","","","","","","","","",0.0531582713
"X",7,22,2024,1765,92621,41.3396810166667,-71.5089792,206,417,1,"-","",5,"","",1,4,"H","","","","","","","","","","","","","","","","","","","","","","","","","","","","","",95.5,1500,100,"","","","","","","","","","","","","",0.0530518443
"X",7,22,2024,1766,92623,41.3388826833333,-71.5094798666667,205,417,1,"-","",5,"","",1,4,"H","","","","","","","","","","","","","","","","","","","","","","","","","","","","","",95.4,1500,100,"","","","","","","","","","","","","",0.0529801034
"X",7,22,2024,1767,92625,41.3380744333333,-71.5099518166667,203,417,1,"-","",5,"","",1,4,"H","","","","","","","","","","","","","","","","","","","","","","","","","","","","","",95.4,1500,100,"","","","","","","","","","","","","",0.052986575
"X",7,22,2024,1768,92627,41.3372551166667,-71.5103893166667,202,417,1,"-","",5,"","",1,4,"H","","","","","","","","","","","","","","","","","","","","","","","","","","","","","",95.4,1500,100,"","","","","","","","","","","","","",0.0529985614
"X",7,22,2024,1769,92629,41.3364236333333,-71.5107902166667,200,416,1,"-","",5,"","",1,4,"H","","","","","","","","","","","","","","","","","","","","","","","","","","","","","",95.5,1500,100,"","","","","","","","","","","","","",0.053093302
"X",7,22,2024,1770,92631,41.3355820166667,-71.5111591666667,198,415,1,"-","",5,"","",1,4,"H","","","","","","","","","","","","","","","","","","","","","","","","","","","","","",95.7,1500,100,"","","","","","","","","","","","","",0.0531980788
"X",7,22,2024,1771,92633,41.334733,-71.51150405,197,415,1,"-","",5,"","",1,4,"H","","","","","","","","","","","","","","","","","","","","","","","","","","","","","",95.9,1500,100,"","","","","","","","","","","","","",0.053293776
"X",7,22,2024,1772,92635,41.3338794666667,-71.5118343666667,196,414,1,"-","",5,"","",1,4,"H","","","","","","","","","","","","","","","","","","","","","","","","","","","","","",96,1500,100,"","","","","","","","","","","","","",0.0533663177
"X",7,22,2024,1773,92637,41.3330212666667,-71.51215445,196,414,1,"-","",5,"","",1,4,"H","","","","","","","","","","","","","","","","","","","","","","","","","","","","","",96.2,1500,100,"","","","","","","","","","","","","",0.0535092317
"X",7,22,2024,1774,92639,41.3321588,-71.5124621333333,195,413,1,"-","",5,"","",1,4,"H","","","","","","","","","","","","","","","","","","","","","","","","","","","","","",96.4,1500,100,"","","","","","","","","","","","","",0.0536086425
"X",7,22,2024,1775,92641,41.3312922666667,-71.5127531166667,194,413,1,"-","",5,"","",1,4,"H","","","","","","","","","","","","","","","","","","","","","","","","","","","","","",96.5,1500,100,"","","","","","","","","","","","","",0.0536555407
"X",7,22,2024,1776,92643,41.33042275,-71.5130290833333,193,413,1,"-","",5,"","",1,4,"H","","","","","","","","","","","","","","","","","","","","","","","","","","","","","",96.5,1500,100,"","","","","","","","","","","","","",0.0536683017
"X",7,22,2024,1777,92645,41.32955085,-71.51329325,193,413,1,"-","",5,"","",1,4,"H","","","","","","","","","","","","","","","","","","","","","","","","","","","","","",96.6,1500,100,"","","","","","","","","","","","","",0.0536870253
"X",7,22,2024,1778,92647,41.32867765,-71.51354575,192,413,1,"-","",5,"","",1,4,"H","","","","","","","","","","","","","","","","","","","","","","","","","","","","","",96.5,1500,100,"","","","","","","","","","","","","",0.0536490966
"S",7,22,2024,1779,92648,41.3285036228653,-71.5135931717622,192,413,1,"-","",5,"","",1,4,"H","S11","","","BODO","4","","","1","3","0","","","","","","","","","","","","","","","","","","","",96.5,1500,100,"","","","","","","","","","","","","",0.0106651799
"X",7,22,2024,1780,92649,41.3278031333333,-71.51378405,192,413,1,"-","",5,"","",1,4,"H","","","","","","","","","","","","","","","","","","","","","","","","","","","","","",96.5,1500,100,"","","","","","","","","","","","","",0.0535943747
"X",7,22,2024,1781,92651,41.3269261,-71.51400875,191,413,1,"-","",5,"","",1,4,"H","","","","","","","","","","","","","","","","","","","","","","","","","","","","","",96.5,1500,100,"","","","","","","","","","","","","",0.0536232226
"X",7,22,2024,1782,92653,41.3260463333333,-71.5142254666667,190,413,1,"-","",5,"","",1,4,"H","","","","","","","","","","","","","","","","","","","","","","","","","","","","","",96.6,1500,100,"","","","","","","","","","","","","",0.0537177721
"X",7,22,2024,1783,92655,41.3251640666667,-71.5144377833333,190,412,1,"-","",5,"","",1,4,"H","","","","","","","","","","","","","","","","","","","","","","","","","","","","","",96.8,1500,100,"","","","","","","","","","","","","",0.0538297648
"X",7,22,2024,1784,92657,41.3242791833333,-71.5146459333333,190,412,1,"-","",5,"","",1,4,"H","","","","","","","","","","","","","","","","","","","","","","","","","","","","","",97,1500,100,"","","","","","","","","","","","","",0.0539513977
"X",7,22,2024,1785,92659,41.3233927333333,-71.5148525166667,190,412,1,"-","",5,"","",1,4,"H","","","","","","","","","","","","","","","","","","","","","","","","","","","","","",97.1,1500,100,"","","","","","","","","","","","","",0.0540318287
"X",7,22,2024,1786,92701,41.3225064166667,-71.5150597,190,412,1,"-","",5,"","",1,4,"H","","","","","","","","","","","","","","","","","","","","","","","","","","","","","",97.2,1500,100,"","","","","","","","","","","","","",0.0540286363
"X",7,22,2024,1787,92703,41.3216214166667,-71.5152682,190,413,1,"-","",5,"","",1,4,"H","","","","","","","","","","","","","","","","","","","","","","","","","","","","","",97.1,1500,100,"","","","","","","","","","","","","",0.0539611096
"X",7,22,2024,1788,92705,41.3207383,-71.51547705,190,414,1,"-","",5,"","",1,4,"H","","","","","","","","","","","","","","","","","","","","","","","","","","","","","",96.9,1500,100,"","","","","","","","","","","","","",0.0538525463
"X",7,22,2024,1789,92707,41.3198574666667,-71.51568495,190,415,1,"-","",5,"","",1,4,"H","","","","","","","","","","","","","","","","","","","","","","","","","","","","","",96.7,1500,100,"","","","","","","","","","","","","",0.0537101006
"X",7,22,2024,1790,92709,41.3189780666667,-71.5158902333334,190,416,1,"-","",5,"","",1,4,"H","","","","","","","","","","","","","","","","","","","","","","","","","","","","","",96.5,1500,100,"","","","","","","","","","","","","",0.0536048862
"X",7,22,2024,1791,92711,41.3181008,-71.51609075,190,417,1,"-","",5,"","",1,4,"H","","","","","","","","","","","","","","","","","","","","","","","","","","","","","",96.2,1500,100,"","","","","","","","","","","","","",0.0534419636
"X",7,22,2024,1792,92713,41.3172245,-71.5162851666667,190,418,1,"-","",5,"","",1,4,"H","","","","","","","","","","","","","","","","","","","","","","","","","","","","","",96,1500,100,"","","","","","","","","","","","","",0.0533388808
"X",7,22,2024,1793,92715,41.3163486666667,-71.5164719666667,189,418,1,"-","",5,"","",1,4,"H","","","","","","","","","","","","","","","","","","","","","","","","","","","","","",95.9,1500,100,"","","","","","","","","","","","","",0.0532558558
"X",7,22,2024,1794,92717,41.3154721166667,-71.51665245,189,419,1,"-","",5,"","",1,4,"H","","","","","","","","","","","","","","","","","","","","","","","","","","","","","",95.8,1500,100,"","","","","","","","","","","","","",0.0532540835
"X",7,22,2024,1795,92719,41.3145942666667,-71.5168306666667,189,418,1,"-","",5,"","",1,4,"H","","","","","","","","","","","","","","","","","","","","","","","","","","","","","",95.9,1500,100,"","","","","","","","","","","","","",0.0533157332
"X",7,22,2024,1796,92721,41.3137155666667,-71.5170149666667,189,418,1,"-","",5,"","",1,4,"H","","","","","","","","","","","","","","","","","","","","","","","","","","","","","",96,1500,100,"","","","","","","","","","","","","",0.053408205
"X",7,22,2024,1797,92723,41.3128371166667,-71.5172030833333,189,418,1,"-","",5,"","",1,4,"H","","","","","","","","","","","","","","","","","","","","","","","","","","","","","",96,1500,100,"","","","","","","","","","","","","",0.0534204586
"X",7,22,2024,1798,92725,41.31195985,-71.5173846333333,189,419,1,"-","",5,"","",1,4,"H","","","","","","","","","","","","","","","","","","","","","","","","","","","","","",95.9,1500,100,"","","","","","","","","","","","","",0.053304042
"X",7,22,2024,1799,92727,41.3110833166667,-71.5175415166667,187,420,1,"-","",5,"","",1,4,"H","","","","","","","","","","","","","","","","","","","","","","","","","","","","","",95.6,1500,100,"","","","","","","","","","","","","",0.0531009205
"X",7,22,2024,1800,92729,41.3102065166667,-71.5176672833334,186,422,1,"-","",5,"","",1,4,"H","","","","","","","","","","","","","","","","","","","","","","","","","","","","","",95.3,1500,100,"","","","","","","","","","","","","",0.0529481453
"X",7,22,2024,1801,92731,41.3093298666667,-71.51775825,184,422,1,"-","",5,"","",1,4,"H","","","","","","","","","","","","","","","","","","","","","","","","","","","","","",95,1500,100,"","","","","","","","","","","","","",0.0527941096
"X",7,22,2024,1802,92733,41.3084524833333,-71.5178185666667,183,423,1,"-","",5,"","",1,4,"H","","","","","","","","","","","","","","","","","","","","","","","","","","","","","",94.9,1500,100,"","","","","","","","","","","","","",0.0527486867
"S",7,22,2024,1803,92733,41.3083200815667,-71.5178237372973,183,423,1,"-","",5,"","",1,4,"H","S12","","","FV-T","1","","","1","9","0","","","","","","","","","","","","","","","","","","","",94.9,1500,100,"","","","","","","","","","","","","",0.0079528823
"X",7,22,2024,1804,92735,41.3075733166667,-71.5178529,182,422,1,"-","",5,"","",1,4,"H","","","","","","","","","","","","","","","","","","","","","","","","","","","","","",94.9,1500,100,"","","","","","","","","","","","","",0.0528082756
"X",7,22,2024,1805,92737,41.3066908,-71.5178686333333,181,421,1,"-","",5,"","",1,4,"H","","","","","","","","","","","","","","","","","","","","","","","","","","","","","",95.2,1500,100,"","","","","","","","","","","","","",0.0529914553
"X",7,22,2024,1806,92739,41.30580365,-71.5178741166667,180,420,1,"-","",5,"","",1,4,"H","","","","","","","","","","","","","","","","","","","","","","","","","","","","","",95.6,1500,100,"","","","","","","","","","","","","",0.0532654657
"X",7,22,2024,1807,92741,41.3049114833333,-71.5178766166667,180,418,1,"-","",5,"","",1,4,"H","","","","","","","","","","","","","","","","","","","","","","","","","","","","","",96.1,1500,100,"","","","","","","","","","","","","",0.0535662132
"X",7,22,2024,1808,92743,41.3040149166667,-71.5178785166667,180,417,1,"-","",5,"","",1,4,"H","","","","","","","","","","","","","","","","","","","","","","","","","","","","","",96.6,1500,100,"","","","","","","","","","","","","",0.0538303407
"S",7,22,2024,1809,92744,41.3036005683605,-71.5178790158667,180,417,1,"-","",5,"","",1,4,"H","S13","","","MY-L","1","","","1","9","0","","","","","","","","","","","","","","","","","","","",96.8,1500,100,"","","","","","","","","","","","","",0.0248776719
"X",7,22,2024,1810,92745,41.3031157166667,-71.5178796,180,417,1,"-","",5,"","",1,4,"H","","","","","","","","","","","","","","","","","","","","","","","","","","","","","",97,1500,100,"","","","","","","","","","","","","",0.0539884012
"X",7,22,2024,1811,92747,41.3022159333333,-71.517874,180,417,1,"-","",5,"","",1,4,"H","","","","","","","","","","","","","","","","","","","","","","","","","","","","","",97.1,1500,100,"","","","","","","","","","","","","",0.0540239931
"X",7,22,2024,1812,92749,41.3013163666667,-71.51785695,179,417,1,"-","",5,"","",1,4,"H","","","","","","","","","","","","","","","","","","","","","","","","","","","","","",97.1,1500,100,"","","","","","","","","","","","","",0.0540158687
"X",7,22,2024,1813,92751,41.3004195666667,-71.5178320333333,179,417,1,"-","",5,"","",1,4,"H","","","","","","","","","","","","","","","","","","","","","","","","","","","","","",96.9,1500,100,"","","","","","","","","","","","","",0.05385601
"S",7,22,2024,1814,92752,41.3000026239185,-71.51781964965,179,417,2,"1","1",5,"2","2",1,4,"H","","","","","","","","","","","","","","","","","","","","","","","","","","","","","",96.9,1500,100,"","","","","","","","","","","","","",0.0250396643
"X",7,22,2024,1815,92753,41.2995245333333,-71.51780545,179,418,2,"1","1",5,"2","2",1,4,"H","","","","","","","","","","","","","","","","","","","","","","","","","","","","","",96.8,1500,100,"","","","","","","","","","","","","",0.0537515865
"X",7,22,2024,1816,92755,41.29863035,-71.5177798166667,179,418,2,"1","1",5,"2","2",1,4,"H","","","","","","","","","","","","","","","","","","","","","","","","","","","","","",96.6,1500,100,"","","","","","","","","","","","","",0.0536996254
"X",7,22,2024,1817,92755,41.29863035,-71.5177798166667,179,418,2,"1","1",5,"2","2",1,4,"H","","","","","","","","","","","","","","","","","","","","","","","","","","","","","",96.6,1500,100,"","","","","","","","","","","","","",0
"X",7,22,2024,1818,92757,41.2977359166667,-71.51775275,179,418,2,"1","1",5,"2","2",1,4,"H","","","","","","","","","","","","","","","","","","","","","","","","","","","","","",96.6,1500,100,"","","","","","","","","","","","","",0.053716063
"X",7,22,2024,1819,92759,41.2968992655796,-71.5177238140587,179,417,2,"2","1",5,"2","2",1,4,"H","","","","","","","","","","","","","","","","","","","","","","","","","","","","","",96.7,1500,100,"","","","","","","","","","","","","",0.0502498685
"X",7,22,2024,1820,92759,41.2968400666667,-71.5177217666667,178,417,2,"2","1",5,"2","2",1,4,"H","","","","","","","","","","","","","","","","","","","","","","","","","","","","","",96.7,1500,100,"","","","","","","","","","","","","",0.053805398
"X",7,22,2024,1821,92801,41.2959434833333,-71.5176845666667,178,417,2,"2","1",5,"2","2",1,4,"H","","","","","","","","","","","","","","","","","","","","","","","","","","","","","",96.8,1500,100,"","","","","","","","","","","","","",0.0538574211
"X",7,22,2024,1822,92803,41.2950470333333,-71.5176448666667,178,417,2,"2","1",5,"2","2",1,4,"H","","","","","","","","","","","","","","","","","","","","","","","","","","","","","",96.9,1500,100,"","","","","","","","","","","","","",0.0538530526
"X",7,22,2024,1823,92805,41.2941502166667,-71.51760815,178,417,2,"2","1",5,"2","2",1,4,"H","","","","","","","","","","","","","","","","","","","","","","","","","","","","","",96.9,1500,100,"","","","","","","","","","","","","",0.0538707504
"X",7,22,2024,1824,92807,41.2932528166667,-71.5175769166667,179,417,2,"2","1",5,"2","2",1,4,"H","","","","","","","","","","","","","","","","","","","","","","","","","","","","","",96.9,1500,100,"","","","","","","","","","","","","",0.053898725
"X",7,22,2024,1825,92809,41.2923538666667,-71.5175532,179,417,2,"2","1",5,"2","2",1,4,"H","","","","","","","","","","","","","","","","","","","","","","","","","","","","","",97,1500,100,"","","","","","","","","","","","","",0.0539839718
"X",7,22,2024,1826,92811,41.29145335,-71.5175378166667,180,417,2,"2","1",5,"2","2",1,4,"H","","","","","","","","","","","","","","","","","","","","","","","","","","","","","",97.2,1500,100,"","","","","","","","","","","","","",0.0540718858
"X",7,22,2024,1827,92813,41.2905515333333,-71.51753305,180,417,2,"2","1",5,"2","2",1,4,"H","","","","","","","","","","","","","","","","","","","","","","","","","","","","","",97.3,1500,100,"","","","","","","","","","","","","",0.0541459119
"X",7,22,2024,1828,92815,41.2896488833333,-71.5175395,180,416,2,"2","1",5,"2","2",1,4,"H","","","","","","","","","","","","","","","","","","","","","","","","","","","","","",97.5,1500,100,"","","","","","","","","","","","","",0.0541962998
"X",7,22,2024,1829,92817,41.2887445666667,-71.5175565333333,181,416,2,"2","1",5,"2","2",1,4,"H","","","","","","","","","","","","","","","","","","","","","","","","","","","","","",97.6,1500,100,"","","","","","","","","","","","","",0.0543010236
"X",7,22,2024,1830,92819,41.2878389333333,-71.5175805,181,416,2,"2","1",5,"2","2",1,4,"H","","","","","","","","","","","","","","","","","","","","","","","","","","","","","",97.7,1500,100,"","","","","","","","","","","","","",0.0543853885
"P",7,22,2024,1831,92820,41.2873129032355,-71.5175979806773,181,415,2,"2","1",5,"2","2",1,4,"H","S14","","","RECV","1","","","1","9","0","","","","","","","","","","","","","","","","","","","",97.8,1500,100,"","","","","","","","","","","","","",0.0315929323
"X",7,22,2024,1832,92821,41.28693115,-71.5176106666667,182,415,2,"2","1",5,"2","2",1,4,"H","","","","","","","","","","","","","","","","","","","","","","","","","","","","","",97.9,1500,100,"","","","","","","","","","","","","",0.0545207155
"X",7,22,2024,1833,92823,41.28602075,-71.5176429666667,182,414,2,"2","1",5,"2","2",1,4,"H","","","","","","","","","","","","","","","","","","","","","","","","","","","","","",98.2,1500,100,"","","","","","","","","","","","","",0.0546802533
"P",7,22,2024,1834,92825,41.28511571657,-71.5176757971083,182,413,2,"2","1",5,"2","2",1,4,"H","S15","","","SV-L","1","","","1","9","0","","","","","","","","","","","","","","","","","","","",98.6,1500,100,"","","","","","","","","","","","","",0.0543588045
"X",7,22,2024,1835,92825,41.2851073666667,-71.5176761,182,413,2,"2","1",5,"2","2",1,4,"H","","","","","","","","","","","","","","","","","","","","","","","","","","","","","",98.6,1500,100,"","","","","","","","","","","","","",0.0548603227
"X",7,22,2024,1836,92825,41.2851073666667,-71.5176761,182,413,2,"2","1",5,"2","2",1,4,"H","","","","","","","","","","","","","","","","","","","","","","","","","","","","","",98.6,1500,100,"","","","","","","","","","","","","",0
"X",7,22,2024,1837,92827,41.2841911166667,-71.5177137833333,182,413,2,"2","1",5,"2","2",1,4,"H","","","","","","","","","","","","","","","","","","","","","","","","","","","","","",98.9,1500,100,"","","","","","","","","","","","","",0.0550383343
"X",7,22,2024,1838,92829,41.2832732166667,-71.5177609833333,182,412,2,"2","1",5,"2","2",1,4,"H","","","","","","","","","","","","","","","","","","","","","","","","","","","","","",99.1,1500,100,"","","","","","","","","","","","","",0.0551522641
"X",7,22,2024,1839,92831,41.2823551833333,-71.5178174833333,183,412,2,"2","1",5,"2","2",1,4,"H","","","","","","","","","","","","","","","","","","","","","","","","","","","","","",99.3,1500,100,"","","","","","","","","","","","","",0.0551780572
"S",7,22,2024,1840,92833,41.2815947161994,-71.5178696356948,183,412,2,"2","1",5,"2","2",1,4,"H","S16","","","SV-S","1","","","1","9","0","","","","","","","","","","","","","","","","","","","",99.3,1500,100,"","","","","","","","","","","","","",0.0457193868
"X",7,22,2024,1841,92833,41.2814372666667,-71.5178804333333,183,412,2,"2","1",5,"2","2",1,4,"H","","","","","","","","","","","","","","","","","","","","","","","","","","","","","",99.3,1500,100,"","","","","","","","","","","","","",0.0551852739
"X",7,22,2024,1842,92835,41.2805192333333,-71.5179405166667,183,412,2,"2","1",5,"2","2",1,4,"H","","","","","","","","","","","","","","","","","","","","","","","","","","","","","",99.3,1500,100,"","","","","","","","","","","","","",0.0551857664
"X",7,22,2024,1843,92837,41.2796010833333,-71.5179929666667,182,412,2,"2","1",5,"2","2",1,4,"H","","","","","","","","","","","","","","","","","","","","","","","","","","","","","",99.3,1500,100,"","","","","","","","","","","","","",0.0551769198
"X",7,22,2024,1844,92839,41.2786824666667,-71.5180366,182,411,2,"2","1",5,"2","2",1,4,"H","","","","","","","","","","","","","","","","","","","","","","","","","","","","","",99.3,1500,100,"","","","","","","","","","","","","",0.0551892916
"X",7,22,2024,1845,92841,41.2777627666667,-71.5180687833333,182,411,2,"2","1",5,"2","2",1,4,"H","","","","","","","","","","","","","","","","","","","","","","","","","","","","","",99.4,1500,100,"","","","","","","","","","","","","",0.0552382995
"X",7,22,2024,1846,92843,41.2768425833333,-71.5180928666667,181,411,2,"2","1",5,"2","2",1,4,"H","","","","","","","","","","","","","","","","","","","","","","","","","","","","","",99.4,1500,100,"","","","","","","","","","","","","",0.0552589141
"X",7,22,2024,1847,92845,41.2759237166667,-71.5181136,181,411,2,"2","1",5,"2","2",1,4,"H","","","","","","","","","","","","","","","","","","","","","","","","","","","","","",99.3,1500,100,"","","","","","","","","","","","","",0.0551771065
"S",7,22,2024,1848,92845,41.2759207251566,-71.5181136614192,181,411,2,"2","1",5,"2","2",1,4,"H","S17","","","RECV","1","","","1","9","0","","","","","","","","","","","","","","","","","","","",99.3,1500,100,"","","","","","","","","","","","","",0.000179633
"X",7,22,2024,1849,92847,41.2750064,-71.5181324333333,181,412,2,"2","1",5,"2","2",1,4,"H","","","","","","","","","","","","","","","","","","","","","","","","","","","","","",99.1,1500,100,"","","","","","","","","","","","","",0.055082668
"X",7,22,2024,1850,92849,41.27409195,-71.5181457833333,181,412,2,"2","1",5,"2","2",1,4,"H","","","","","","","","","","","","","","","","","","","","","","","","","","","","","",98.8,1500,100,"","","","","","","","","","","","","",0.0549073007
"X",7,22,2024,1851,92851,41.2731813166667,-71.5181519833333,180,413,2,"2","1",5,"2","2",1,4,"H","","","","","","","","","","","","","","","","","","","","","","","","","","","","","",98.5,1500,100,"","","","","","","","","","","","","",0.0546755574
"X",7,22,2024,1852,92853,41.27227365,-71.5181543666667,180,413,2,"2","1",5,"2","2",1,4,"H","","","","","","","","","","","","","","","","","","","","","","","","","","","","","",98.1,1500,100,"","","","","","","","","","","","","",0.0544968277
"S",7,22,2024,1853,92854,41.2719544306305,-71.5181536563838,180,413,2,"2","1",5,"2","2",1,4,"H","S18","","","SV-S","1","","","1","9","0","","","","","","","","","","","","","","","","","","","",98.1,1500,100,"","","","","","","","","","","","","",0.0191661037
"X",7,22,2024,1854,92855,41.2713673,-71.51815235,180,414,2,"2","1",5,"2","2",1,4,"H","","","","","","","","","","","","","","","","","","","","","","","","","","","","","",98,1500,100,"","","","","","","","","","","","","",0.0544177444
"X",7,22,2024,1855,92857,41.2704604833333,-71.5181457833333,180,413,2,"2","1",5,"2","2",1,4,"H","","","","","","","","","","","","","","","","","","","","","","","","","","","","","",98,1500,100,"","","","","","","","","","","","","",0.0544464936
"X",7,22,2024,1856,92859,41.2695510333333,-71.5181334,180,412,2,"2","1",5,"2","2",1,4,"H","","","","","","","","","","","","","","","","","","","","","","","","","","","","","",98.2,1500,100,"","","","","","","","","","","","","",0.0546066532
"X",7,22,2024,1857,92901,41.2686378833333,-71.5181155166667,179,412,2,"2","1",5,"2","2",1,4,"H","","","","","","","","","","","","","","","","","","","","","","","","","","","","","",98.5,1500,100,"","","","","","","","","","","","","",0.0548318828
"X",7,22,2024,1858,92903,41.2677221166667,-71.5180923833334,179,411,2,"2","1",5,"2","2",1,4,"H","","","","","","","","","","","","","","","","","","","","","","","","","","","","","",98.8,1500,100,"","","","","","","","","","","","","",0.0549929593
"X",7,22,2024,1859,92905,41.2668048,-71.5180661666667,179,411,2,"2","1",5,"2","2",1,4,"H","","","","","","","","","","","","","","","","","","","","","","","","","","","","","",99,1500,100,"","","","","","","","","","","","","",0.0550888184
"X",7,22,2024,1860,92907,41.2658876166667,-71.5180374333333,179,411,2,"2","1",5,"2","2",1,4,"H","","","","","","","","","","","","","","","","","","","","","","","","","","","","","",99.1,1500,100,"","","","","","","","","","","","","",0.0550833718
"X",7,22,2024,1861,92909,41.2649716,-71.5180084666667,179,412,2,"2","1",5,"2","2",1,4,"H","","","","","","","","","","","","","","","","","","","","","","","","","","","","","",99,1500,100,"","","","","","","","","","","","","",0.0550135937
"X",7,22,2024,1862,92911,41.26405835,-71.5179790166667,179,412,2,"2","1",5,"2","2",1,4,"H","","","","","","","","","","","","","","","","","","","","","","","","","","","","","",98.8,1500,100,"","","","","","","","","","","","","",0.0548480535
"X",7,22,2024,1863,92913,41.2631483,-71.5179431333333,178,413,2,"2","1",5,"2","2",1,4,"H","","","","","","","","","","","","","","","","","","","","","","","","","","","","","",98.5,1500,100,"","","","","","","","","","","","","",0.0546638124
"X",7,22,2024,1864,92915,41.262241,-71.5178982,178,415,2,"2","1",5,"2","2",1,4,"H","","","","","","","","","","","","","","","","","","","","","","","","","","","","","",98.2,1500,100,"","","","","","","","","","","","","",0.0545124407
"X",7,22,2024,1865,92917,41.26133525,-71.5178406166667,177,416,2,"2","1",5,"2","2",1,4,"H","","","","","","","","","","","","","","","","","","","","","","","","","","","","","",98,1500,100,"","","","","","","","","","","","","",0.0544437089
"X",7,22,2024,1866,92919,41.2604308,-71.51776635,176,417,2,"2","1",5,"2","2",1,4,"H","","","","","","","","","","","","","","","","","","","","","","","","","","","","","",97.9,1500,100,"","","","","","","","","","","","","",0.0544069414
"X",7,22,2024,1867,92921,41.2595274333333,-71.5176725333333,175,418,2,"2","1",5,"2","2",1,4,"H","","","","","","","","","","","","","","","","","","","","","","","","","","","","","",97.9,1500,100,"","","","","","","","","","","","","",0.0544035795
"X",7,22,2024,1868,92923,41.2586263333333,-71.5175551166667,174,419,2,"2","1",5,"2","2",1,4,"H","","","","","","","","","","","","","","","","","","","","","","","","","","","","","",97.8,1500,100,"","","","","","","","","","","","","",0.0543613919
"X",7,22,2024,1869,92925,41.2577267833333,-71.5174136,173,419,2,"2","1",5,"2","2",1,4,"H","","","","","","","","","","","","","","","","","","","","","","","","","","","","","",97.8,1500,100,"","","","","","","","","","","","","",0.0543857807
"X",7,22,2024,1870,92927,41.25682675,-71.5172672166667,173,419,2,"2","1",5,"2","2",1,4,"H","","","","","","","","","","","","","","","","","","","","","","","","","","","","","",97.9,1500,100,"","","","","","","","","","","","","",0.0544408318
"X",7,22,2024,1871,92929,41.25592315,-71.5171543333333,175,419,2,"2","1",5,"2","2",1,4,"H","","","","","","","","","","","","","","","","","","","","","","","","","","","","","",98,1500,100,"","","","","","","","","","","","","",0.0544912881
"X",7,22,2024,1872,92931,41.2550138166667,-71.5170989,178,418,2,"2","1",5,"2","2",1,4,"H","","","","","","","","","","","","","","","","","","","","","","","","","","","","","",98.3,1500,100,"","","","","","","","","","","","","",0.0546540928
"X",7,22,2024,1873,92933,41.2541033,-71.51707815,179,418,2,"2","1",5,"2","2",1,4,"H","","","","","","","","","","","","","","","","","","","","","","","","","","","","","",98.3,1500,100,"","","","","","","","","","","","","",0.0546758596
"X",7,22,2024,1874,92935,41.2531929,-71.5170500166667,178,418,2,"2","1",5,"2","2",1,4,"H","","","","","","","","","","","","","","","","","","","","","","","","","","","","","",98.3,1500,100,"","","","","","","","","","","","","",0.0546755814
"X",7,22,2024,1875,92937,41.2522832,-71.5170053166667,178,418,2,"2","1",5,"2","2",1,4,"H","","","","","","","","","","","","","","","","","","","","","","","","","","","","","",98.3,1500,100,"","","","","","","","","","","","","",0.0546560599
"X",7,22,2024,1876,92939,41.2513734,-71.5169600166667,178,417,2,"2","1",5,"2","2",1,4,"H","","","","","","","","","","","","","","","","","","","","","","","","","","","","","",98.3,1500,100,"","","","","","","","","","","","","",0.0546630674
"X",7,22,2024,1877,92941,41.2504622833333,-71.51692235,178,417,2,"2","1",5,"2","2",1,4,"H","","","","","","","","","","","","","","","","","","","","","","","","","","","","","",98.4,1500,100,"","","","","","","","","","","","","",0.0547302785
"X",7,22,2024,1878,92943,41.2495511666667,-71.5168877833333,178,418,2,"2","1",5,"2","2",1,4,"H","","","","","","","","","","","","","","","","","","","","","","","","","","","","","",98.4,1500,100,"","","","","","","","","","","","","",0.0547261105
"X",7,22,2024,1879,92945,41.248641,-71.5168478333333,178,418,2,"2","1",5,"2","2",1,4,"H","","","","","","","","","","","","","","","","","","","","","","","","","","","","","",98.3,1500,100,"","","","","","","","","","","","","",0.0546765717
"X",7,22,2024,1880,92947,41.2477314333333,-71.5168042166667,178,418,2,"2","1",5,"2","2",1,4,"H","","","","","","","","","","","","","","","","","","","","","","","","","","","","","",98.3,1500,100,"","","","","","","","","","","","","",0.0546462813
"X",7,22,2024,1881,92949,41.2468219833333,-71.5167573666667,178,418,2,"2","1",5,"2","2",1,4,"H","","","","","","","","","","","","","","","","","","","","","","","","","","","","","",98.3,1500,100,"","","","","","","","","","","","","",0.0546447366
"X",7,22,2024,1882,92951,41.2459120666667,-71.5167090833333,178,418,2,"2","1",5,"2","2",1,4,"H","","","","","","","","","","","","","","","","","","","","","","","","","","","","","",98.3,1500,100,"","","","","","","","","","","","","",0.054675277
