"rectype","month","day","year","eventno","time","lat","long","heading","alt","legtype","legstage","legno","visiblty","glarel","glarer","beaufort","cloud","wx","sightno","anglel","angler","speccode","number","numcalf","anhead","photos","idrel","confidnc","b1","b2","b3","b4","b5","b6","b7","b8","b9","b10","b11","b12","b13","b14","b15","refno","stratum","utc","radalt","gpsspeed","setalt","setvel","lensfl","ggf","int","gpsq","gpssats","roll","pitch","yaw","maghead","notes","edits","glarev","ph_qual","TrackDist"
"S",3,13,2024,414,95743,41.22795005,-70.68707695,83,435,1,"-","",5,"","",2,1,"C","1","","","","","","","","","","","","","","","","","","","","","","","","","","","","",115.5,1000,100,"","","","","","","","","","","ON WATCH - ","","",0.042491232
"X",3,13,2024,415,95747,41.22820167,-70.68451667,82,432,1,"-","",5,"","",2,1,"C","","","","","","","","","","","","","","","","","","","","","","","","","","","","","",113.3,1000,100,"","","","","","","","","","","","","",0.159086094
"X",3,13,2024,416,95752,41.22855667,-70.68114167,82,435,1,"-","",5,"","",2,1,"C","","","","","","","","","","","","","","","","","","","","","","","","","","","","","",108.9,1000,100,"","","","","","","","","","","","","",0.153883894
"X",3,13,2024,417,95757,41.22889,-70.67791,82,439,1,"-","",5,"","",2,1,"C","","","","","","","","","","","","","","","","","","","","","","","","","","","","","",103.7,1000,100,"","","","","","","","","","","","","",0.147293534
"X",3,13,2024,418,95802,41.229225,-70.674815,81,438,1,"-","",5,"","",2,1,"C","","","","","","","","","","","","","","","","","","","","","","","","","","","","","",101,1000,100,"","","","","","","","","","","","","",0.141195517
"X",3,13,2024,419,95807,41.229615,-70.67178167,79,429,1,"-","",5,"","",2,1,"C","","","","","","","","","","","","","","","","","","","","","","","","","","","","","",100.1,1000,100,"","","","","","","","","","","","","",0.138957345
"X",3,13,2024,420,95812,41.23007833,-70.66875833,78,425,1,"-","",5,"","",2,1,"C","","","","","","","","","","","","","","","","","","","","","","","","","","","","","",100.5,1000,100,"","","","","","","","","","","","","",0.13932333
"X",3,13,2024,421,95817,41.23058,-70.66575667,77,431,1,"-","",5,"","",2,1,"C","","","","","","","","","","","","","","","","","","","","","","","","","","","","","",99.6,1000,100,"","","","","","","","","","","","","",0.138844881
"X",3,13,2024,422,95822,41.23108667,-70.662785,78,436,1,"-","",5,"","",2,1,"C","","","","","","","","","","","","","","","","","","","","","","","","","","","","","",99.1,1000,100,"","","","","","","","","","","","","",0.137587875
"X",3,13,2024,423,95827,41.23157333,-70.65983167,77,436,1,"-","",5,"","",2,1,"C","","","","","","","","","","","","","","","","","","","","","","","","","","","","","",98.2,1000,100,"","","","","","","","","","","","","",0.136517627
"X",3,13,2024,424,95832,41.23211,-70.65691333,76,436,1,"-","",5,"","",2,1,"C","","","","","","","","","","","","","","","","","","","","","","","","","","","","","",97.5,1000,100,"","","","","","","","","","","","","",0.135654846
"X",3,13,2024,425,95832,41.23211,-70.65691333,76,436,1,"-","",5,"","",2,1,"C","","","","","","","","","","","","","","","","","","","","","","","","","","","","","",97.5,1000,100,"","","","","","","","","","","","","",0
"X",3,13,2024,426,95837,41.23264833,-70.653995,77,437,1,"-","",5,"","",2,1,"C","","","","","","","","","","","","","","","","","","","","","","","","","","","","","",98.4,1000,100,"","","","","","","","","","","","","",0.135677597
"X",3,13,2024,427,95842,41.233135,-70.65104,78,438,1,"-","",5,"","",2,1,"C","","","","","","","","","","","","","","","","","","","","","","","","","","","","","",99.1,1000,100,"","","","","","","","","","","","","",0.136588027
"X",3,13,2024,428,95847,41.23363833,-70.648065,77,441,1,"-","",5,"","",2,1,"C","","","","","","","","","","","","","","","","","","","","","","","","","","","","","",99.8,1000,100,"","","","","","","","","","","","","",0.137685485
"X",3,13,2024,429,95852,41.23413167,-70.64506333,78,442,1,"-","",5,"","",2,1,"C","","","","","","","","","","","","","","","","","","","","","","","","","","","","","",100.3,1000,100,"","","","","","","","","","","","","",0.138729998
"X",3,13,2024,430,95857,41.234605,-70.64206167,78,444,1,"-","",5,"","",2,1,"C","","","","","","","","","","","","","","","","","","","","","","","","","","","","","",99.7,1000,100,"","","","","","","","","","","","","",0.138477604
"X",3,13,2024,431,95902,41.235065,-70.639055,78,447,1,"-","",5,"","",2,1,"C","","","","","","","","","","","","","","","","","","","","","","","","","","","","","",100,1000,100,"","","","","","","","","","","","","",0.138535801
"X",3,13,2024,432,95907,41.23551333,-70.63604167,79,451,1,"-","",5,"","",2,1,"C","","","","","","","","","","","","","","","","","","","","","","","","","","","","","",100.1,1000,100,"","","","","","","","","","","","","",0.138692202
"X",3,13,2024,433,95912,41.235945,-70.63302833,80,452,1,"-","",5,"","",2,1,"C","","","","","","","","","","","","","","","","","","","","","","","","","","","","","",100.4,1000,100,"","","","","","","","","","","","","",0.138500565
"X",3,13,2024,434,95917,41.23635667,-70.62998667,80,454,1,"-","",5,"","",2,1,"C","","","","","","","","","","","","","","","","","","","","","","","","","","","","","",100.8,1000,100,"","","","","","","","","","","","","",0.139538873
"X",3,13,2024,435,95922,41.23676667,-70.62693667,80,458,1,"-","",5,"","",2,1,"C","","","","","","","","","","","","","","","","","","","","","","","","","","","","","",101.3,1000,100,"","","","","","","","","","","","","",0.139890697
"X",3,13,2024,436,95927,41.23722,-70.62389,78,461,1,"-","",5,"","",2,1,"C","","","","","","","","","","","","","","","","","","","","","","","","","","","","","",101.2,1000,100,"","","","","","","","","","","","","",0.140223362
"X",3,13,2024,437,95932,41.23772167,-70.62086833,77,466,1,"-","",5,"","",2,1,"C","","","","","","","","","","","","","","","","","","","","","","","","","","","","","",100.6,1000,100,"","","","","","","","","","","","","",0.139712045
"X",3,13,2024,438,95932,41.23772167,-70.62086833,77,466,1,"-","",5,"","",2,1,"C","","","","","","","","","","","","","","","","","","","","","","","","","","","","","",100.6,1000,100,"","","","","","","","","","","","","",0
"X",3,13,2024,439,95937,41.23825,-70.617875,77,470,1,"-","",5,"","",2,1,"C","","","","","","","","","","","","","","","","","","","","","","","","","","","","","",100.1,1000,100,"","","","","","","","","","","","","",0.138819214
"X",3,13,2024,440,95942,41.23878,-70.61487833,77,470,1,"-","",5,"","",2,1,"C","","","","","","","","","","","","","","","","","","","","","","","","","","","","","",100.5,1000,100,"","","","","","","","","","","","","",0.138987544
"X",3,13,2024,441,95947,41.239325,-70.61188167,77,471,1,"-","",5,"","",2,1,"C","","","","","","","","","","","","","","","","","","","","","","","","","","","","","",100.3,1000,100,"","","","","","","","","","","","","",0.139195419
"X",3,13,2024,442,95952,41.23987,-70.60889833,76,473,1,"-","",5,"","",2,1,"C","","","","","","","","","","","","","","","","","","","","","","","","","","","","","",99.8,1000,100,"","","","","","","","","","","","","",0.138609291
"X",3,13,2024,443,95957,41.24039667,-70.60591833,77,474,1,"-","",5,"","",2,1,"C","","","","","","","","","","","","","","","","","","","","","","","","","","","","","",99.8,1000,100,"","","","","","","","","","","","","",0.13820599
"X",3,13,2024,444,100002,41.24087833,-70.60290667,79,471,1,"-","",5,"","",2,1,"C","","","","","","","","","","","","","","","","","","","","","","","","","","","","","",100.7,1000,100,"","","","","","","","","","","","","",0.139010002
"X",3,13,2024,445,100002,41.24087833,-70.60290667,79,471,1,"-","",5,"","",2,1,"C","","","","","","","","","","","","","","","","","","","","","","","","","","","","","",100.7,1000,100,"","","","","","","","","","","","","",0
"X",3,13,2024,446,100007,41.24131833,-70.59987667,80,469,1,"-","",5,"","",2,1,"C","","","","","","","","","","","","","","","","","","","","","","","","","","","","","",100.6,1000,100,"","","","","","","","","","","","","",0.139322818
"X",3,13,2024,447,100012,41.24173167,-70.59683167,80,466,1,"-","",5,"","",2,1,"C","","","","","","","","","","","","","","","","","","","","","","","","","","","","","",101.1,1000,100,"","","","","","","","","","","","","",0.139693614
"X",3,13,2024,448,100017,41.242145,-70.593775,80,465,1,"-","",5,"","",2,1,"C","","","","","","","","","","","","","","","","","","","","","","","","","","","","","",100.9,1000,100,"","","","","","","","","","","","","",0.140211119
"X",3,13,2024,449,100022,41.242565,-70.590735,80,466,1,"-","",5,"","",2,1,"C","","","","","","","","","","","","","","","","","","","","","","","","","","","","","",100.7,1000,100,"","","","","","","","","","","","","",0.13954154
"X",3,13,2024,450,100027,41.242985,-70.5877,80,466,1,"-","",5,"","",2,1,"C","","","","","","","","","","","","","","","","","","","","","","","","","","","","","",100.5,1000,100,"","","","","","","","","","","","","",0.139318666
"X",3,13,2024,451,100032,41.24339,-70.58465167,80,465,1,"-","",5,"","",2,1,"C","","","","","","","","","","","","","","","","","","","","","","","","","","","","","",101.2,1000,100,"","","","","","","","","","","","","",0.13975034
"X",3,13,2024,452,100037,41.24377,-70.58158333,81,465,1,"-","",5,"","",2,1,"C","","","","","","","","","","","","","","","","","","","","","","","","","","","","","",101.4,1000,100,"","","","","","","","","","","","","",0.140387006
"X",3,13,2024,453,100042,41.244175,-70.578535,80,466,1,"-","",5,"","",2,1,"C","","","","","","","","","","","","","","","","","","","","","","","","","","","","","",100.3,1000,100,"","","","","","","","","","","","","",0.139748712
"X",3,13,2024,454,100047,41.24459333,-70.57552,80,467,1,"-","",5,"","",2,1,"C","","","","","","","","","","","","","","","","","","","","","","","","","","","","","",99.5,1000,100,"","","","","","","","","","","","","",0.13840927
"X",3,13,2024,455,100052,41.24497833,-70.57249667,81,464,1,"-","",5,"","",2,1,"C","","","","","","","","","","","","","","","","","","","","","","","","","","","","","",100.6,1000,100,"","","","","","","","","","","","","",0.1384302
"X",3,13,2024,456,100057,41.24531167,-70.56942,82,462,1,"-","",5,"","",2,1,"C","","","","","","","","","","","","","","","","","","","","","","","","","","","","","",101.6,1000,100,"","","","","","","","","","","","","",0.140328019
"X",3,13,2024,457,100102,41.24558,-70.56631167,84,461,1,"-","",5,"","",2,1,"C","","","","","","","","","","","","","","","","","","","","","","","","","","","","","",102.3,1000,100,"","","","","","","","","","","","","",0.141244292
"X",3,13,2024,458,100107,41.24580167,-70.56318833,85,460,1,"-","",5,"","",2,1,"C","","","","","","","","","","","","","","","","","","","","","","","","","","","","","",102.2,1000,100,"","","","","","","","","","","","","",0.141625809
"X",3,13,2024,459,100112,41.24599333,-70.56006333,86,459,1,"-","",5,"","",2,1,"C","","","","","","","","","","","","","","","","","","","","","","","","","","","","","",102.3,1000,100,"","","","","","","","","","","","","",0.141542456
"X",3,13,2024,460,100117,41.24618833,-70.55693167,85,456,1,"-","",5,"","",2,1,"C","","","","","","","","","","","","","","","","","","","","","","","","","","","","","",102.6,1000,100,"","","","","","","","","","","","","",0.14185838
"X",3,13,2024,461,100122,41.24639167,-70.55379667,85,456,1,"-","",5,"","",2,1,"C","","","","","","","","","","","","","","","","","","","","","","","","","","","","","",102.4,1000,100,"","","","","","","","","","","","","",0.142050041
"X",3,13,2024,462,100127,41.24660333,-70.55066167,85,456,1,"-","",5,"","",2,1,"C","","","","","","","","","","","","","","","","","","","","","","","","","","","","","",102.7,1000,100,"","","","","","","","","","","","","",0.142093468
"X",3,13,2024,463,100132,41.24681667,-70.54751667,85,455,1,"-","",5,"","",2,1,"C","","","","","","","","","","","","","","","","","","","","","","","","","","","","","",103,1000,100,"","","","","","","","","","","","","",0.142551594
"X",3,13,2024,464,100132,41.24681667,-70.54751667,85,455,1,"-","",5,"","",2,1,"C","","","","","","","","","","","","","","","","","","","","","","","","","","","","","",103,1000,100,"","","","","","","","","","","","","",0
"X",3,13,2024,465,100137,41.24702,-70.54435833,85,453,1,"-","",5,"","",2,1,"C","","","","","","","","","","","","","","","","","","","","","","","","","","","","","",103.6,1000,100,"","","","","","","","","","","","","",0.143098151
"X",3,13,2024,466,100142,41.24723667,-70.54119167,85,452,1,"-","",5,"","",2,1,"C","","","","","","","","","","","","","","","","","","","","","","","","","","","","","",103.3,1000,100,"","","","","","","","","","","","","",0.143542852
"X",3,13,2024,467,100147,41.24748,-70.53805,84,452,1,"-","",5,"","",2,1,"C","","","","","","","","","","","","","","","","","","","","","","","","","","","","","",102.8,1000,100,"","","","","","","","","","","","","",0.142573626
"X",3,13,2024,468,100152,41.247705,-70.53490667,85,451,1,"-","",5,"","",2,1,"C","","","","","","","","","","","","","","","","","","","","","","","","","","","","","",103.2,1000,100,"","","","","","","","","","","","","",0.142539431
"X",3,13,2024,469,100157,41.24791167,-70.53173333,85,449,1,"-","",5,"","",2,1,"C","","","","","","","","","","","","","","","","","","","","","","","","","","","","","",103.8,1000,100,"","","","","","","","","","","","","",0.143788027
"X",3,13,2024,470,100202,41.248125,-70.52855333,85,447,1,"-","",5,"","",2,1,"C","","","","","","","","","","","","","","","","","","","","","","","","","","","","","",103.9,1000,100,"","","","","","","","","","","","","",0.144122417
"X",3,13,2024,471,100207,41.24833,-70.52537667,85,445,1,"-","",5,"","",2,1,"C","","","","","","","","","","","","","","","","","","","","","","","","","","","","","",104.1,1000,100,"","","","","","","","","","","","","",0.143928432
"X",3,13,2024,472,100212,41.248515,-70.522185,86,443,1,"-","",5,"","",2,1,"C","","","","","","","","","","","","","","","","","","","","","","","","","","","","","",104.6,1000,100,"","","","","","","","","","","","","",0.144505407
"X",3,13,2024,473,100217,41.248705,-70.51897333,85,443,1,"-","",5,"","",2,1,"C","","","","","","","","","","","","","","","","","","","","","","","","","","","","","",105.2,1000,100,"","","","","","","","","","","","","",0.145428417
"X",3,13,2024,474,100222,41.24885833,-70.51576,88,446,1,"-","",5,"","",2,1,"C","","","","","","","","","","","","","","","","","","","","","","","","","","","","","",104.7,1000,100,"","","","","","","","","","","","","",0.145347012
"X",3,13,2024,475,100227,41.24890667,-70.51256833,89,450,1,"-","",5,"","",2,1,"C","","","","","","","","","","","","","","","","","","","","","","","","","","","","","",103.5,1000,100,"","","","","","","","","","","","","",0.144106092
"X",3,13,2024,476,100232,41.24892667,-70.50940333,90,451,1,"-","",5,"","",2,1,"C","","","","","","","","","","","","","","","","","","","","","","","","","","","","","",103.1,1000,100,"","","","","","","","","","","","","",0.142878065
"X",3,13,2024,477,100237,41.24893667,-70.50623667,90,448,1,"-","",5,"","",2,1,"C","","","","","","","","","","","","","","","","","","","","","","","","","","","","","",103.7,1000,100,"","","","","","","","","","","","","",0.142949483
"X",3,13,2024,478,100242,41.24891167,-70.50303667,91,445,1,"-","",5,"","",2,1,"C","","","","","","","","","","","","","","","","","","","","","","","","","","","","","",104.3,1000,100,"","","","","","","","","","","","","",0.144460755
"X",3,13,2024,479,100247,41.248845,-70.49984833,92,445,1,"-","",5,"","",2,1,"C","","","","","","","","","","","","","","","","","","","","","","","","","","","","","",103.7,1000,100,"","","","","","","","","","","","","",0.143982055
"X",3,13,2024,480,100252,41.248765,-70.49667,92,444,1,"-","",5,"","",2,1,"C","","","","","","","","","","","","","","","","","","","","","","","","","","","","","",103.5,1000,100,"","","","","","","","","","","","","",0.14355553
"X",3,13,2024,481,100257,41.24869333,-70.49348833,92,443,1,"-","",5,"","",2,1,"C","","","","","","","","","","","","","","","","","","","","","","","","","","","","","",104.1,1000,100,"","","","","","","","","","","","","",0.143690232
"X",3,13,2024,482,100302,41.24862333,-70.49028833,92,441,1,"-","",5,"","",2,1,"C","","","","","","","","","","","","","","","","","","","","","","","","","","","","","",104.7,1000,100,"","","","","","","","","","","","","",0.144514672
"X",3,13,2024,483,100302,41.24862333,-70.49028833,92,441,1,"-","",5,"","",2,1,"C","","","","","","","","","","","","","","","","","","","","","","","","","","","","","",104.7,1000,100,"","","","","","","","","","","","","",0
"X",3,13,2024,484,100307,41.248545,-70.48707667,92,440,1,"-","",5,"","",2,1,"C","","","","","","","","","","","","","","","","","","","","","","","","","","","","","",104.8,1000,100,"","","","","","","","","","","","","",0.145056628
"X",3,13,2024,485,100312,41.24847333,-70.483865,92,444,1,"-","",5,"","",2,1,"C","","","","","","","","","","","","","","","","","","","","","","","","","","","","","",104.3,1000,100,"","","","","","","","","","","","","",0.145044368
"X",3,13,2024,486,100317,41.24841667,-70.48069667,91,450,1,"-","",5,"","",2,1,"C","","","","","","","","","","","","","","","","","","","","","","","","","","","","","",102.4,1000,100,"","","","","","","","","","","","","",0.143064985
"X",3,13,2024,487,100322,41.248365,-70.47757833,91,453,1,"-","",5,"","",2,1,"C","","","","","","","","","","","","","","","","","","","","","","","","","","","","","",101.6,1000,100,"","","","","","","","","","","","","",0.140801722
"X",3,13,2024,488,100327,41.24833333,-70.47446,91,453,1,"-","",5,"","",2,1,"C","","","","","","","","","","","","","","","","","","","","","","","","","","","","","",101.9,1000,100,"","","","","","","","","","","","","",0.140780475
"X",3,13,2024,489,100332,41.24832,-70.47133167,90,453,1,"-","",5,"","",2,1,"C","","","","","","","","","","","","","","","","","","","","","","","","","","","","","",102,1000,100,"","","","","","","","","","","","","",0.141221373
"X",3,13,2024,490,100337,41.24832333,-70.468205,90,453,1,"-","",5,"","",2,1,"C","","","","","","","","","","","","","","","","","","","","","","","","","","","","","",101.8,1000,100,"","","","","","","","","","","","","",0.14114402
"X",3,13,2024,491,100342,41.24835833,-70.465085,89,453,1,"-","",5,"","",2,1,"C","","","","","","","","","","","","","","","","","","","","","","","","","","","","","",101.8,1000,100,"","","","","","","","","","","","","",0.140858567
"X",3,13,2024,492,100347,41.24842167,-70.46196,88,452,1,"-","",5,"","",2,1,"C","","","","","","","","","","","","","","","","","","","","","","","","","","","","","",102.2,1000,100,"","","","","","","","","","","","","",0.141119735
"X",3,13,2024,493,100352,41.24849667,-70.458805,88,450,1,"-","",5,"","",2,1,"C","","","","","","","","","","","","","","","","","","","","","","","","","","","","","",103,1000,100,"","","","","","","","","","","","","",0.14249377
"X",3,13,2024,494,100357,41.24858,-70.45564833,88,451,1,"-","",5,"","",2,1,"C","","","","","","","","","","","","","","","","","","","","","","","","","","","","","",102.8,1000,100,"","","","","","","","","","","","","",0.142585477
"X",3,13,2024,495,100402,41.24867833,-70.45250833,87,452,1,"-","",5,"","",2,1,"C","","","","","","","","","","","","","","","","","","","","","","","","","","","","","",102.2,1000,100,"","","","","","","","","","","","","",0.141868007
"X",3,13,2024,496,100402,41.24867833,-70.45250833,87,452,1,"-","",5,"","",2,1,"C","","","","","","","","","","","","","","","","","","","","","","","","","","","","","",102.2,1000,100,"","","","","","","","","","","","","",0
"X",3,13,2024,497,100407,41.24880333,-70.44938333,86,452,1,"-","",5,"","",2,1,"C","","","","","","","","","","","","","","","","","","","","","","","","","","","","","",102,1000,100,"","","","","","","","","","","","","",0.141267237
"X",3,13,2024,498,100412,41.248975,-70.44625167,85,450,1,"-","",5,"","",2,1,"C","","","","","","","","","","","","","","","","","","","","","","","","","","","","","",102.6,1000,100,"","","","","","","","","","","","","",0.141743594
"X",3,13,2024,499,100417,41.24917333,-70.44311167,85,450,1,"-","",5,"","",2,1,"C","","","","","","","","","","","","","","","","","","","","","","","","","","","","","",102.5,1000,100,"","","","","","","","","","","","","",0.14224346
"X",3,13,2024,500,100422,41.249375,-70.43998,85,450,1,"-","",5,"","",2,1,"C","","","","","","","","","","","","","","","","","","","","","","","","","","","","","",102.7,1000,100,"","","","","","","","","","","","","",0.141885113
"X",3,13,2024,501,100427,41.24958333,-70.43681833,85,448,1,"-","",5,"","",2,1,"C","","","","","","","","","","","","","","","","","","","","","","","","","","","","","",104,1000,100,"","","","","","","","","","","","","",0.143268404
"X",3,13,2024,502,100432,41.24981,-70.43363833,85,450,1,"-","",5,"","",2,1,"C","","","","","","","","","","","","","","","","","","","","","","","","","","","","","",103.6,1000,100,"","","","","","","","","","","","","",0.144192097
"X",3,13,2024,503,100437,41.249945,-70.43049,90,456,1,"-","",5,"","",2,1,"C","","","","","","","","","","","","","","","","","","","","","","","","","","","","","",102.4,1000,100,"","","","","","","","","","","","","",0.142349522
"X",3,13,2024,504,100442,41.249745,-70.42736667,100,460,1,"-","",5,"","",2,1,"C","","","","","","","","","","","","","","","","","","","","","","","","","","","","","",102.6,1000,100,"","","","","","","","","","","","","",0.141500557
"X",3,13,2024,505,100447,41.24912833,-70.42432667,109,461,1,"-","",5,"","",2,1,"C","","","","","","","","","","","","","","","","","","","","","","","","","","","","","",102.9,1000,100,"","","","","","","","","","","","","",0.142136234
"X",3,13,2024,506,100452,41.24825667,-70.42138333,114,462,1,"-","",5,"","",2,1,"C","","","","","","","","","","","","","","","","","","","","","","","","","","","","","",103.2,1000,100,"","","","","","","","","","","","","",0.14280282
"X",3,13,2024,507,100457,41.24711667,-70.4186,123,461,1,"-","",5,"","",2,1,"C","","","","","","","","","","","","","","","","","","","","","","","","","","","","","",103.9,1000,100,"","","","","","","","","","","","","",0.143079973
"X",3,13,2024,508,100502,41.24560833,-70.416085,133,456,1,"-","",5,"","",2,1,"C","","","","","","","","","","","","","","","","","","","","","","","","","","","","","",106,1000,100,"","","","","","","","","","","","","",0.145229462
"X",3,13,2024,509,100502,41.24560833,-70.416085,133,456,1,"-","",5,"","",2,1,"C","","","","","","","","","","","","","","","","","","","","","","","","","","","","","",106,1000,100,"","","","","","","","","","","","","",0
"X",3,13,2024,510,100507,41.24377167,-70.41390333,143,454,1,"-","",5,"","",2,1,"C","","","","","","","","","","","","","","","","","","","","","","","","","","","","","",107,1000,100,"","","","","","","","","","","","","",0.147853783
"X",3,13,2024,511,100512,41.24164167,-70.41219333,154,452,1,"-","",5,"","",2,1,"C","","","","","","","","","","","","","","","","","","","","","","","","","","","","","",107.8,1000,100,"","","","","","","","","","","","","",0.149380788
"X",3,13,2024,512,100517,41.2393,-70.411025,164,450,1,"-","",5,"","",2,1,"C","","","","","","","","","","","","","","","","","","","","","","","","","","","","","",108.4,1000,100,"","","","","","","","","","","","","",0.150163735
"X",3,13,2024,513,100522,41.23683833,-70.410385,172,450,1,"-","",5,"","",2,1,"C","","","","","","","","","","","","","","","","","","","","","","","","","","","","","",108.4,1000,100,"","","","","","","","","","","","","",0.150597686
"X",3,13,2024,514,100527,41.23434167,-70.41002833,175,450,1,"-","",5,"","",2,1,"C","","","","","","","","","","","","","","","","","","","","","","","","","","","","","",108.4,1000,100,"","","","","","","","","","","","","",0.150763536
"X",3,13,2024,515,100532,41.23184667,-70.40974167,175,450,1,"-","",5,"","",2,1,"C","","","","","","","","","","","","","","","","","","","","","","","","","","","","","",108.1,1000,100,"","","","","","","","","","","","","",0.150359108
"X",3,13,2024,516,100532,41.23184667,-70.40974167,175,450,1,"-","",5,"","",2,1,"C","","","","","","","","","","","","","","","","","","","","","","","","","","","","","",108.1,1000,100,"","","","","","","","","","","","","",0
"X",3,13,2024,517,100537,41.22935833,-70.40936667,172,450,1,"-","",5,"","",2,1,"C","","","","","","","","","","","","","","","","","","","","","","","","","","","","","",108,1000,100,"","","","","","","","","","","","","",0.150357178
"X",3,13,2024,518,100542,41.22688333,-70.408905,172,449,1,"-","",5,"","",2,1,"C","","","","","","","","","","","","","","","","","","","","","","","","","","","","","",108,1000,100,"","","","","","","","","","","","","",0.150055309
"S",3,13,2024,519,100546,41.22510815,-70.40858245,172,448,2,"1","58",5,"3","1",2,1,"C","2","","","","","","","","","","","","","","","","","","","","","","","","","","","","",108,1000,100,"","","","","","","","","","","DELETE - ","","",0.107573456
"X",3,13,2024,520,100547,41.22440667,-70.408455,172,448,2,"2","58",5,"3","1",2,1,"C","","","","","","","","","","","","","","","","","","","","","","","","","","","","","",108.1,1000,100,"","","","","","","","","","","","","",0.150082276
"X",3,13,2024,521,100552,41.22192667,-70.40796667,171,447,2,"2","58",5,"3","1",2,1,"C","","","","","","","","","","","","","","","","","","","","","","","","","","","","","",108.1,1000,100,"","","","","","","","","","","","","",0.150524536
"X",3,13,2024,522,100557,41.21946333,-70.40740167,170,446,2,"2","58",5,"3","1",2,1,"C","","","","","","","","","","","","","","","","","","","","","","","","","","","","","",107.6,1000,100,"","","","","","","","","","","","","",0.15008456
"X",3,13,2024,523,100602,41.21701333,-70.40683333,170,444,2,"1","58",5,"3","1",2,1,"C","","","","","","","","","","","","","","","","","","","","","","","","","","","","","",107,1000,100,"","","","","","","","","","","","","",0.149321704
"X",3,13,2024,524,100607,41.214575,-70.40634333,173,440,2,"2","58",5,"3","1",2,1,"C","","","","","","","","","","","","","","","","","","","","","","","","","","","","","",106.4,1000,100,"","","","","","","","","","","","","",0.1480619
"X",3,13,2024,525,100612,41.21213333,-70.40593667,173,439,2,"2","58",5,"3","1",2,1,"C","","","","","","","","","","","","","","","","","","","","","","","","","","","","","",105.6,1000,100,"","","","","","","","","","","","","",0.14774495
"X",3,13,2024,526,100617,41.20972,-70.40557833,174,440,2,"2","58",5,"3","1",2,1,"C","","","","","","","","","","","","","","","","","","","","","","","","","","","","","",104.5,1000,100,"","","","","","","","","","","","","",0.145798777
"X",3,13,2024,527,100622,41.20731167,-70.405315,176,436,2,"1","58",5,"3","1",2,1,"C","","","","","","","","","","","","","","","","","","","","","","","","","","","","","",104.2,1000,100,"","","","","","","","","","","","","",0.145085837
"X",3,13,2024,528,100627,41.20491167,-70.40509333,176,434,2,"2","58",5,"3","1",2,1,"C","","","","","","","","","","","","","","","","","","","","","","","","","","","","","",103.6,1000,100,"","","","","","","","","","","","","",0.144444564
"X",3,13,2024,529,100632,41.20252833,-70.40486,176,432,2,"2","58",5,"3","1",2,1,"C","","","","","","","","","","","","","","","","","","","","","","","","","","","","","",102.7,1000,100,"","","","","","","","","","","","","",0.143484091
"X",3,13,2024,530,100637,41.20015667,-70.40463,175,430,2,"2","58",5,"3","1",2,1,"C","","","","","","","","","","","","","","","","","","","","","","","","","","","","","",102.4,1000,100,"","","","","","","","","","","","","",0.142774512
"X",3,13,2024,531,100642,41.19779167,-70.40436333,175,428,2,"1","58",5,"3","1",2,1,"C","","","","","","","","","","","","","","","","","","","","","","","","","","","","","",102.6,1000,100,"","","","","","","","","","","","","",0.142505798
"X",3,13,2024,532,100647,41.19542,-70.40407667,175,425,2,"2","58",5,"3","1",2,1,"C","","","","","","","","","","","","","","","","","","","","","","","","","","","","","",102.9,1000,100,"","","","","","","","","","","","","",0.142983683
"X",3,13,2024,533,100652,41.19303667,-70.40386333,177,423,2,"2","58",5,"3","1",2,1,"C","","","","","","","","","","","","","","","","","","","","","","","","","","","","","",103.1,1000,100,"","","","","","","","","","","","","",0.143420648
"S",3,13,2024,534,100657,41.190662,-70.40377027,179,422,2,"2","58",5,"3","1",2,1,"C","3","","","","","","","","","","","","","","","","","","","","","","","","","","","","",102.8,1000,100,"","","","","","","","","","","","","",0.142637829
"X",3,13,2024,535,100657,41.190655,-70.40377,179,422,2,"1","58",5,"3","1",2,1,"C","","","","","","","","","","","","","","","","","","","","","","","","","","","","","",102.8,1000,100,"","","","","","","","","","","","","",0.143058519
"X",3,13,2024,536,100702,41.18832094,-70.40371255,179,422,2,"2","58",5,"3","1",2,1,"C","","","","","","","","","","","","","","","","","","","","","","","","","","","","","",102.3,1000,100,"","","","","","","","","","","","","",0.140162169
"X",3,13,2024,537,100702,41.188285,-70.40371167,179,422,2,"2","58",5,"3","1",2,1,"C","","","","","","","","","","","","","","","","","","","","","","","","","","","","","",102.3,1000,100,"","","","","","","","","","","","","",0.142320291
"X",3,13,2024,538,100707,41.18593333,-70.40363333,178,424,2,"2","58",5,"3","1",2,1,"C","","","","","","","","","","","","","","","","","","","","","","","","","","","","","",101,1000,100,"","","","","","","","","","","","","",0.141239497
"X",3,13,2024,539,100712,41.1836,-70.40351167,177,424,2,"2","58",5,"3","1",2,1,"C","","","","","","","","","","","","","","","","","","","","","","","","","","","","","",100.8,1000,100,"","","","","","","","","","","","","",0.140202228
"X",3,13,2024,540,100717,41.18126333,-70.40335667,177,423,2,"2","58",5,"3","1",2,1,"C","","","","","","","","","","","","","","","","","","","","","","","","","","","","","",101,1000,100,"","","","","","","","","","","","","",0.140469261
"X",3,13,2024,541,100722,41.17893,-70.40321833,178,423,2,"2","58",5,"3","1",2,1,"C","","","","","","","","","","","","","","","","","","","","","","","","","","","","","",100.8,1000,100,"","","","","","","","","","","","","",0.140233797
"X",3,13,2024,542,100727,41.17659667,-70.40315833,179,423,2,"2","58",5,"3","1",2,1,"C","","","","","","","","","","","","","","","","","","","","","","","","","","","","","",100.6,1000,100,"","","","","","","","","","","","","",0.140120637
"X",3,13,2024,543,100732,41.17427,-70.40308333,179,425,2,"2","58",5,"3","1",2,1,"C","","","","","","","","","","","","","","","","","","","","","","","","","","","","","",100.7,1000,100,"","","","","","","","","","","","","",0.139735243
"X",3,13,2024,544,100732,41.17427,-70.40308333,179,425,2,"2","58",5,"3","1",2,1,"C","","","","","","","","","","","","","","","","","","","","","","","","","","","","","",100.7,1000,100,"","","","","","","","","","","","","",0
"X",3,13,2024,545,100737,41.171935,-70.40302667,179,428,2,"2","58",5,"3","1",2,1,"C","","","","","","","","","","","","","","","","","","","","","","","","","","","","","",100.8,1000,100,"","","","","","","","","","","","","",0.140217857
"X",3,13,2024,546,100742,41.16960167,-70.40300167,180,432,2,"2","58",5,"3","1",2,1,"C","","","","","","","","","","","","","","","","","","","","","","","","","","","","","",100.8,1000,100,"","","","","","","","","","","","","",0.140098956
"X",3,13,2024,547,100747,41.16726167,-70.403005,180,434,2,"2","58",5,"3","1",2,1,"C","","","","","","","","","","","","","","","","","","","","","","","","","","","","","",101.3,1000,100,"","","","","","","","","","","","","",0.140494751
"X",3,13,2024,548,100752,41.16490667,-70.402995,180,435,2,"2","58",5,"3","1",2,1,"C","","","","","","","","","","","","","","","","","","","","","","","","","","","","","",101.7,1000,100,"","","","","","","","","","","","","",0.141395999
"X",3,13,2024,549,100757,41.16254667,-70.402945,179,437,2,"2","58",5,"3","1",2,1,"C","","","","","","","","","","","","","","","","","","","","","","","","","","","","","",101.9,1000,100,"","","","","","","","","","","","","",0.141713501
"X",3,13,2024,550,100802,41.16018333,-70.402855,179,439,2,"2","58",5,"3","1",2,1,"C","","","","","","","","","","","","","","","","","","","","","","","","","","","","","",102,1000,100,"","","","","","","","","","","","","",0.14195392
"X",3,13,2024,551,100802,41.16018333,-70.402855,179,439,2,"2","58",5,"3","1",2,1,"C","","","","","","","","","","","","","","","","","","","","","","","","","","","","","",102,1000,100,"","","","","","","","","","","","","",0
"X",3,13,2024,552,100807,41.15783167,-70.40278167,179,443,2,"2","58",5,"3","1",2,1,"C","","","","","","","","","","","","","","","","","","","","","","","","","","","","","",101.4,1000,100,"","","","","","","","","","","","","",0.14123405
"X",3,13,2024,553,100812,41.15548667,-70.40271,179,447,2,"2","58",5,"3","1",2,1,"C","","","","","","","","","","","","","","","","","","","","","","","","","","","","","",101.3,1000,100,"","","","","","","","","","","","","",0.14083214
"X",3,13,2024,554,100817,41.15314833,-70.40268167,180,452,2,"2","58",5,"3","1",2,1,"C","","","","","","","","","","","","","","","","","","","","","","","","","","","","","",100.9,1000,100,"","","","","","","","","","","","","",0.140400445
"X",3,13,2024,555,100822,41.15081333,-70.4027,180,456,2,"2","58",5,"3","1",2,1,"C","","","","","","","","","","","","","","","","","","","","","","","","","","","","","",100.8,1000,100,"","","","","","","","","","","","","",0.140196917
"X",3,13,2024,556,100827,41.14848333,-70.40273,181,460,2,"2","58",5,"3","1",2,1,"C","","","","","","","","","","","","","","","","","","","","","","","","","","","","","",100.8,1000,100,"","","","","","","","","","","","","",0.13990084
"X",3,13,2024,557,100832,41.14615,-70.40276333,181,464,2,"2","58",5,"3","1",2,1,"C","","","","","","","","","","","","","","","","","","","","","","","","","","","","","",100.9,1000,100,"","","","","","","","","","","","","",0.140102506
"X",3,13,2024,558,100837,41.14380833,-70.40279833,181,466,2,"2","58",5,"3","1",2,1,"C","","","","","","","","","","","","","","","","","","","","","","","","","","","","","",101.3,1000,100,"","","","","","","","","","","","","",0.140603643
"X",3,13,2024,559,100842,41.14146,-70.402855,181,471,2,"2","58",5,"3","1",2,1,"C","","","","","","","","","","","","","","","","","","","","","","","","","","","","","",101.3,1000,100,"","","","","","","","","","","","","",0.141018285
"X",3,13,2024,560,100847,41.13911667,-70.402915,181,476,2,"2","58",5,"3","1",2,1,"C","","","","","","","","","","","","","","","","","","","","","","","","","","","","","",101.5,1000,100,"","","","","","","","","","","","","",0.140720959
"X",3,13,2024,561,100852,41.13676333,-70.40297333,181,477,2,"2","58",5,"3","1",2,1,"C","","","","","","","","","","","","","","","","","","","","","","","","","","","","","",101.7,1000,100,"","","","","","","","","","","","","",0.141319828
"X",3,13,2024,562,100857,41.134415,-70.40304667,182,478,2,"2","58",5,"3","1",2,1,"C","","","","","","","","","","","","","","","","","","","","","","","","","","","","","",101.4,1000,100,"","","","","","","","","","","","","",0.141033998
"X",3,13,2024,563,100902,41.13206667,-70.403125,181,477,2,"2","58",5,"3","1",2,1,"C","","","","","","","","","","","","","","","","","","","","","","","","","","","","","",101.5,1000,100,"","","","","","","","","","","","","",0.141039499
"X",3,13,2024,564,100907,41.12971333,-70.40318167,181,475,2,"2","58",5,"3","1",2,1,"C","","","","","","","","","","","","","","","","","","","","","","","","","","","","","",102,1000,100,"","","","","","","","","","","","","",0.141318446
"X",3,13,2024,565,100912,41.12734333,-70.40322833,181,472,2,"2","58",5,"3","1",2,1,"C","","","","","","","","","","","","","","","","","","","","","","","","","","","","","",102.6,1000,100,"","","","","","","","","","","","","",0.142311534
"X",3,13,2024,566,100917,41.12495667,-70.40327667,181,470,2,"2","58",5,"3","1",2,1,"C","","","","","","","","","","","","","","","","","","","","","","","","","","","","","",103.2,1000,100,"","","","","","","","","","","","","",0.14331323
"X",3,13,2024,567,100922,41.122565,-70.40330667,180,468,2,"2","58",5,"3","1",2,1,"C","","","","","","","","","","","","","","","","","","","","","","","","","","","","","",103.2,1000,100,"","","","","","","","","","","","","",0.14360317
"X",3,13,2024,568,100927,41.12017833,-70.40331167,180,468,2,"2","58",5,"3","1",2,1,"C","","","","","","","","","","","","","","","","","","","","","","","","","","","","","",102.6,1000,100,"","","","","","","","","","","","","",0.143296736
"X",3,13,2024,569,100932,41.11780667,-70.403275,179,467,2,"2","58",5,"3","1",2,1,"C","","","","","","","","","","","","","","","","","","","","","","","","","","","","","",102.2,1000,100,"","","","","","","","","","","","","",0.142405609
"X",3,13,2024,570,100932,41.11780667,-70.403275,179,467,2,"2","58",5,"3","1",2,1,"C","","","","","","","","","","","","","","","","","","","","","","","","","","","","","",102.2,1000,100,"","","","","","","","","","","","","",0
"X",3,13,2024,571,100937,41.11543667,-70.40319333,178,465,2,"2","58",5,"3","1",2,1,"C","","","","","","","","","","","","","","","","","","","","","","","","","","","","","",102.5,1000,100,"","","","","","","","","","","","","",0.142343824
"X",3,13,2024,572,100942,41.11305833,-70.40308667,178,462,2,"2","58",5,"3","1",2,1,"C","","","","","","","","","","","","","","","","","","","","","","","","","","","","","",102.8,1000,100,"","","","","","","","","","","","","",0.142877715
"X",3,13,2024,573,100947,41.11068167,-70.40300667,179,461,2,"2","58",5,"3","1",2,1,"C","","","","","","","","","","","","","","","","","","","","","","","","","","","","","",102.5,1000,100,"","","","","","","","","","","","","",0.142742035
"X",3,13,2024,574,100952,41.108305,-70.402945,179,459,2,"2","58",5,"3","1",2,1,"C","","","","","","","","","","","","","","","","","","","","","","","","","","","","","",102.6,1000,100,"","","","","","","","","","","","","",0.142723419
"X",3,13,2024,575,100957,41.10592833,-70.40289833,179,457,2,"2","58",5,"3","1",2,1,"C","","","","","","","","","","","","","","","","","","","","","","","","","","","","","",102.8,1000,100,"","","","","","","","","","","","","",0.14271177
"X",3,13,2024,576,101002,41.10354333,-70.402885,180,455,2,"2","58",5,"3","1",2,1,"C","","","","","","","","","","","","","","","","","","","","","","","","","","","","","",103,1000,100,"","","","","","","","","","","","","",0.143197761
"X",3,13,2024,577,101007,41.10116167,-70.40294167,182,454,2,"2","58",5,"3","1",2,1,"C","","","","","","","","","","","","","","","","","","","","","","","","","","","","","",102.9,1000,100,"","","","","","","","","","","","","",0.143019336
"X",3,13,2024,578,101012,41.09878167,-70.40303833,181,454,2,"2","58",5,"3","1",2,1,"C","","","","","","","","","","","","","","","","","","","","","","","","","","","","","",102.8,1000,100,"","","","","","","","","","","","","",0.142963204
"X",3,13,2024,579,101017,41.09640667,-70.40307833,180,452,2,"2","58",5,"3","1",2,1,"C","","","","","","","","","","","","","","","","","","","","","","","","","","","","","",102.5,1000,100,"","","","","","","","","","","","","",0.142607571
"X",3,13,2024,580,101022,41.09403333,-70.40309167,181,450,2,"2","58",5,"3","1",2,1,"C","","","","","","","","","","","","","","","","","","","","","","","","","","","","","",102.6,1000,100,"","","","","","","","","","","","","",0.142497295
"X",3,13,2024,581,101027,41.09165333,-70.40313333,181,447,2,"2","58",5,"3","1",2,1,"C","","","","","","","","","","","","","","","","","","","","","","","","","","","","","",103,1000,100,"","","","","","","","","","","","","",0.142908725
"X",3,13,2024,582,101032,41.08926833,-70.40318,181,443,2,"2","58",5,"3","1",2,1,"C","","","","","","","","","","","","","","","","","","","","","","","","","","","","","",103.2,1000,100,"","","","","","","","","","","","","",0.14321206
"X",3,13,2024,583,101032,41.08926833,-70.40318,181,443,2,"2","58",5,"3","1",2,1,"C","","","","","","","","","","","","","","","","","","","","","","","","","","","","","",103.2,1000,100,"","","","","","","","","","","","","",0
"X",3,13,2024,584,101037,41.086885,-70.40320167,180,440,2,"2","58",5,"3","1",2,1,"C","","","","","","","","","","","","","","","","","","","","","","","","","","","","","",103,1000,100,"","","","","","","","","","","","","",0.143099782
"X",3,13,2024,585,101042,41.08450167,-70.403195,180,438,2,"2","58",5,"3","1",2,1,"C","","","","","","","","","","","","","","","","","","","","","","","","","","","","","",102.7,1000,100,"","","","","","","","","","","","","",0.143096741
"X",3,13,2024,586,101047,41.08212,-70.40316833,180,434,2,"2","58",5,"3","1",2,1,"C","","","","","","","","","","","","","","","","","","","","","","","","","","","","","",102.8,1000,100,"","","","","","","","","","","","","",0.143001448
"X",3,13,2024,587,101052,41.079735,-70.40314333,180,431,2,"2","58",5,"3","1",2,1,"C","","","","","","","","","","","","","","","","","","","","","","","","","","","","","",102.8,1000,100,"","","","","","","","","","","","","",0.14320096
"X",3,13,2024,588,101057,41.077355,-70.40313833,180,428,2,"2","58",5,"3","1",2,1,"C","","","","","","","","","","","","","","","","","","","","","","","","","","","","","",102.5,1000,100,"","","","","","","","","","","","","",0.142896467
"X",3,13,2024,589,101102,41.07500167,-70.40315667,181,429,2,"2","58",5,"3","1",2,1,"C","","","","","","","","","","","","","","","","","","","","","","","","","","","","","",100.9,1000,100,"","","","","","","","","","","","","",0.141297646
"X",3,13,2024,590,101102,41.07500167,-70.40315667,181,429,2,"2","58",5,"3","1",2,1,"C","","","","","","","","","","","","","","","","","","","","","","","","","","","","","",100.9,1000,100,"","","","","","","","","","","","","",0
"X",3,13,2024,591,101107,41.07267667,-70.403185,180,429,2,"2","58",5,"3","1",2,1,"C","","","","","","","","","","","","","","","","","","","","","","","","","","","","","",100.1,1000,100,"","","","","","","","","","","","","",0.139599954
"X",3,13,2024,592,101112,41.07035167,-70.40319833,180,425,2,"2","58",5,"3","1",2,1,"C","","","","","","","","","","","","","","","","","","","","","","","","","","","","","",100.7,1000,100,"","","","","","","","","","","","","",0.139595368
"X",3,13,2024,593,101117,41.06801,-70.40321,180,422,2,"2","58",5,"3","1",2,1,"C","","","","","","","","","","","","","","","","","","","","","","","","","","","","","",101.3,1000,100,"","","","","","","","","","","","","",0.140595729
"X",3,13,2024,594,101122,41.06566667,-70.40320167,179,422,2,"2","58",5,"3","1",2,1,"C","","","","","","","","","","","","","","","","","","","","","","","","","","","","","",100.9,1000,100,"","","","","","","","","","","","","",0.14069531
"X",3,13,2024,595,101127,41.06334667,-70.40315,178,425,2,"2","58",5,"3","1",2,1,"C","","","","","","","","","","","","","","","","","","","","","","","","","","","","","",99.4,1000,100,"","","","","","","","","","","","","",0.139313495
"X",3,13,2024,596,101132,41.06104833,-70.40305667,178,426,2,"2","58",5,"3","1",2,1,"C","","","","","","","","","","","","","","","","","","","","","","","","","","","","","",99.3,1000,100,"","","","","","","","","","","","","",0.138057655
"X",3,13,2024,597,101137,41.05875333,-70.40294833,178,428,2,"2","58",5,"3","1",2,1,"C","","","","","","","","","","","","","","","","","","","","","","","","","","","","","",99,1000,100,"","","","","","","","","","","","","",0.137880104
"X",3,13,2024,598,101142,41.05646,-70.402815,177,427,2,"2","58",5,"3","1",2,1,"C","","","","","","","","","","","","","","","","","","","","","","","","","","","","","",99.3,1000,100,"","","","","","","","","","","","","",0.137825038
"X",3,13,2024,599,101147,41.054145,-70.40270833,179,426,2,"2","58",5,"3","1",2,1,"C","","","","","","","","","","","","","","","","","","","","","","","","","","","","","",100.4,1000,100,"","","","","","","","","","","","","",0.139077531
"X",3,13,2024,600,101152,41.05181333,-70.40270333,180,427,2,"2","58",5,"3","1",2,1,"C","","","","","","","","","","","","","","","","","","","","","","","","","","","","","",100.8,1000,100,"","","","","","","","","","","","","",0.139994516
"X",3,13,2024,601,101157,41.049485,-70.40272667,180,431,2,"2","58",5,"3","1",2,1,"C","","","","","","","","","","","","","","","","","","","","","","","","","","","","","",100.5,1000,100,"","","","","","","","","","","","","",0.13979819
"X",3,13,2024,602,101202,41.04716,-70.40272,180,435,2,"2","58",5,"3","1",2,1,"C","","","","","","","","","","","","","","","","","","","","","","","","","","","","","",100.3,1000,100,"","","","","","","","","","","","","",0.139594389
"X",3,13,2024,603,101202,41.04716,-70.40272,180,435,2,"2","58",5,"3","1",2,1,"C","","","","","","","","","","","","","","","","","","","","","","","","","","","","","",100.3,1000,100,"","","","","","","","","","","","","",0
"X",3,13,2024,604,101207,41.044835,-70.40270167,180,437,2,"2","58",5,"3","1",2,1,"C","","","","","","","","","","","","","","","","","","","","","","","","","","","","","",100.5,1000,100,"","","","","","","","","","","","","",0.139596531
"X",3,13,2024,605,101212,41.04250833,-70.40268,180,440,2,"2","58",5,"3","1",2,1,"C","","","","","","","","","","","","","","","","","","","","","","","","","","","","","",100.5,1000,100,"","","","","","","","","","","","","",0.139697576
"X",3,13,2024,606,101217,41.04017667,-70.40262667,178,443,2,"2","58",5,"3","1",2,1,"C","","","","","","","","","","","","","","","","","","","","","","","","","","","","","",100.8,1000,100,"","","","","","","","","","","","","",0.140015164
"X",3,13,2024,607,101222,41.03783667,-70.40251833,178,444,2,"2","58",5,"3","1",2,1,"C","","","","","","","","","","","","","","","","","","","","","","","","","","","","","",101.1,1000,100,"","","","","","","","","","","","","",0.140580302
"X",3,13,2024,608,101227,41.035495,-70.402425,179,447,2,"2","58",5,"3","1",2,1,"C","","","","","","","","","","","","","","","","","","","","","","","","","","","","","",101.2,1000,100,"","","","","","","","","","","","","",0.140658262
"X",3,13,2024,609,101232,41.03316,-70.40235833,179,453,2,"2","58",5,"3","1",2,1,"C","","","","","","","","","","","","","","","","","","","","","","","","","","","","","",100.6,1000,100,"","","","","","","","","","","","","",0.140226976
"X",3,13,2024,610,101237,41.030835,-70.40236,181,456,2,"2","58",5,"3","1",2,1,"C","","","","","","","","","","","","","","","","","","","","","","","","","","","","","",100.9,1000,100,"","","","","","","","","","","","","",0.139594083
"X",3,13,2024,611,101242,41.02849167,-70.40243333,181,458,2,"2","58",5,"3","1",2,1,"C","","","","","","","","","","","","","","","","","","","","","","","","","","","","","",101.6,1000,100,"","","","","","","","","","","","","",0.140734005
"X",3,13,2024,612,101247,41.02613167,-70.40250333,181,462,2,"2","58",5,"3","1",2,1,"C","","","","","","","","","","","","","","","","","","","","","","","","","","","","","",102.3,1000,100,"","","","","","","","","","","","","",0.141730947
"X",3,13,2024,613,101252,41.02376833,-70.40255,181,467,2,"2","58",5,"3","1",2,1,"C","","","","","","","","","","","","","","","","","","","","","","","","","","","","","",101.9,1000,100,"","","","","","","","","","","","","",0.141911358
"X",3,13,2024,614,101257,41.02141167,-70.402545,180,472,2,"2","58",5,"3","1",2,1,"C","","","","","","","","","","","","","","","","","","","","","","","","","","","","","",101.6,1000,100,"","","","","","","","","","","","","",0.141495525
"X",3,13,2024,615,101302,41.01905333,-70.40249667,179,476,2,"2","58",5,"3","1",2,1,"C","","","","","","","","","","","","","","","","","","","","","","","","","","","","","",102.1,1000,100,"","","","","","","","","","","","","",0.141612338
"X",3,13,2024,616,101307,41.01668667,-70.40247333,180,479,2,"2","58",5,"3","1",2,1,"C","","","","","","","","","","","","","","","","","","","","","","","","","","","","","",102,1000,100,"","","","","","","","","","","","","",0.14209968
"X",3,13,2024,617,101312,41.01431667,-70.402465,180,481,2,"2","58",5,"3","1",2,1,"C","","","","","","","","","","","","","","","","","","","","","","","","","","","","","",102.5,1000,100,"","","","","","","","","","","","","",0.142296384
"X",3,13,2024,618,101317,41.011925,-70.40247167,180,480,2,"2","58",5,"3","1",2,1,"C","","","","","","","","","","","","","","","","","","","","","","","","","","","","","",103.9,1000,100,"","","","","","","","","","","","","",0.143597078
"X",3,13,2024,619,101322,41.009505,-70.40249667,180,480,2,"2","58",5,"3","1",2,1,"C","","","","","","","","","","","","","","","","","","","","","","","","","","","","","",104.6,1000,100,"","","","","","","","","","","","","",0.145302321
"X",3,13,2024,620,101327,41.00707333,-70.40246,179,481,2,"2","58",5,"3","1",2,1,"C","","","","","","","","","","","","","","","","","","","","","","","","","","","","","",105.1,1000,100,"","","","","","","","","","","","","",0.14600783
"X",3,13,2024,621,101332,41.00462667,-70.40239333,179,480,2,"2","58",5,"3","1",2,1,"C","","","","","","","","","","","","","","","","","","","","","","","","","","","","","",106.5,1000,100,"","","","","","","","","","","","","",0.146930037
"X",3,13,2024,622,101332,41.00462667,-70.40239333,179,480,2,"2","58",5,"3","1",2,1,"C","","","","","","","","","","","","","","","","","","","","","","","","","","","","","",106.5,1000,100,"","","","","","","","","","","","","",0
"X",3,13,2024,623,101337,41.00215333,-70.40229333,178,481,2,"2","58",5,"3","1",2,1,"C","","","","","","","","","","","","","","","","","","","","","","","","","","","","","",107,1000,100,"","","","","","","","","","","","","",0.148569175
"X",3,13,2024,624,101342,40.99967333,-70.40223333,179,484,2,"2","58",5,"3","1",2,1,"C","","","","","","","","","","","","","","","","","","","","","","","","","","","","","",107,1000,100,"","","","","","","","","","","","","",0.148925152
"X",3,13,2024,625,101347,40.997185,-70.402195,179,484,2,"2","58",5,"3","1",2,1,"C","","","","","","","","","","","","","","","","","","","","","","","","","","","","","",107.6,1000,100,"","","","","","","","","","","","","",0.149410769
"X",3,13,2024,626,101352,40.99468333,-70.40216167,179,482,2,"2","58",5,"3","1",2,1,"C","","","","","","","","","","","","","","","","","","","","","","","","","","","","","",108.1,1000,100,"","","","","","","","","","","","","",0.150208806
"X",3,13,2024,627,101357,40.99217333,-70.402115,179,480,2,"2","58",5,"3","1",2,1,"C","","","","","","","","","","","","","","","","","","","","","","","","","","","","","",108.4,1000,100,"","","","","","","","","","","","","",0.150716386
"X",3,13,2024,628,101402,40.98967,-70.40203833,178,478,2,"2","58",5,"3","1",2,1,"C","","","","","","","","","","","","","","","","","","","","","","","","","","","","","",107.8,1000,100,"","","","","","","","","","","","","",0.150341432
"X",3,13,2024,629,101407,40.98717667,-70.40193333,178,474,2,"2","58",5,"3","1",2,1,"C","","","","","","","","","","","","","","","","","","","","","","","","","","","","","",107.3,1000,100,"","","","","","","","","","","","","",0.149776489
"X",3,13,2024,630,101412,40.98471,-70.401885,180,473,2,"2","58",5,"3","1",2,1,"C","","","","","","","","","","","","","","","","","","","","","","","","","","","","","",105.7,1000,100,"","","","","","","","","","","","","",0.148115994
"X",3,13,2024,631,101417,40.98226667,-70.40191333,181,469,2,"2","58",5,"3","1",2,1,"C","","","","","","","","","","","","","","","","","","","","","","","","","","","","","",105.3,1000,100,"","","","","","","","","","","","","",0.146704471
"X",3,13,2024,632,101422,40.979825,-70.40192833,180,463,2,"2","58",5,"3","1",2,1,"C","","","","","","","","","","","","","","","","","","","","","","","","","","","","","",105.5,1000,100,"","","","","","","","","","","","","",0.14660036
"X",3,13,2024,633,101427,40.97738333,-70.40192,180,459,2,"2","58",5,"3","1",2,1,"C","","","","","","","","","","","","","","","","","","","","","","","","","","","","","",104.9,1000,100,"","","","","","","","","","","","","",0.14659927
"X",3,13,2024,634,101432,40.97496,-70.40188,179,455,2,"2","58",5,"3","1",2,1,"C","","","","","","","","","","","","","","","","","","","","","","","","","","","","","",104.4,1000,100,"","","","","","","","","","","","","",0.145509339
"X",3,13,2024,635,101432,40.97496,-70.40188,179,455,2,"2","58",5,"3","1",2,1,"C","","","","","","","","","","","","","","","","","","","","","","","","","","","","","",104.4,1000,100,"","","","","","","","","","","","","",0
"X",3,13,2024,636,101437,40.97253667,-70.40184333,180,448,2,"2","58",5,"3","1",2,1,"C","","","","","","","","","","","","","","","","","","","","","","","","","","","","","",104.7,1000,100,"","","","","","","","","","","","","",0.145507535
"X",3,13,2024,637,101442,40.97010833,-70.40185833,181,442,2,"2","58",5,"3","1",2,1,"C","","","","","","","","","","","","","","","","","","","","","","","","","","","","","",104.7,1000,100,"","","","","","","","","","","","","",0.145799829
"X",3,13,2024,638,101447,40.96768833,-70.40191,181,437,2,"2","58",5,"3","1",2,1,"C","","","","","","","","","","","","","","","","","","","","","","","","","","","","","",104.3,1000,100,"","","","","","","","","","","","","",0.145316785
"S",3,13,2024,639,101448,40.96697896,-70.40191944,181,437,2,"2","58",5,"3","1",2,1,"C","4","","","CV-O","1","","","1","","0","","","","","","","","","","","","","","","","","","","",103.4,1000,100,"","","","","","","","","","CRANE WITH PROPS - ","","","",0.042593196
"X",3,13,2024,640,101452,40.96530833,-70.40194167,180,438,2,"2","58",5,"3","1",2,1,"C","","","","","","","","","","","","","","","","","","","","","","","","","","","","","",101.4,1000,100,"","","","","","","","","","","","","",0.1429035
"X",3,13,2024,641,101457,40.96298333,-70.40195167,180,438,2,"2","58",5,"3","1",2,1,"C","","","","","","","","","","","","","","","","","","","","","","","","","","","","","",99.5,1000,100,"","","","","","","","","","","","","",0.139594799
"X",3,13,2024,642,101502,40.96069167,-70.40193667,179,436,2,"2","58",5,"3","1",2,1,"C","","","","","","","","","","","","","","","","","","","","","","","","","","","","","",98.8,1000,100,"","","","","","","","","","","","","",0.137594395
"X",3,13,2024,643,101507,40.95840667,-70.40186167,178,432,2,"2","58",5,"3","1",2,1,"C","","","","","","","","","","","","","","","","","","","","","","","","","","","","","",98.6,1000,100,"","","","","","","","","","","","","",0.137234583
"X",3,13,2024,644,101512,40.95612667,-70.40179833,180,429,2,"2","58",5,"3","1",2,1,"C","","","","","","","","","","","","","","","","","","","","","","","","","","","","","",98.3,1000,100,"","","","","","","","","","","","","",0.13692236
"X",3,13,2024,645,101517,40.953855,-70.40180333,180,429,2,"2","58",5,"3","1",2,1,"C","","","","","","","","","","","","","","","","","","","","","","","","","","","","","",98,1000,100,"","","","","","","","","","","","","",0.136392094
"X",3,13,2024,646,101522,40.95159,-70.40178667,179,429,2,"2","58",5,"3","1",2,1,"C","","","","","","","","","","","","","","","","","","","","","","","","","","","","","",98.2,1000,100,"","","","","","","","","","","","","",0.135993736
"X",3,13,2024,647,101527,40.949305,-70.40169333,178,426,2,"2","58",5,"3","1",2,1,"C","","","","","","","","","","","","","","","","","","","","","","","","","","","","","",99.5,1000,100,"","","","","","","","","","","","","",0.137257714
"X",3,13,2024,648,101532,40.94699167,-70.40159833,179,426,2,"2","58",5,"3","1",2,1,"C","","","","","","","","","","","","","","","","","","","","","","","","","","","","","",99.5,1000,100,"","","","","","","","","","","","","",0.138960389
"X",3,13,2024,649,101532,40.94699167,-70.40159833,179,426,2,"2","58",5,"3","1",2,1,"C","","","","","","","","","","","","","","","","","","","","","","","","","","","","","",99.5,1000,100,"","","","","","","","","","","","","",0
"X",3,13,2024,650,101537,40.94469667,-70.40156833,180,429,2,"2","58",5,"3","1",2,1,"C","","","","","","","","","","","","","","","","","","","","","","","","","","","","","",98.9,1000,100,"","","","","","","","","","","","","",0.137799566
"X",3,13,2024,651,101542,40.94242167,-70.40155667,180,432,2,"2","58",5,"3","1",2,1,"C","","","","","","","","","","","","","","","","","","","","","","","","","","","","","",97.9,1000,100,"","","","","","","","","","","","","",0.136593065
"X",3,13,2024,652,101547,40.94015667,-70.40152333,179,436,2,"2","58",5,"3","1",2,1,"C","","","","","","","","","","","","","","","","","","","","","","","","","","","","","",97.9,1000,100,"","","","","","","","","","","","","",0.136000038
"X",3,13,2024,653,101552,40.93788,-70.40146,178,438,2,"2","58",5,"3","1",2,1,"C","","","","","","","","","","","","","","","","","","","","","","","","","","","","","",98.6,1000,100,"","","","","","","","","","","","","",0.136722286
"X",3,13,2024,654,101557,40.935585,-70.401395,179,439,2,"2","58",5,"3","1",2,1,"C","","","","","","","","","","","","","","","","","","","","","","","","","","","","","",99.7,1000,100,"","","","","","","","","","","","","",0.137824385
"X",3,13,2024,655,101602,40.933275,-70.401345,179,441,2,"2","58",5,"3","1",2,1,"C","","","","","","","","","","","","","","","","","","","","","","","","","","","","","",100,1000,100,"","","","","","","","","","","","","",0.138711997
"X",3,13,2024,656,101602,40.933275,-70.401345,179,441,2,"2","58",5,"3","1",2,1,"C","","","","","","","","","","","","","","","","","","","","","","","","","","","","","",100,1000,100,"","","","","","","","","","","","","",0
"X",3,13,2024,657,101607,40.93095833,-70.40131833,180,444,2,"2","58",5,"3","1",2,1,"C","","","","","","","","","","","","","","","","","","","","","","","","","","","","","",100.1,1000,100,"","","","","","","","","","","","","",0.139098985
"X",3,13,2024,658,101612,40.92862833,-70.401335,181,445,2,"2","58",5,"3","1",2,1,"C","","","","","","","","","","","","","","","","","","","","","","","","","","","","","",100.7,1000,100,"","","","","","","","","","","","","",0.139896308
"X",3,13,2024,659,101617,40.92628167,-70.40138,181,446,2,"2","58",5,"3","1",2,1,"C","","","","","","","","","","","","","","","","","","","","","","","","","","","","","",101.8,1000,100,"","","","","","","","","","","","","",0.140909726
"X",3,13,2024,660,101622,40.92391667,-70.40142333,181,448,2,"2","58",5,"3","1",2,1,"C","","","","","","","","","","","","","","","","","","","","","","","","","","","","","",102.2,1000,100,"","","","","","","","","","","","","",0.142009288
"X",3,13,2024,661,101627,40.92154833,-70.40148167,181,451,2,"2","58",5,"3","1",2,1,"C","","","","","","","","","","","","","","","","","","","","","","","","","","","","","",102.1,1000,100,"","","","","","","","","","","","","",0.142220439
"X",3,13,2024,662,101632,40.91917833,-70.40156167,182,453,2,"2","58",5,"3","1",2,1,"C","","","","","","","","","","","","","","","","","","","","","","","","","","","","","",102.5,1000,100,"","","","","","","","","","","","","",0.142342162
"X",3,13,2024,663,101637,40.91679333,-70.40166833,182,453,2,"2","58",5,"3","1",2,1,"C","","","","","","","","","","","","","","","","","","","","","","","","","","","","","",103.1,1000,100,"","","","","","","","","","","","","",0.143278242
"X",3,13,2024,664,101642,40.91440333,-70.40177833,181,455,2,"2","58",5,"3","1",2,1,"C","","","","","","","","","","","","","","","","","","","","","","","","","","","","","",103.4,1000,100,"","","","","","","","","","","","","",0.143583457
