"rectype","month","day","year","eventno","time","lat","long","heading","alt","legtype","legstage","legno","visiblty","glarel","glarer","beaufort","cloud","wx","sightno","anglel","angler","speccode","number","numcalf","anhead","photos","idrel","confidnc","b1","b2","b3","b4","b5","b6","b7","b8","b9","b10","b11","b12","b13","b14","b15","refno","stratum","utc","radalt","gpsspeed","setalt","setvel","lensfl","ggf","int","gpsq","gpssats","roll","pitch","yaw","maghead","notes","edits","glarev","ph_qual","TrackDist"
"S",5,12,2024,866,83141,41.8977485633679,-69.9538126610487,80,320,1,"-","",5,"","",2,2,"C","1","","","","","","","","","","","","","","","","","","","","","","","","","","","","",112.1,1000,100,"","","","","","","","","","","MAKE SURE TO FILL THIS DOWN - ","","",0.0455285576
"X",5,12,2024,867,83141,41.897795,-69.95345,80,320,1,"-","",5,"","",2,2,"C","","","","","","","","","","","","","","","","","","","","","","","","","","","","","",112.1,1000,100,"","","","","","","","","","","","","",0.0619740723
"X",5,12,2024,868,83143,41.897975,-69.9520816666667,80,320,1,"-","",5,"","",2,2,"C","","","","","","","","","","","","","","","","","","","","","","","","","","","","","",111.8,1000,100,"","","","","","","","","","","","","",0.0620988528
"X",5,12,2024,869,83145,41.8981583333333,-69.950715,80,320,1,"-","",5,"","",2,2,"C","","","","","","","","","","","","","","","","","","","","","","","","","","","","","",111.9,1000,100,"","","","","","","","","","","","","",0.0620605203
"X",5,12,2024,870,83147,41.8983416666667,-69.9493433333333,80,319,1,"-","",5,"","",2,2,"C","","","","","","","","","","","","","","","","","","","","","","","","","","","","","",112.3,1000,100,"","","","","","","","","","","","","",0.0622802677
"X",5,12,2024,871,83149,41.89853,-69.9479683333333,79,317,1,"-","",5,"","",2,2,"C","","","","","","","","","","","","","","","","","","","","","","","","","","","","","",112.7,1000,100,"","","","","","","","","","","","","",0.062480351
"X",5,12,2024,872,83151,41.8987233333333,-69.94659,79,315,1,"-","",5,"","",2,2,"C","","","","","","","","","","","","","","","","","","","","","","","","","","","","","",113.5,1000,100,"","","","","","","","","","","","","",0.0626815809
"X",5,12,2024,873,83151,41.8987233333333,-69.94659,79,315,1,"-","",5,"","",2,2,"C","","","","","","","","","","","","","","","","","","","","","","","","","","","","","",113.5,1000,100,"","","","","","","","","","","","","",0
"X",5,12,2024,874,83153,41.8989116666667,-69.9452016666667,80,314,1,"-","",5,"","",2,2,"C","","","","","","","","","","","","","","","","","","","","","","","","","","","","","",113.6,1000,100,"","","","","","","","","","","","","",0.0630661042
"X",5,12,2024,875,83155,41.8990916666667,-69.9438133333333,80,314,1,"-","",5,"","",2,2,"C","","","","","","","","","","","","","","","","","","","","","","","","","","","","","",113.6,1000,100,"","","","","","","","","","","","","",0.0629781421
"X",5,12,2024,876,83157,41.8992616666667,-69.942425,81,314,1,"-","",5,"","",2,2,"C","","","","","","","","","","","","","","","","","","","","","","","","","","","","","",113.4,1000,100,"","","","","","","","","","","","","",0.0628777249
"X",5,12,2024,877,83159,41.8994216666667,-69.941035,82,316,1,"-","",5,"","",2,2,"C","","","","","","","","","","","","","","","","","","","","","","","","","","","","","",113,1000,100,"","","","","","","","","","","","","",0.0628565048
"X",5,12,2024,878,83201,41.8995716666667,-69.9396483333333,82,316,1,"-","",5,"","",2,2,"C","","","","","","","","","","","","","","","","","","","","","","","","","","","","","",112.6,1000,100,"","","","","","","","","","","","","",0.0626199804
"X",5,12,2024,879,83203,41.899725,-69.9382683333334,81,318,1,"-","",5,"","",2,2,"C","","","","","","","","","","","","","","","","","","","","","","","","","","","","","",112.1,1000,100,"","","","","","","","","","","","","",0.0623542541
"X",5,12,2024,880,83205,41.8998883333333,-69.9368933333333,81,320,1,"-","",5,"","",2,2,"C","","","","","","","","","","","","","","","","","","","","","","","","","","","","","",112.2,1000,100,"","","","","","","","","","","","","",0.0622249102
"X",5,12,2024,881,83207,41.9000683333333,-69.935525,80,321,1,"-","",5,"","",2,2,"C","","","","","","","","","","","","","","","","","","","","","","","","","","","","","",111.7,1000,100,"","","","","","","","","","","","","",0.0620968789
"X",5,12,2024,882,83209,41.9002516666667,-69.934165,80,321,1,"-","",5,"","",2,2,"C","","","","","","","","","","","","","","","","","","","","","","","","","","","","","",111,1000,100,"","","","","","","","","","","","","",0.0617653718
"X",5,12,2024,883,83211,41.90043,-69.93281,80,322,1,"-","",5,"","",2,2,"C","","","","","","","","","","","","","","","","","","","","","","","","","","","","","",111,1000,100,"","","","","","","","","","","","","",0.0614923675
"X",5,12,2024,884,83213,41.9006083333333,-69.9314516666667,80,323,1,"-","",5,"","",2,2,"C","","","","","","","","","","","","","","","","","","","","","","","","","","","","","",111.1,1000,100,"","","","","","","","","","","","","",0.0616388923
"X",5,12,2024,885,83215,41.9008033333333,-69.9301016666667,79,324,1,"-","",5,"","",2,2,"C","","","","","","","","","","","","","","","","","","","","","","","","","","","","","",111,1000,100,"","","","","","","","","","","","","",0.0614547762
"X",5,12,2024,886,83217,41.9010216666667,-69.92876,77,325,1,"-","",5,"","",2,2,"C","","","","","","","","","","","","","","","","","","","","","","","","","","","","","",110.5,1000,100,"","","","","","","","","","","","","",0.061372944
"X",5,12,2024,887,83219,41.90125,-69.9274216666667,77,326,1,"-","",5,"","",2,2,"C","","","","","","","","","","","","","","","","","","","","","","","","","","","","","",110.5,1000,100,"","","","","","","","","","","","","",0.0613585754
"X",5,12,2024,888,83221,41.9014783333333,-69.926085,77,327,1,"-","",5,"","",2,2,"C","","","","","","","","","","","","","","","","","","","","","","","","","","","","","",110.2,1000,100,"","","","","","","","","","","","","",0.0612857723
"X",5,12,2024,889,83221,41.9014783333333,-69.926085,77,327,1,"-","",5,"","",2,2,"C","","","","","","","","","","","","","","","","","","","","","","","","","","","","","",110.2,1000,100,"","","","","","","","","","","","","",0
"X",5,12,2024,890,83223,41.901705,-69.924745,77,327,1,"-","",5,"","",2,2,"C","","","","","","","","","","","","","","","","","","","","","","","","","","","","","",110.9,1000,100,"","","","","","","","","","","","","",0.061408504
"X",5,12,2024,891,83225,41.90193,-69.9234033333333,77,326,1,"-","",5,"","",2,2,"C","","","","","","","","","","","","","","","","","","","","","","","","","","","","","",110.5,1000,100,"","","","","","","","","","","","","",0.0614588539
"X",5,12,2024,892,83227,41.9021583333333,-69.9220616666667,77,326,1,"-","",5,"","",2,2,"C","","","","","","","","","","","","","","","","","","","","","","","","","","","","","",110.7,1000,100,"","","","","","","","","","","","","",0.0615029474
"X",5,12,2024,893,83229,41.90239,-69.9207183333333,77,325,1,"-","",5,"","",2,2,"C","","","","","","","","","","","","","","","","","","","","","","","","","","","","","",111.1,1000,100,"","","","","","","","","","","","","",0.0616202112
"X",5,12,2024,894,83231,41.90263,-69.9193766666667,76,324,1,"-","",5,"","",2,2,"C","","","","","","","","","","","","","","","","","","","","","","","","","","","","","",111.3,1000,100,"","","","","","","","","","","","","",0.0616624409
"X",5,12,2024,895,83233,41.90289,-69.9180366666667,75,324,1,"-","",5,"","",2,2,"C","","","","","","","","","","","","","","","","","","","","","","","","","","","","","",111.6,1000,100,"","","","","","","","","","","","","",0.0618817576
"X",5,12,2024,896,83235,41.9031683333333,-69.9167016666667,74,323,1,"-","",5,"","",2,2,"C","","","","","","","","","","","","","","","","","","","","","","","","","","","","","",111.5,1000,100,"","","","","","","","","","","","","",0.0619531363
"X",5,12,2024,897,83237,41.903455,-69.9153716666667,74,323,1,"-","",5,"","",2,2,"C","","","","","","","","","","","","","","","","","","","","","","","","","","","","","",111.6,1000,100,"","","","","","","","","","","","","",0.0618750678
"X",5,12,2024,898,83239,41.9037383333333,-69.9140383333334,74,323,1,"-","",5,"","",2,2,"C","","","","","","","","","","","","","","","","","","","","","","","","","","","","","",111.7,1000,100,"","","","","","","","","","","","","",0.0619626579
"X",5,12,2024,899,83241,41.9040133333333,-69.9127016666667,75,323,1,"-","",5,"","",2,2,"C","","","","","","","","","","","","","","","","","","","","","","","","","","","","","",112,1000,100,"","","","","","","","","","","","","",0.0619704709
"X",5,12,2024,900,83243,41.9042783333333,-69.911365,75,324,1,"-","",5,"","",2,2,"C","","","","","","","","","","","","","","","","","","","","","","","","","","","","","",111,1000,100,"","","","","","","","","","","","","",0.0618129668
"X",5,12,2024,901,83245,41.9045366666667,-69.9100383333333,75,326,1,"-","",5,"","",2,2,"C","","","","","","","","","","","","","","","","","","","","","","","","","","","","","",110.7,1000,100,"","","","","","","","","","","","","",0.0612785026
"X",5,12,2024,902,83247,41.90479,-69.908715,76,327,1,"-","",5,"","",2,2,"C","","","","","","","","","","","","","","","","","","","","","","","","","","","","","",110.2,1000,100,"","","","","","","","","","","","","",0.0610587087
"X",5,12,2024,903,83249,41.9050383333333,-69.9073933333333,76,328,1,"-","",5,"","",2,2,"C","","","","","","","","","","","","","","","","","","","","","","","","","","","","","",109.7,1000,100,"","","","","","","","","","","","","",0.0609121808
"X",5,12,2024,904,83251,41.9052833333333,-69.9060733333333,76,329,1,"-","",5,"","",2,2,"C","","","","","","","","","","","","","","","","","","","","","","","","","","","","","",109.4,1000,100,"","","","","","","","","","","","","",0.0607910151
"X",5,12,2024,905,83253,41.905525,-69.904755,76,329,1,"-","",5,"","",2,2,"C","","","","","","","","","","","","","","","","","","","","","","","","","","","","","",109.9,1000,100,"","","","","","","","","","","","","",0.0606703631
"X",5,12,2024,906,83255,41.905765,-69.9034266666667,76,328,1,"-","",5,"","",2,2,"C","","","","","","","","","","","","","","","","","","","","","","","","","","","","","",110,1000,100,"","","","","","","","","","","","","",0.0610804374
"X",5,12,2024,907,83257,41.9060033333333,-69.9020966666667,76,327,1,"-","",5,"","",2,2,"C","","","","","","","","","","","","","","","","","","","","","","","","","","","","","",110.5,1000,100,"","","","","","","","","","","","","",0.0611290941
"X",5,12,2024,908,83259,41.9062416666667,-69.90076,77,325,1,"-","",5,"","",2,2,"C","","","","","","","","","","","","","","","","","","","","","","","","","","","","","",111,1000,100,"","","","","","","","","","","","","",0.0614185377
"X",5,12,2024,909,83301,41.9064833333333,-69.8994166666667,77,324,1,"-","",5,"","",2,2,"C","","","","","","","","","","","","","","","","","","","","","","","","","","","","","",111.3,1000,100,"","","","","","","","","","","","","",0.0617547727
"X",5,12,2024,910,83303,41.906725,-69.89807,77,324,1,"-","",5,"","",2,2,"C","","","","","","","","","","","","","","","","","","","","","","","","","","","","","",111.4,1000,100,"","","","","","","","","","","","","",0.0618993392
"X",5,12,2024,911,83305,41.9069616666667,-69.8967216666667,77,324,1,"-","",5,"","",2,2,"C","","","","","","","","","","","","","","","","","","","","","","","","","","","","","",111.7,1000,100,"","","","","","","","","","","","","",0.0619019207
"X",5,12,2024,912,83307,41.90719,-69.8953716666667,77,324,1,"-","",5,"","",2,2,"C","","","","","","","","","","","","","","","","","","","","","","","","","","","","","",111.6,1000,100,"","","","","","","","","","","","","",0.0618613926
"X",5,12,2024,913,83309,41.90741,-69.89402,78,324,1,"-","",5,"","",2,2,"C","","","","","","","","","","","","","","","","","","","","","","","","","","","","","",111.7,1000,100,"","","","","","","","","","","","","",0.0618249835
"X",5,12,2024,914,83311,41.90762,-69.892665,79,324,1,"-","",5,"","",2,2,"C","","","","","","","","","","","","","","","","","","","","","","","","","","","","","",111.4,1000,100,"","","","","","","","","","","","","",0.0618451055
"X",5,12,2024,915,83313,41.9078233333333,-69.8913083333333,79,324,1,"-","",5,"","",2,2,"C","","","","","","","","","","","","","","","","","","","","","","","","","","","","","",111.5,1000,100,"","","","","","","","","","","","","",0.0618375575
"X",5,12,2024,916,83315,41.908025,-69.88995,79,324,1,"-","",5,"","",2,2,"C","","","","","","","","","","","","","","","","","","","","","","","","","","","","","",111.7,1000,100,"","","","","","","","","","","","","",0.0618907223
"X",5,12,2024,917,83317,41.908235,-69.888595,78,326,1,"-","",5,"","",2,2,"C","","","","","","","","","","","","","","","","","","","","","","","","","","","","","",111,1000,100,"","","","","","","","","","","","","",0.0618445345
"X",5,12,2024,918,83319,41.908455,-69.8872483333333,77,326,1,"-","",5,"","",2,2,"C","","","","","","","","","","","","","","","","","","","","","","","","","","","","","",111.1,1000,100,"","","","","","","","","","","","","",0.0616057801
"X",5,12,2024,919,83321,41.908695,-69.8859083333333,76,328,1,"-","",5,"","",2,2,"C","","","","","","","","","","","","","","","","","","","","","","","","","","","","","",110.7,1000,100,"","","","","","","","","","","","","",0.0615844969
"X",5,12,2024,920,83321,41.908695,-69.8859083333333,76,328,1,"-","",5,"","",2,2,"C","","","","","","","","","","","","","","","","","","","","","","","","","","","","","",110.7,1000,100,"","","","","","","","","","","","","",0
"X",5,12,2024,921,83323,41.9089466666667,-69.8845833333333,75,328,1,"-","",5,"","",2,2,"C","","","","","","","","","","","","","","","","","","","","","","","","","","","","","",110.4,1000,100,"","","","","","","","","","","","","",0.0611022824
"X",5,12,2024,922,83325,41.9092016666667,-69.88326,75,329,1,"-","",5,"","",2,2,"C","","","","","","","","","","","","","","","","","","","","","","","","","","","","","",110.4,1000,100,"","","","","","","","","","","","","",0.0610797582
"X",5,12,2024,923,83327,41.909455,-69.8819316666667,76,328,1,"-","",5,"","",2,2,"C","","","","","","","","","","","","","","","","","","","","","","","","","","","","","",110.7,1000,100,"","","","","","","","","","","","","",0.0612709168
"X",5,12,2024,924,83329,41.9097066666667,-69.8806016666667,76,328,1,"-","",5,"","",2,2,"C","","","","","","","","","","","","","","","","","","","","","","","","","","","","","",110.8,1000,100,"","","","","","","","","","","","","",0.0613180957
"X",5,12,2024,925,83331,41.9099583333333,-69.8792683333333,76,326,1,"-","",5,"","",2,2,"C","","","","","","","","","","","","","","","","","","","","","","","","","","","","","",110.7,1000,100,"","","","","","","","","","","","","",0.0614622263
"X",5,12,2024,926,83333,41.91021,-69.8779316666667,76,325,1,"-","",5,"","",2,2,"C","","","","","","","","","","","","","","","","","","","","","","","","","","","","","",111.3,1000,100,"","","","","","","","","","","","","",0.0616063776
"X",5,12,2024,927,83335,41.9104633333333,-69.8765916666667,76,324,1,"-","",5,"","",2,2,"C","","","","","","","","","","","","","","","","","","","","","","","","","","","","","",111.3,1000,100,"","","","","","","","","","","","","",0.061775111
"X",5,12,2024,928,83337,41.9107183333333,-69.87525,76,324,1,"-","",5,"","",2,2,"C","","","","","","","","","","","","","","","","","","","","","","","","","","","","","",111.8,1000,100,"","","","","","","","","","","","","",0.0618717449
"X",5,12,2024,929,83339,41.910975,-69.87391,76,324,1,"-","",5,"","",2,2,"C","","","","","","","","","","","","","","","","","","","","","","","","","","","","","",111.2,1000,100,"","","","","","","","","","","","","",0.0618242291
"X",5,12,2024,930,83341,41.9112283333333,-69.8725716666667,76,324,1,"-","",5,"","",2,2,"C","","","","","","","","","","","","","","","","","","","","","","","","","","","","","",111.2,1000,100,"","","","","","","","","","","","","",0.0617022425
"X",5,12,2024,931,83343,41.9114866666667,-69.8712366666667,75,324,1,"-","",5,"","",2,2,"C","","","","","","","","","","","","","","","","","","","","","","","","","","","","","",111.1,1000,100,"","","","","","","","","","","","","",0.0616325444
"X",5,12,2024,932,83345,41.9117466666667,-69.8699033333334,75,323,1,"-","",5,"","",2,2,"C","","","","","","","","","","","","","","","","","","","","","","","","","","","","","",111.1,1000,100,"","","","","","","","","","","","","",0.0615855305
"X",5,12,2024,933,83347,41.9120066666667,-69.8685716666667,75,323,1,"-","",5,"","",2,2,"C","","","","","","","","","","","","","","","","","","","","","","","","","","","","","",111.2,1000,100,"","","","","","","","","","","","","",0.0615132632
"X",5,12,2024,934,83349,41.9122683333333,-69.86724,75,323,1,"-","",5,"","",2,2,"C","","","","","","","","","","","","","","","","","","","","","","","","","","","","","",111,1000,100,"","","","","","","","","","","","","",0.0615384988
"X",5,12,2024,935,83351,41.912535,-69.8659083333333,75,323,1,"-","",5,"","",2,2,"C","","","","","","","","","","","","","","","","","","","","","","","","","","","","","",111,1000,100,"","","","","","","","","","","","","",0.0616155854
"X",5,12,2024,936,83353,41.912805,-69.8645783333333,75,323,1,"-","",5,"","",2,2,"C","","","","","","","","","","","","","","","","","","","","","","","","","","","","","",111.3,1000,100,"","","","","","","","","","","","","",0.0615958075
"X",5,12,2024,937,83355,41.913085,-69.86325,74,323,1,"-","",5,"","",2,2,"C","","","","","","","","","","","","","","","","","","","","","","","","","","","","","",111.2,1000,100,"","","","","","","","","","","","","",0.0616846427
"X",5,12,2024,938,83357,41.9133766666667,-69.8619266666667,73,322,1,"-","",5,"","",2,2,"C","","","","","","","","","","","","","","","","","","","","","","","","","","","","","",111.2,1000,100,"","","","","","","","","","","","","",0.0616647297
"X",5,12,2024,939,83359,41.9136716666667,-69.8606033333333,73,323,1,"-","",5,"","",2,2,"C","","","","","","","","","","","","","","","","","","","","","","","","","","","","","",111.2,1000,100,"","","","","","","","","","","","","",0.0617216028
"X",5,12,2024,940,83401,41.91397,-69.859275,73,324,1,"-","",5,"","",2,2,"C","","","","","","","","","","","","","","","","","","","","","","","","","","","","","",111.4,1000,100,"","","","","","","","","","","","","",0.0619929026
"X",5,12,2024,941,83403,41.9142666666667,-69.85795,73,324,1,"-","",5,"","",2,2,"C","","","","","","","","","","","","","","","","","","","","","","","","","","","","","",111,1000,100,"","","","","","","","","","","","","",0.0618211694
"X",5,12,2024,942,83405,41.9145633333333,-69.85663,73,325,1,"-","",5,"","",2,2,"C","","","","","","","","","","","","","","","","","","","","","","","","","","","","","",111.1,1000,100,"","","","","","","","","","","","","",0.0616070193
"X",5,12,2024,943,83407,41.91486,-69.85531,73,326,1,"-","",5,"","",2,2,"C","","","","","","","","","","","","","","","","","","","","","","","","","","","","","",110.8,1000,100,"","","","","","","","","","","","","",0.0616067569
"X",5,12,2024,944,83409,41.9151583333333,-69.8539966666667,73,326,1,"-","",5,"","",2,2,"C","","","","","","","","","","","","","","","","","","","","","","","","","","","","","",110.8,1000,100,"","","","","","","","","","","","","",0.0613505612
"X",5,12,2024,945,83411,41.9154533333333,-69.8526833333333,73,327,1,"-","",5,"","",2,2,"C","","","","","","","","","","","","","","","","","","","","","","","","","","","","","",110.7,1000,100,"","","","","","","","","","","","","",0.061292167
"X",5,12,2024,946,83413,41.9157433333333,-69.85137,74,328,1,"-","",5,"","",2,2,"C","","","","","","","","","","","","","","","","","","","","","","","","","","","","","",110.4,1000,100,"","","","","","","","","","","","","",0.0612058329
"X",5,12,2024,947,83415,41.91603,-69.850055,74,329,1,"-","",5,"","",2,2,"C","","","","","","","","","","","","","","","","","","","","","","","","","","","","","",110.4,1000,100,"","","","","","","","","","","","","",0.0612204013
"X",5,12,2024,948,83417,41.9163133333333,-69.84874,74,330,1,"-","",5,"","",2,2,"C","","","","","","","","","","","","","","","","","","","","","","","","","","","","","",110.2,1000,100,"","","","","","","","","","","","","",0.0611641847
"X",5,12,2024,949,83419,41.9165933333333,-69.847425,74,331,1,"-","",5,"","",2,2,"C","","","","","","","","","","","","","","","","","","","","","","","","","","","","","",110.1,1000,100,"","","","","","","","","","","","","",0.0611085747
"X",5,12,2024,950,83421,41.9168716666667,-69.84611,74,332,1,"-","",5,"","",2,2,"C","","","","","","","","","","","","","","","","","","","","","","","","","","","","","",110.2,1000,100,"","","","","","","","","","","","","",0.0610808741
"X",5,12,2024,951,83421,41.9168716666667,-69.84611,74,332,1,"-","",5,"","",2,2,"C","","","","","","","","","","","","","","","","","","","","","","","","","","","","","",110.2,1000,100,"","","","","","","","","","","","","",0
"X",5,12,2024,952,83423,41.9171516666667,-69.8447966666667,74,333,1,"-","",5,"","",2,2,"C","","","","","","","","","","","","","","","","","","","","","","","","","","","","","",109.9,1000,100,"","","","","","","","","","","","","",0.0610364957
"X",5,12,2024,953,83425,41.9174283333333,-69.8434833333333,74,333,1,"-","",5,"","",2,2,"C","","","","","","","","","","","","","","","","","","","","","","","","","","","","","",110,1000,100,"","","","","","","","","","","","","",0.0609814297
"X",5,12,2024,954,83427,41.9177016666667,-69.8421716666667,74,333,1,"-","",5,"","",2,2,"C","","","","","","","","","","","","","","","","","","","","","","","","","","","","","",109.8,1000,100,"","","","","","","","","","","","","",0.0608552687
"X",5,12,2024,955,83429,41.9179733333333,-69.840855,75,333,1,"-","",5,"","",2,2,"C","","","","","","","","","","","","","","","","","","","","","","","","","","","","","",109.9,1000,100,"","","","","","","","","","","","","",0.0610433486
"X",5,12,2024,956,83431,41.9182416666667,-69.8395366666667,75,333,1,"-","",5,"","",2,2,"C","","","","","","","","","","","","","","","","","","","","","","","","","","","","","",110.2,1000,100,"","","","","","","","","","","","","",0.0610617554
"X",5,12,2024,957,83433,41.9185066666667,-69.838215,75,332,1,"-","",5,"","",2,2,"C","","","","","","","","","","","","","","","","","","","","","","","","","","","","","",110.2,1000,100,"","","","","","","","","","","","","",0.0611527973
"X",5,12,2024,958,83435,41.9187716666667,-69.83689,75,330,1,"-","",5,"","",2,2,"C","","","","","","","","","","","","","","","","","","","","","","","","","","","","","",110.2,1000,100,"","","","","","","","","","","","","",0.0612963632
"X",5,12,2024,959,83437,41.9190316666667,-69.835555,76,330,1,"-","",5,"","",2,2,"C","","","","","","","","","","","","","","","","","","","","","","","","","","","","","",111,1000,100,"","","","","","","","","","","","","",0.0616509829
"X",5,12,2024,960,83439,41.9192833333333,-69.8342133333333,76,328,1,"-","",5,"","",2,2,"C","","","","","","","","","","","","","","","","","","","","","","","","","","","","","",111.5,1000,100,"","","","","","","","","","","","","",0.0618147234
"X",5,12,2024,961,83441,41.9195333333333,-69.8328666666667,76,327,1,"-","",5,"","",2,2,"C","","","","","","","","","","","","","","","","","","","","","","","","","","","","","",111.8,1000,100,"","","","","","","","","","","","","",0.0620068191
"X",5,12,2024,962,83443,41.9197866666667,-69.8315166666667,76,326,1,"-","",5,"","",2,2,"C","","","","","","","","","","","","","","","","","","","","","","","","","","","","","",112,1000,100,"","","","","","","","","","","","","",0.0621997249
"X",5,12,2024,963,83445,41.9200366666667,-69.8301616666667,76,326,1,"-","",5,"","",2,2,"C","","","","","","","","","","","","","","","","","","","","","","","","","","","","","",112.3,1000,100,"","","","","","","","","","","","","",0.0623676416
"X",5,12,2024,964,83447,41.9202816666667,-69.82881,76,327,1,"-","",5,"","",2,2,"C","","","","","","","","","","","","","","","","","","","","","","","","","","","","","",111.9,1000,100,"","","","","","","","","","","","","",0.0621511502
"X",5,12,2024,965,83449,41.9205216666667,-69.8274583333333,77,328,1,"-","",5,"","",2,2,"C","","","","","","","","","","","","","","","","","","","","","","","","","","","","","",112.1,1000,100,"","","","","","","","","","","","","",0.0620805604
"X",5,12,2024,966,83451,41.9207533333333,-69.8261033333333,77,330,1,"-","",5,"","",2,2,"C","","","","","","","","","","","","","","","","","","","","","","","","","","","","","",111.6,1000,100,"","","","","","","","","","","","","",0.0621112427
"X",5,12,2024,967,83451,41.9207533333333,-69.8261033333333,77,330,1,"-","",5,"","",2,2,"C","","","","","","","","","","","","","","","","","","","","","","","","","","","","","",111.6,1000,100,"","","","","","","","","","","","","",0
"X",5,12,2024,968,83453,41.9209766666667,-69.824755,77,332,1,"-","",5,"","",2,2,"C","","","","","","","","","","","","","","","","","","","","","","","","","","","","","",111.2,1000,100,"","","","","","","","","","","","","",0.0617101569
"X",5,12,2024,969,83455,41.9212066666667,-69.8234133333333,77,333,1,"-","",5,"","",2,2,"C","","","","","","","","","","","","","","","","","","","","","","","","","","","","","",110.9,1000,100,"","","","","","","","","","","","","",0.0615078983
"X",5,12,2024,970,83457,41.92145,-69.8220816666667,76,335,1,"-","",5,"","",2,2,"C","","","","","","","","","","","","","","","","","","","","","","","","","","","","","",110.2,1000,100,"","","","","","","","","","","","","",0.0612584065
"X",5,12,2024,971,83459,41.9216983333333,-69.8207566666667,76,336,1,"-","",5,"","",2,2,"C","","","","","","","","","","","","","","","","","","","","","","","","","","","","","",109.8,1000,100,"","","","","","","","","","","","","",0.0610416273
"X",5,12,2024,972,83501,41.92194,-69.8194333333333,76,336,1,"-","",5,"","",2,2,"C","","","","","","","","","","","","","","","","","","","","","","","","","","","","","",110,1000,100,"","","","","","","","","","","","","",0.0608725602
"X",5,12,2024,973,83503,41.9221833333333,-69.8181116666667,76,336,1,"-","",5,"","",2,2,"C","","","","","","","","","","","","","","","","","","","","","","","","","","","","","",109.7,1000,100,"","","","","","","","","","","","","",0.0608239936
"X",5,12,2024,974,83505,41.9224266666667,-69.81679,76,336,1,"-","",5,"","",2,2,"C","","","","","","","","","","","","","","","","","","","","","","","","","","","","","",109.8,1000,100,"","","","","","","","","","","","","",0.060823775
"X",5,12,2024,975,83507,41.922675,-69.8154666666667,76,335,1,"-","",5,"","",2,2,"C","","","","","","","","","","","","","","","","","","","","","","","","","","","","","",110.2,1000,100,"","","","","","","","","","","","","",0.0609685518
"X",5,12,2024,976,83509,41.9229233333333,-69.8141383333333,76,334,1,"-","",5,"","",2,2,"C","","","","","","","","","","","","","","","","","","","","","","","","","","","","","",110.6,1000,100,"","","","","","","","","","","","","",0.061184935
"X",5,12,2024,977,83511,41.9231733333333,-69.8128083333333,76,333,1,"-","",5,"","",2,2,"C","","","","","","","","","","","","","","","","","","","","","","","","","","","","","",111,1000,100,"","","","","","","","","","","","","",0.0612813563
"X",5,12,2024,978,83513,41.9234216666667,-69.8114716666667,76,332,1,"-","",5,"","",2,2,"C","","","","","","","","","","","","","","","","","","","","","","","","","","","","","",111.3,1000,100,"","","","","","","","","","","","","",0.0615456004
"X",5,12,2024,979,83515,41.9236716666667,-69.81013,76,331,1,"-","",5,"","",2,2,"C","","","","","","","","","","","","","","","","","","","","","","","","","","","","","",111.3,1000,100,"","","","","","","","","","","","","",0.0617863395
"X",5,12,2024,980,83517,41.92392,-69.8087833333333,76,329,1,"-","",5,"","",2,2,"C","","","","","","","","","","","","","","","","","","","","","","","","","","","","","",112,1000,100,"","","","","","","","","","","","","",0.0619786564
"X",5,12,2024,981,83519,41.924165,-69.8074283333333,76,328,1,"-","",5,"","",2,2,"C","","","","","","","","","","","","","","","","","","","","","","","","","","","","","",112.5,1000,100,"","","","","","","","","","","","","",0.062292265
"X",5,12,2024,982,83521,41.9244083333333,-69.8060633333333,77,326,1,"-","",5,"","",2,2,"C","","","","","","","","","","","","","","","","","","","","","","","","","","","","","",112.9,1000,100,"","","","","","","","","","","","","",0.0627028212
"X",5,12,2024,983,83523,41.9246483333333,-69.804695,77,326,1,"-","",5,"","",2,2,"C","","","","","","","","","","","","","","","","","","","","","","","","","","","","","",113.2,1000,100,"","","","","","","","","","","","","",0.0628011904
"X",5,12,2024,984,83525,41.9248833333333,-69.8033216666667,77,324,1,"-","",5,"","",2,2,"C","","","","","","","","","","","","","","","","","","","","","","","","","","","","","",113.6,1000,100,"","","","","","","","","","","","","",0.0629504226
"X",5,12,2024,985,83527,41.9251133333333,-69.8019383333333,78,324,1,"-","",5,"","",2,2,"C","","","","","","","","","","","","","","","","","","","","","","","","","","","","","",114,1000,100,"","","","","","","","","","","","","",0.0633194833
"X",5,12,2024,986,83529,41.9253383333333,-69.8005533333333,78,323,1,"-","",5,"","",2,2,"C","","","","","","","","","","","","","","","","","","","","","","","","","","","","","",114,1000,100,"","","","","","","","","","","","","",0.0633272118
"X",5,12,2024,987,83531,41.92556,-69.7991683333333,78,323,1,"-","",5,"","",2,2,"C","","","","","","","","","","","","","","","","","","","","","","","","","","","","","",114.2,1000,100,"","","","","","","","","","","","","",0.0632846089
"X",5,12,2024,988,83533,41.925775,-69.797785,78,322,1,"-","",5,"","",2,2,"C","","","","","","","","","","","","","","","","","","","","","","","","","","","","","",114.1,1000,100,"","","","","","","","","","","","","",0.0631285549
"X",5,12,2024,989,83535,41.9259866666667,-69.796405,78,323,1,"-","",5,"","",2,2,"C","","","","","","","","","","","","","","","","","","","","","","","","","","","","","",113.7,1000,100,"","","","","","","","","","","","","",0.0629418899
"X",5,12,2024,990,83537,41.9261966666667,-69.7950216666667,79,323,1,"-","",5,"","",2,2,"C","","","","","","","","","","","","","","","","","","","","","","","","","","","","","",113.5,1000,100,"","","","","","","","","","","","","",0.0630674508
"X",5,12,2024,991,83539,41.9264083333333,-69.79364,78,324,1,"-","",5,"","",2,2,"C","","","","","","","","","","","","","","","","","","","","","","","","","","","","","",113.7,1000,100,"","","","","","","","","","","","","",0.0630144099
"X",5,12,2024,992,83541,41.926625,-69.7922583333333,78,323,1,"-","",5,"","",2,2,"C","","","","","","","","","","","","","","","","","","","","","","","","","","","","","",113.9,1000,100,"","","","","","","","","","","","","",0.0630754364
"X",5,12,2024,993,83543,41.9268433333333,-69.790875,78,321,1,"-","",5,"","",2,2,"C","","","","","","","","","","","","","","","","","","","","","","","","","","","","","",114,1000,100,"","","","","","","","","","","","","",0.0631687722
"X",5,12,2024,994,83545,41.9270616666667,-69.7894866666667,78,319,1,"-","",5,"","",2,2,"C","","","","","","","","","","","","","","","","","","","","","","","","","","","","","",114.4,1000,100,"","","","","","","","","","","","","",0.0633870697
"X",5,12,2024,995,83547,41.92728,-69.788095,78,317,1,"-","",5,"","",2,2,"C","","","","","","","","","","","","","","","","","","","","","","","","","","","","","",114.5,1000,100,"","","","","","","","","","","","","",0.0635325499
"X",5,12,2024,996,83549,41.9274983333333,-69.7866966666667,78,316,1,"-","",5,"","",2,2,"C","","","","","","","","","","","","","","","","","","","","","","","","","","","","","",115.3,1000,100,"","","","","","","","","","","","","",0.0638237608
"X",5,12,2024,997,83551,41.9277166666667,-69.7852933333333,78,315,1,"-","",5,"","",2,2,"C","","","","","","","","","","","","","","","","","","","","","","","","","","","","","",115.3,1000,100,"","","","","","","","","","","","","",0.0640421536
"X",5,12,2024,998,83551,41.9277166666667,-69.7852933333333,78,315,1,"-","",5,"","",2,2,"C","","","","","","","","","","","","","","","","","","","","","","","","","","","","","",115.3,1000,100,"","","","","","","","","","","","","",0
"X",5,12,2024,999,83553,41.9279333333333,-69.7838916666667,78,314,1,"-","",5,"","",2,2,"C","","","","","","","","","","","","","","","","","","","","","","","","","","","","","",115.4,1000,100,"","","","","","","","","","","","","",0.0639486424
"X",5,12,2024,1000,83555,41.9281533333333,-69.7824933333333,78,313,1,"-","",5,"","",2,2,"C","","","","","","","","","","","","","","","","","","","","","","","","","","","","","",115.1,1000,100,"","","","","","","","","","","","","",0.0638437622
"X",5,12,2024,1001,83557,41.9283766666667,-69.7811016666667,78,314,1,"-","",5,"","",2,2,"C","","","","","","","","","","","","","","","","","","","","","","","","","","","","","",114.7,1000,100,"","","","","","","","","","","","","",0.0635941275
"X",5,12,2024,1002,83559,41.9286033333333,-69.7797133333333,78,314,1,"-","",5,"","",2,2,"C","","","","","","","","","","","","","","","","","","","","","","","","","","","","","",114.3,1000,100,"","","","","","","","","","","","","",0.0634909697
"X",5,12,2024,1003,83601,41.9288316666667,-69.7783333333333,78,315,1,"-","",5,"","",2,2,"C","","","","","","","","","","","","","","","","","","","","","","","","","","","","","",113.6,1000,100,"","","","","","","","","","","","","",0.0631488653
"X",5,12,2024,1004,83603,41.929055,-69.7769566666667,78,317,1,"-","",5,"","",2,2,"C","","","","","","","","","","","","","","","","","","","","","","","","","","","","","",113.3,1000,100,"","","","","","","","","","","","","",0.0629386759
"X",5,12,2024,1005,83605,41.92928,-69.7755866666667,78,318,1,"-","",5,"","",2,2,"C","","","","","","","","","","","","","","","","","","","","","","","","","","","","","",113,1000,100,"","","","","","","","","","","","","",0.0626690391
"X",5,12,2024,1006,83607,41.9295033333333,-69.7742233333334,78,318,1,"-","",5,"","",2,2,"C","","","","","","","","","","","","","","","","","","","","","","","","","","","","","",112.4,1000,100,"","","","","","","","","","","","","",0.06235648
"X",5,12,2024,1007,83609,41.929725,-69.7728566666667,78,319,1,"-","",5,"","",2,2,"C","","","","","","","","","","","","","","","","","","","","","","","","","","","","","",112.7,1000,100,"","","","","","","","","","","","","",0.0624802992
"X",5,12,2024,1008,83611,41.9299466666667,-69.771495,78,319,1,"-","",5,"","",2,2,"C","","","","","","","","","","","","","","","","","","","","","","","","","","","","","",112.6,1000,100,"","","","","","","","","","","","","",0.0622618962
"X",5,12,2024,1009,83613,41.93017,-69.77013,78,318,1,"-","",5,"","",2,2,"C","","","","","","","","","","","","","","","","","","","","","","","","","","","","","",112.9,1000,100,"","","","","","","","","","","","","",0.0624285652
"X",5,12,2024,1010,83615,41.930395,-69.7687616666667,78,317,1,"-","",5,"","",2,2,"C","","","","","","","","","","","","","","","","","","","","","","","","","","","","","",112.9,1000,100,"","","","","","","","","","","","","",0.0625953009
"X",5,12,2024,1011,83617,41.9306183333333,-69.767395,78,316,1,"-","",5,"","",2,2,"C","","","","","","","","","","","","","","","","","","","","","","","","","","","","","",113.2,1000,100,"","","","","","","","","","","","","",0.0625008569
"X",5,12,2024,1012,83619,41.9308416666667,-69.7660216666667,78,316,1,"-","",5,"","",2,2,"C","","","","","","","","","","","","","","","","","","","","","","","","","","","","","",113.2,1000,100,"","","","","","","","","","","","","",0.0627915286
"X",5,12,2024,1013,83621,41.93106,-69.76465,78,315,1,"-","",5,"","",2,2,"C","","","","","","","","","","","","","","","","","","","","","","","","","","","","","",113.5,1000,100,"","","","","","","","","","","","","",0.0626550993
"X",5,12,2024,1014,83621,41.93106,-69.76465,78,315,1,"-","",5,"","",2,2,"C","","","","","","","","","","","","","","","","","","","","","","","","","","","","","",113.5,1000,100,"","","","","","","","","","","","","",0
"X",5,12,2024,1015,83623,41.931275,-69.7632733333333,78,314,1,"-","",5,"","",2,2,"C","","","","","","","","","","","","","","","","","","","","","","","","","","","","","",113.5,1000,100,"","","","","","","","","","","","","",0.0628318828
"X",5,12,2024,1016,83625,41.9314883333333,-69.7618933333333,78,314,1,"-","",5,"","",2,2,"C","","","","","","","","","","","","","","","","","","","","","","","","","","","","","",113.5,1000,100,"","","","","","","","","","","","","",0.0629569665
"X",5,12,2024,1017,83627,41.9317033333333,-69.760515,78,313,1,"-","",5,"","",2,2,"C","","","","","","","","","","","","","","","","","","","","","","","","","","","","","",113.3,1000,100,"","","","","","","","","","","","","",0.0629043369
"X",5,12,2024,1018,83629,41.9319183333333,-69.7591416666667,78,314,1,"-","",5,"","",2,2,"C","","","","","","","","","","","","","","","","","","","","","","","","","","","","","",113.4,1000,100,"","","","","","","","","","","","","",0.062685571
"X",5,12,2024,1019,83631,41.9321333333333,-69.7577633333333,78,314,1,"-","",5,"","",2,2,"C","","","","","","","","","","","","","","","","","","","","","","","","","","","","","",113.3,1000,100,"","","","","","","","","","","","","",0.0629039307
"X",5,12,2024,1020,83633,41.93235,-69.7563916666667,78,313,1,"-","",5,"","",2,2,"C","","","","","","","","","","","","","","","","","","","","","","","","","","","","","",112.8,1000,100,"","","","","","","","","","","","","",0.0626330265
"X",5,12,2024,1021,83635,41.9325666666667,-69.7550216666667,78,314,1,"-","",5,"","",2,2,"C","","","","","","","","","","","","","","","","","","","","","","","","","","","","","",112.6,1000,100,"","","","","","","","","","","","","",0.0625600048
"X",5,12,2024,1022,83637,41.9327866666667,-69.7536566666667,78,314,1,"-","",5,"","",2,2,"C","","","","","","","","","","","","","","","","","","","","","","","","","","","","","",112.7,1000,100,"","","","","","","","","","","","","",0.0623834384
"X",5,12,2024,1023,83639,41.93301,-69.75229,78,313,1,"-","",5,"","",2,2,"C","","","","","","","","","","","","","","","","","","","","","","","","","","","","","",112.6,1000,100,"","","","","","","","","","","","","",0.0624986213
"X",5,12,2024,1024,83641,41.9332333333333,-69.750925,78,313,1,"-","",5,"","",2,2,"C","","","","","","","","","","","","","","","","","","","","","","","","","","","","","",112.6,1000,100,"","","","","","","","","","","","","",0.0624257054
"X",5,12,2024,1025,83643,41.9334566666667,-69.7495616666667,78,314,1,"-","",5,"","",2,2,"C","","","","","","","","","","","","","","","","","","","","","","","","","","","","","",112.6,1000,100,"","","","","","","","","","","","","",0.0623527942
"X",5,12,2024,1026,83645,41.9336783333333,-69.7481966666667,78,314,1,"-","",5,"","",2,2,"C","","","","","","","","","","","","","","","","","","","","","","","","","","","","","",112.5,1000,100,"","","","","","","","","","","","","",0.0624038711
"X",5,12,2024,1027,83647,41.933895,-69.74683,78,315,1,"-","",5,"","",2,2,"C","","","","","","","","","","","","","","","","","","","","","","","","","","","","","",112.5,1000,100,"","","","","","","","","","","","","",0.0624131366
"X",5,12,2024,1028,83649,41.9341083333333,-69.745465,78,316,1,"-","",5,"","",2,2,"C","","","","","","","","","","","","","","","","","","","","","","","","","","","","","",112.3,1000,100,"","","","","","","","","","","","","",0.0622986751
"X",5,12,2024,1029,83651,41.9343166666667,-69.7440983333333,78,316,1,"-","",5,"","",2,2,"C","","","","","","","","","","","","","","","","","","","","","","","","","","","","","",112.3,1000,100,"","","","","","","","","","","","","",0.0623103737
"X",5,12,2024,1030,83653,41.9345266666667,-69.7427333333333,78,317,1,"-","",5,"","",2,2,"C","","","","","","","","","","","","","","","","","","","","","","","","","","","","","",112.2,1000,100,"","","","","","","","","","","","","",0.0622574423
"X",5,12,2024,1031,83655,41.934745,-69.7413733333333,78,317,1,"-","",5,"","",2,2,"C","","","","","","","","","","","","","","","","","","","","","","","","","","","","","",112.1,1000,100,"","","","","","","","","","","","","",0.062142181
"X",5,12,2024,1032,83657,41.934975,-69.7400216666667,77,318,1,"-","",5,"","",2,2,"C","","","","","","","","","","","","","","","","","","","","","","","","","","","","","",111.9,1000,100,"","","","","","","","","","","","","",0.0619306123
"X",5,12,2024,1033,83659,41.9352066666667,-69.73867,77,318,1,"-","",5,"","",2,2,"C","","","","","","","","","","","","","","","","","","","","","","","","","","","","","",111.7,1000,100,"","","","","","","","","","","","","",0.0619527892
"X",5,12,2024,1034,83701,41.9354416666667,-69.7373216666667,77,319,1,"-","",5,"","",2,2,"C","","","","","","","","","","","","","","","","","","","","","","","","","","","","","",111.4,1000,100,"","","","","","","","","","","","","",0.06185285
"X",5,12,2024,1035,83703,41.93568,-69.7359833333333,76,323,1,"-","",5,"","",2,2,"C","","","","","","","","","","","","","","","","","","","","","","","","","","","","","",110.2,1000,100,"","","","","","","","","","","","","",0.0614641394
"X",5,12,2024,1036,83705,41.935925,-69.73466,76,326,1,"-","",5,"","",2,2,"C","","","","","","","","","","","","","","","","","","","","","","","","","","","","","",109.9,1000,100,"","","","","","","","","","","","","",0.0609080013
"X",5,12,2024,1037,83707,41.93618,-69.7333433333333,75,326,1,"-","",5,"","",2,2,"C","","","","","","","","","","","","","","","","","","","","","","","","","","","","","",109.5,1000,100,"","","","","","","","","","","","","",0.0607673633
"X",5,12,2024,1038,83709,41.9364416666667,-69.7320266666667,75,324,1,"-","",5,"","",2,2,"C","","","","","","","","","","","","","","","","","","","","","","","","","","","","","",110.2,1000,100,"","","","","","","","","","","","","",0.0608692135
"X",5,12,2024,1039,83711,41.93671,-69.7307,75,321,1,"-","",5,"","",2,2,"C","","","","","","","","","","","","","","","","","","","","","","","","","","","","","",110.9,1000,100,"","","","","","","","","","","","","",0.0614043876
"X",5,12,2024,1040,83713,41.9369816666667,-69.729365,75,318,1,"-","",5,"","",2,2,"C","","","","","","","","","","","","","","","","","","","","","","","","","","","","","",111.8,1000,100,"","","","","","","","","","","","","",0.061815882
"X",5,12,2024,1041,83715,41.9372616666667,-69.728025,74,316,1,"-","",5,"","",2,2,"C","","","","","","","","","","","","","","","","","","","","","","","","","","","","","",112.1,1000,100,"","","","","","","","","","","","","",0.0621644983
"X",5,12,2024,1042,83717,41.9375483333333,-69.7266816666667,74,313,1,"-","",5,"","",2,2,"C","","","","","","","","","","","","","","","","","","","","","","","","","","","","","",112.8,1000,100,"","","","","","","","","","","","","",0.062416771
"X",5,12,2024,1043,83719,41.9378333333333,-69.72533,74,310,1,"-","",5,"","",2,2,"C","","","","","","","","","","","","","","","","","","","","","","","","","","","","","",113.6,1000,100,"","","","","","","","","","","","","",0.06274699
"X",5,12,2024,1044,83721,41.9381133333333,-69.723965,75,307,1,"-","",5,"","",2,2,"C","","","","","","","","","","","","","","","","","","","","","","","","","","","","","",114.3,1000,100,"","","","","","","","","","","","","",0.0632394
"X",5,12,2024,1045,83721,41.9381133333333,-69.723965,75,307,1,"-","",5,"","",2,2,"C","","","","","","","","","","","","","","","","","","","","","","","","","","","","","",114.3,1000,100,"","","","","","","","","","","","","",0
"X",5,12,2024,1046,83723,41.9383933333333,-69.72259,75,304,1,"-","",5,"","",2,2,"C","","","","","","","","","","","","","","","","","","","","","","","","","","","","","",115.1,1000,100,"","","","","","","","","","","","","",0.0636698026
"X",5,12,2024,1047,83725,41.93867,-69.721205,75,300,1,"-","",5,"","",2,2,"C","","","","","","","","","","","","","","","","","","","","","","","","","","","","","",115.5,1000,100,"","","","","","","","","","","","","",0.0640482238
"X",5,12,2024,1048,83727,41.938945,-69.71981,75,298,1,"-","",5,"","",2,2,"C","","","","","","","","","","","","","","","","","","","","","","","","","","","","","",116.6,1000,100,"","","","","","","","","","","","","",0.0644536966
"X",5,12,2024,1049,83729,41.93922,-69.7184083333333,75,295,1,"-","",5,"","",2,2,"C","","","","","","","","","","","","","","","","","","","","","","","","","","","","","",117.2,1000,100,"","","","","","","","","","","","","",0.0647412895
"X",5,12,2024,1050,83731,41.9394983333333,-69.717005,75,293,1,"-","",5,"","",2,2,"C","","","","","","","","","","","","","","","","","","","","","","","","","","","","","",116.9,1000,100,"","","","","","","","","","","","","",0.0648642768
"X",5,12,2024,1051,83733,41.939785,-69.7156016666667,75,291,1,"-","",5,"","",2,2,"C","","","","","","","","","","","","","","","","","","","","","","","","","","","","","",117.3,1000,100,"","","","","","","","","","","","","",0.0649947111
"X",5,12,2024,1052,83735,41.940075,-69.7142,75,290,1,"-","",5,"","",2,2,"C","","","","","","","","","","","","","","","","","","","","","","","","","","","","","",117.3,1000,100,"","","","","","","","","","","","","",0.0649760076
"X",5,12,2024,1053,83737,41.9403633333333,-69.7128033333333,75,292,1,"-","",5,"","",2,2,"C","","","","","","","","","","","","","","","","","","","","","","","","","","","","","",116.4,1000,100,"","","","","","","","","","","","","",0.0647337929
"X",5,12,2024,1054,83739,41.940645,-69.7114133333333,75,294,1,"-","",5,"","",2,2,"C","","","","","","","","","","","","","","","","","","","","","","","","","","","","","",115.4,1000,100,"","","","","","","","","","","","","",0.0643403162
"X",5,12,2024,1055,83741,41.9409166666667,-69.7100333333333,75,296,1,"-","",5,"","",2,2,"C","","","","","","","","","","","","","","","","","","","","","","","","","","","","","",114.5,1000,100,"","","","","","","","","","","","","",0.0637530177
"X",5,12,2024,1056,83743,41.9411816666667,-69.7086666666667,76,300,1,"-","",5,"","",2,2,"C","","","","","","","","","","","","","","","","","","","","","","","","","","","","","",113.1,1000,100,"","","","","","","","","","","","","",0.0630751465
"X",5,12,2024,1057,83745,41.9414416666667,-69.7073166666667,76,305,1,"-","",5,"","",2,2,"C","","","","","","","","","","","","","","","","","","","","","","","","","","","","","",112.2,1000,100,"","","","","","","","","","","","","",0.0622790007
"X",5,12,2024,1058,83747,41.9416933333333,-69.7059866666667,76,310,1,"-","",5,"","",2,2,"C","","","","","","","","","","","","","","","","","","","","","","","","","","","","","",110,1000,100,"","","","","","","","","","","","","",0.0612892277
"X",5,12,2024,1059,83749,41.94194,-69.70467,76,314,1,"-","",5,"","",2,2,"C","","","","","","","","","","","","","","","","","","","","","","","","","","","","","",108.8,1000,100,"","","","","","","","","","","","","",0.0606380822
"X",5,12,2024,1060,83751,41.9421866666667,-69.703365,76,317,1,"-","",5,"","",2,2,"C","","","","","","","","","","","","","","","","","","","","","","","","","","","","","",108.2,1000,100,"","","","","","","","","","","","","",0.0601327493
"X",5,12,2024,1061,83751,41.9421866666667,-69.703365,76,317,1,"-","",5,"","",2,2,"C","","","","","","","","","","","","","","","","","","","","","","","","","","","","","",108.2,1000,100,"","","","","","","","","","","","","",0
"X",5,12,2024,1062,83753,41.9424266666667,-69.702065,76,320,1,"-","",5,"","",2,2,"C","","","","","","","","","","","","","","","","","","","","","","","","","","","","","",107.7,1000,100,"","","","","","","","","","","","","",0.0598184607
"X",5,12,2024,1063,83755,41.94266,-69.70077,76,322,1,"-","",5,"","",2,2,"C","","","","","","","","","","","","","","","","","","","","","","","","","","","","","",107.3,1000,100,"","","","","","","","","","","","","",0.0595060517
"X",5,12,2024,1064,83757,41.9428883333333,-69.699475,77,324,1,"-","",5,"","",2,2,"C","","","","","","","","","","","","","","","","","","","","","","","","","","","","","",107,1000,100,"","","","","","","","","","","","","",0.0594358878
"X",5,12,2024,1065,83759,41.9431133333333,-69.69818,77,326,1,"-","",5,"","",2,2,"C","","","","","","","","","","","","","","","","","","","","","","","","","","","","","",107,1000,100,"","","","","","","","","","","","","",0.0593898446
"X",5,12,2024,1066,83801,41.9433416666667,-69.6968883333333,77,326,1,"-","",5,"","",2,2,"C","","","","","","","","","","","","","","","","","","","","","","","","","","","","","",106.7,1000,100,"","","","","","","","","","","","","",0.0592906499
"X",5,12,2024,1067,83803,41.943575,-69.6956033333333,77,327,1,"-","",5,"","",2,2,"C","","","","","","","","","","","","","","","","","","","","","","","","","","","","","",106.7,1000,100,"","","","","","","","","","","","","",0.059071308
"X",5,12,2024,1068,83805,41.9438066666667,-69.694315,76,328,1,"-","",5,"","",2,2,"C","","","","","","","","","","","","","","","","","","","","","","","","","","","","","",106.7,1000,100,"","","","","","","","","","","","","",0.0591921345
"X",5,12,2024,1069,83807,41.94404,-69.6930233333333,76,327,1,"-","",5,"","",2,2,"C","","","","","","","","","","","","","","","","","","","","","","","","","","","","","",107.4,1000,100,"","","","","","","","","","","","","",0.0593601697
"X",5,12,2024,1070,83809,41.9442716666667,-69.6917233333333,77,325,1,"-","",5,"","",2,2,"C","","","","","","","","","","","","","","","","","","","","","","","","","","","","","",108.2,1000,100,"","","","","","","","","","","","","",0.0596982717
"X",5,12,2024,1071,83811,41.9445016666667,-69.6904083333334,77,323,1,"-","",5,"","",2,2,"C","","","","","","","","","","","","","","","","","","","","","","","","","","","","","",109.1,1000,100,"","","","","","","","","","","","","",0.060326714
"X",5,12,2024,1072,83813,41.9447266666667,-69.689085,77,321,1,"-","",5,"","",2,2,"C","","","","","","","","","","","","","","","","","","","","","","","","","","","","","",109.5,1000,100,"","","","","","","","","","","","","",0.0606212309
"X",5,12,2024,1073,83815,41.9449466666667,-69.6877516666667,77,320,1,"-","",5,"","",2,2,"C","","","","","","","","","","","","","","","","","","","","","","","","","","","","","",109.9,1000,100,"","","","","","","","","","","","","",0.0609907366
"X",5,12,2024,1074,83817,41.945165,-69.6864116666667,78,319,1,"-","",5,"","",2,2,"C","","","","","","","","","","","","","","","","","","","","","","","","","","","","","",110.6,1000,100,"","","","","","","","","","","","","",0.0612597287
"X",5,12,2024,1075,83819,41.9453833333333,-69.685065,78,318,1,"-","",5,"","",2,2,"C","","","","","","","","","","","","","","","","","","","","","","","","","","","","","",111,1000,100,"","","","","","","","","","","","","",0.0615503794
"X",5,12,2024,1076,83821,41.9456,-69.6837133333333,78,318,1,"-","",5,"","",2,2,"C","","","","","","","","","","","","","","","","","","","","","","","","","","","","","",111.6,1000,100,"","","","","","","","","","","","","",0.0617471998
"X",5,12,2024,1077,83823,41.9458183333333,-69.6823616666667,78,317,1,"-","",5,"","",2,2,"C","","","","","","","","","","","","","","","","","","","","","","","","","","","","","",111.4,1000,100,"","","","","","","","","","","","","",0.061768158
"X",5,12,2024,1078,83825,41.946035,-69.68101,78,317,1,"-","",5,"","",2,2,"C","","","","","","","","","","","","","","","","","","","","","","","","","","","","","",111.4,1000,100,"","","","","","","","","","","","","",0.0617467971
"X",5,12,2024,1079,83827,41.9462466666667,-69.6796533333333,78,316,1,"-","",5,"","",2,2,"C","","","","","","","","","","","","","","","","","","","","","","","","","","","","","",111.7,1000,100,"","","","","","","","","","","","","",0.0619025598
"X",5,12,2024,1080,83829,41.9464533333333,-69.6782916666667,79,315,1,"-","",5,"","",2,2,"C","","","","","","","","","","","","","","","","","","","","","","","","","","","","","",112,1000,100,"","","","","","","","","","","","","",0.0620601888
"X",5,12,2024,1081,83831,41.9466216666667,-69.6769183333333,83,316,1,"-","",5,"","",2,2,"C","","","","","","","","","","","","","","","","","","","","","","","","","","","","","",112.1,1000,100,"","","","","","","","","","","","","",0.0621550994
"X",5,12,2024,1082,83833,41.946685,-69.6755333333333,90,318,1,"-","",5,"","",2,2,"C","","","","","","","","","","","","","","","","","","","","","","","","","","","","","",111.5,1000,100,"","","","","","","","","","","","","",0.0619655397
"X",5,12,2024,1083,83835,41.946595,-69.6741583333333,94,320,1,"-","",5,"","",2,2,"C","","","","","","","","","","","","","","","","","","","","","","","","","","","","","",111.8,1000,100,"","","","","","","","","","","","","",0.06163952
"X",5,12,2024,1084,83837,41.9463166666667,-69.6728333333333,110,319,1,"-","",5,"","",2,2,"C","","","","","","","","","","","","","","","","","","","","","","","","","","","","","",111.2,1000,100,"","","","","","","","","","","","","",0.0614841796
"X",5,12,2024,1085,83839,41.9458633333333,-69.6715883333333,120,317,1,"-","",5,"","",2,2,"C","","","","","","","","","","","","","","","","","","","","","","","","","","","","","",111.9,1000,100,"","","","","","","","","","","","","",0.0619024035
"X",5,12,2024,1086,83841,41.945245,-69.6704783333333,131,312,1,"-","",5,"","",2,2,"C","","","","","","","","","","","","","","","","","","","","","","","","","","","","","",112,1000,100,"","","","","","","","","","","","","",0.0619303609
"X",5,12,2024,1087,83843,41.9444833333333,-69.6695216666667,140,307,1,"-","",5,"","",2,2,"C","","","","","","","","","","","","","","","","","","","","","","","","","","","","","",113.5,1000,100,"","","","","","","","","","","","","",0.0625819247
"X",5,12,2024,1088,83845,41.9436216666667,-69.668695,144,301,1,"-","",5,"","",2,2,"C","","","","","","","","","","","","","","","","","","","","","","","","","","","","","",114.1,1000,100,"","","","","","","","","","","","","",0.06355611
"X",5,12,2024,1089,83847,41.942675,-69.6680266666667,155,298,1,"-","",5,"","",2,2,"C","","","","","","","","","","","","","","","","","","","","","","","","","","","","","",116.1,1000,100,"","","","","","","","","","","","","",0.0641983292
"X",5,12,2024,1090,83849,41.94168,-69.667475,159,298,1,"-","",5,"","",2,2,"C","","","","","","","","","","","","","","","","","","","","","","","","","","","","","",115.8,1000,100,"","","","","","","","","","","","","",0.0646210609
"X",5,12,2024,1091,83851,41.9406683333333,-69.6669983333333,161,299,1,"-","",5,"","",2,2,"C","","","","","","","","","","","","","","","","","","","","","","","","","","","","","",115.1,1000,100,"","","","","","","","","","","","","",0.0643633138
"X",5,12,2024,1092,83851,41.9406683333333,-69.6669983333333,161,299,1,"-","",5,"","",2,2,"C","","","","","","","","","","","","","","","","","","","","","","","","","","","","","",115.1,1000,100,"","","","","","","","","","","","","",0
"X",5,12,2024,1093,83853,41.9396616666667,-69.6665366666667,161,300,1,"-","",5,"","",2,2,"C","","","","","","","","","","","","","","","","","","","","","","","","","","","","","",114.9,1000,100,"","","","","","","","","","","","","",0.0638607691
"X",5,12,2024,1094,83855,41.93866,-69.6660616666667,161,300,1,"-","",5,"","",2,2,"C","","","","","","","","","","","","","","","","","","","","","","","","","","","","","",114.7,1000,100,"","","","","","","","","","","","","",0.0637724335
"X",5,12,2024,1095,83857,41.9376633333333,-69.66557,159,300,1,"-","",5,"","",2,2,"C","","","","","","","","","","","","","","","","","","","","","","","","","","","","","",114.7,1000,100,"","","","","","","","","","","","","",0.0637421032
"X",5,12,2024,1096,83859,41.936675,-69.66506,159,300,1,"-","",5,"","",2,2,"C","","","","","","","","","","","","","","","","","","","","","","","","","","","","","",114.2,1000,100,"","","","","","","","","","","","","",0.063561561
"X",5,12,2024,1097,83901,41.93569,-69.6645366666667,158,300,1,"-","",5,"","",2,2,"C","","","","","","","","","","","","","","","","","","","","","","","","","","","","","",114.3,1000,100,"","","","","","","","","","","","","",0.0635913548
"X",5,12,2024,1098,83903,41.9347083333333,-69.6640016666667,158,301,1,"-","",5,"","",2,2,"C","","","","","","","","","","","","","","","","","","","","","","","","","","","","","",114.2,1000,100,"","","","","","","","","","","","","",0.0635993454
"X",5,12,2024,1099,83905,41.9337316666667,-69.6634633333333,158,301,1,"-","",5,"","",2,2,"C","","","","","","","","","","","","","","","","","","","","","","","","","","","","","",113.9,1000,100,"","","","","","","","","","","","","",0.0633777106
"X",5,12,2024,1100,83907,41.9327583333333,-69.662915,157,302,1,"-","",5,"","",2,2,"C","","","","","","","","","","","","","","","","","","","","","","","","","","","","","",113.8,1000,100,"","","","","","","","","","","","","",0.063364023
"X",5,12,2024,1101,83909,41.9317916666667,-69.66236,157,303,1,"-","",5,"","",2,2,"C","","","","","","","","","","","","","","","","","","","","","","","","","","","","","",113.4,1000,100,"","","","","","","","","","","","","",0.0631115655
"X",5,12,2024,1102,83911,41.93083,-69.6618033333333,156,305,1,"-","",5,"","",2,2,"C","","","","","","","","","","","","","","","","","","","","","","","","","","","","","",112.6,1000,100,"","","","","","","","","","","","","",0.0628651572
"X",5,12,2024,1103,83913,41.9298766666667,-69.6612416666667,156,307,1,"-","",5,"","",2,2,"C","","","","","","","","","","","","","","","","","","","","","","","","","","","","","",112.1,1000,100,"","","","","","","","","","","","","",0.0624954038
"X",5,12,2024,1104,83915,41.9289283333333,-69.6606783333333,156,308,1,"-","",5,"","",2,2,"C","","","","","","","","","","","","","","","","","","","","","","","","","","","","","",111.9,1000,100,"","","","","","","","","","","","","",0.0622507765
"X",5,12,2024,1105,83917,41.9279833333333,-69.6601233333333,156,310,1,"-","",5,"","",2,2,"C","","","","","","","","","","","","","","","","","","","","","","","","","","","","","",111.3,1000,100,"","","","","","","","","","","","","",0.0619179468
"X",5,12,2024,1106,83919,41.9270366666667,-69.65959,159,311,1,"-","",5,"","",2,2,"C","","","","","","","","","","","","","","","","","","","","","","","","","","","","","",110.6,1000,100,"","","","","","","","","","","","","",0.0616292445
"X",5,12,2024,1107,83921,41.92607,-69.65916,165,313,1,"-","",5,"","",2,2,"C","","","","","","","","","","","","","","","","","","","","","","","","","","","","","",109.7,1000,100,"","","","","","","","","","","","","",0.0611350377
"X",5,12,2024,1108,83923,41.9250783333333,-69.6588983333333,173,314,1,"-","",5,"","",2,2,"C","","","","","","","","","","","","","","","","","","","","","","","","","","","","","",108.8,1000,100,"","","","","","","","","","","","","",0.0606766508
"X",5,12,2024,1109,83925,41.9240783333333,-69.658825,177,314,1,"-","",5,"","",2,2,"C","","","","","","","","","","","","","","","","","","","","","","","","","","","","","",108.2,1000,100,"","","","","","","","","","","","","",0.0601297608
"X",5,12,2024,1110,83927,41.92309,-69.6589433333333,189,314,1,"-","",5,"","",2,2,"C","","","","","","","","","","","","","","","","","","","","","","","","","","","","","",106.9,1000,100,"","","","","","","","","","","","","",0.0595749778
"X",5,12,2024,1111,83929,41.9221333333333,-69.6592483333333,197,313,1,"-","",5,"","",2,2,"C","","","","","","","","","","","","","","","","","","","","","","","","","","","","","",105.8,1000,100,"","","","","","","","","","","","","",0.0590326383
"X",5,12,2024,1112,83931,41.9212283333333,-69.6597366666667,206,313,1,"-","",5,"","",2,2,"C","","","","","","","","","","","","","","","","","","","","","","","","","","","","","",105.2,1000,100,"","","","","","","","","","","","","",0.0585524463
