"rectype","month","day","year","eventno","time","lat","long","heading","alt","legtype","legstage","legno","visiblty","glarel","glarer","beaufort","cloud","wx","sightno","anglel","angler","speccode","number","numcalf","anhead","photos","idrel","confidnc","b1","b2","b3","b4","b5","b6","b7","b8","b9","b10","b11","b12","b13","b14","b15","refno","stratum","utc","radalt","gpsspeed","setalt","setvel","lensfl","ggf","int","gpsq","gpssats","roll","pitch","yaw","maghead","notes","edits","glarev","ph_qual","TrackDist"
"S",7,21,2024,1155,143042,41.8931863574258,-69.9648270385596,7,185,1,"-","",5,"","",1,1,"H","1","","","","","","","","","","","","","","","","","","","","","","","","","","","","",101.5,1000,100,"","","","","","","","","","","ON WATCH - ","","",0.037932014
"X",7,21,2024,1156,143043,41.8934898333333,-69.9647783,7,185,1,"-","",5,"","",1,1,"H","","","","","","","","","","","","","","","","","","","","","","","","","","","","","",101.3,1000,100,"","","","","","","","","","","","","",0.0562825916
"X",7,21,2024,1157,143045,41.8944159666667,-69.9646465666667,6,185,1,"-","",5,"","",1,1,"H","","","","","","","","","","","","","","","","","","","","","","","","","","","","","",100.8,1000,100,"","","","","","","","","","","","","",0.0559162905
"X",7,21,2024,1158,143047,41.8953402,-69.96454035,5,184,1,"-","",5,"","",1,1,"H","","","","","","","","","","","","","","","","","","","","","","","","","","","","","",100.3,1000,100,"","","","","","","","","","","","","",0.0556940689
"X",7,21,2024,1159,143049,41.8962618,-69.96445095,4,184,1,"-","",5,"","",1,1,"H","","","","","","","","","","","","","","","","","","","","","","","","","","","","","",99.9,1000,100,"","","","","","","","","","","","","",0.0554773469
"X",7,21,2024,1160,143051,41.8971936666667,-69.9643718,4,185,1,"-","",5,"","",1,1,"H","","","","","","","","","","","","","","","","","","","","","","","","","","","","","",99.5,1000,100,"","","","","","","","","","","","","",0.0560614083
"X",7,21,2024,1161,143053,41.8981236166667,-69.96430825,3,185,1,"-","",5,"","",1,1,"H","","","","","","","","","","","","","","","","","","","","","","","","","","","","","",99.1,1000,100,"","","","","","","","","","","","","",0.055906808
"X",7,21,2024,1162,143055,41.8990690666667,-69.9642869166667,1,186,1,"-","",5,"","",1,1,"H","","","","","","","","","","","","","","","","","","","","","","","","","","","","","",98.6,1000,100,"","","","","","","","","","","","","",0.0567732558
"X",7,21,2024,1163,143057,41.90004765,-69.9642766666667,2,191,1,"-","",5,"","",1,1,"H","","","","","","","","","","","","","","","","","","","","","","","","","","","","","",98,1000,100,"","","","","","","","","","","","","",0.0587563762
"X",7,21,2024,1164,143059,41.9009984666667,-69.964257,2,193,1,"-","",5,"","",1,1,"H","","","","","","","","","","","","","","","","","","","","","","","","","","","","","",97.4,1000,100,"","","","","","","","","","","","","",0.0570942321
"S",7,21,2024,1165,143100,41.9013724121304,-69.9642432856581,2,194,2,"1","1",5,"1","2",1,1,"H","2","","","","","","","","","","","","","","","","","","","","","","","","","","","","",97.2,1000,100,"","","","","","","","","","","","","",0.0224602197
"X",7,21,2024,1166,143101,41.9019346166667,-69.9642226666667,2,196,2,"2","1",5,"1","2",1,1,"H","","","","","","","","","","","","","","","","","","","","","","","","","","","","","",97,1000,100,"","","","","","","","","","","","","",0.0562278107
"X",7,21,2024,1167,143103,41.90286135,-69.9641937,2,198,2,"2","1",5,"1","2",1,1,"H","","","","","","","","","","","","","","","","","","","","","","","","","","","","","",96.8,1000,100,"","","","","","","","","","","","","",0.0556565478
"X",7,21,2024,1168,143105,41.9037826,-69.96415435,2,200,2,"2","1",5,"1","2",1,1,"H","","","","","","","","","","","","","","","","","","","","","","","","","","","","","",96.5,1000,100,"","","","","","","","","","","","","",0.0553402146
"X",7,21,2024,1169,143107,41.9046932333333,-69.96412395,1,200,2,"1","1",5,"1","2",1,1,"H","","","","","","","","","","","","","","","","","","","","","","","","","","","","","",96.3,1000,100,"","","","","","","","","","","","","",0.054691715
"X",7,21,2024,1170,143109,41.9055980333333,-69.9641020166667,1,199,2,"2","1",5,"1","2",1,1,"H","","","","","","","","","","","","","","","","","","","","","","","","","","","","","",96.3,1000,100,"","","","","","","","","","","","","",0.0543334461
"X",7,21,2024,1171,143111,41.9065086833333,-69.9640687666667,2,198,2,"2","1",5,"1","2",1,1,"H","","","","","","","","","","","","","","","","","","","","","","","","","","","","","",96.5,1000,100,"","","","","","","","","","","","","",0.0546960256
"X",7,21,2024,1172,143111,41.9065871342588,-69.9640640509967,2,198,2,"2","1",5,"1","2",1,1,"H","","","","","","","","","","","","","","","","","","","","","","","","","","","","","",96.5,1000,100,"","","","","","","","","","","","","",0.0047149404
"X",7,21,2024,1173,143113,41.90741895,-69.96401405,3,196,2,"2","1",5,"1","2",1,1,"H","","","","","","","","","","","","","","","","","","","","","","","","","","","","","",96.8,1000,100,"","","","","","","","","","","","","",0.0547074884
"X",7,21,2024,1174,143115,41.9083366333333,-69.9639589666667,3,196,2,"2","1",5,"1","2",1,1,"H","","","","","","","","","","","","","","","","","","","","","","","","","","","","","",97.3,1000,100,"","","","","","","","","","","","","",0.0551530743
"X",7,21,2024,1175,143117,41.9092532333333,-69.9639080666667,2,197,2,"2","1",5,"1","2",1,1,"H","","","","","","","","","","","","","","","","","","","","","","","","","","","","","",97.7,1000,100,"","","","","","","","","","","","","",0.0550800588
"X",7,21,2024,1176,143119,41.9101694666667,-69.9638673,2,197,2,"2","1",5,"1","2",1,1,"H","","","","","","","","","","","","","","","","","","","","","","","","","","","","","",97.9,1000,100,"","","","","","","","","","","","","",0.0550412175
"X",7,21,2024,1177,143121,41.91108655,-69.96383345,2,195,2,"2","1",5,"1","2",1,1,"H","","","","","","","","","","","","","","","","","","","","","","","","","","","","","",98.4,1000,100,"","","","","","","","","","","","","",0.0550828711
"X",7,21,2024,1178,143123,41.9120109,-69.9637980333333,2,194,2,"2","1",5,"1","2",1,1,"H","","","","","","","","","","","","","","","","","","","","","","","","","","","","","",98.9,1000,100,"","","","","","","","","","","","","",0.0555209523
"X",7,21,2024,1179,143125,41.9129320333333,-69.9637554833333,2,192,2,"2","1",5,"1","2",1,1,"H","","","","","","","","","","","","","","","","","","","","","","","","","","","","","",99.5,1000,100,"","","","","","","","","","","","","",0.0553379329
"X",7,21,2024,1180,143127,41.9138641333333,-69.9637126833333,2,192,2,"2","1",5,"1","2",1,1,"H","","","","","","","","","","","","","","","","","","","","","","","","","","","","","",99.9,1000,100,"","","","","","","","","","","","","",0.0559963719
"X",7,21,2024,1181,143129,41.9147998,-69.9636774,2,192,2,"2","1",5,"1","2",1,1,"H","","","","","","","","","","","","","","","","","","","","","","","","","","","","","",100.2,1000,100,"","","","","","","","","","","","","",0.0561999681
"X",7,21,2024,1182,143131,41.9157369,-69.9636546333333,1,192,2,"2","1",5,"1","2",1,1,"H","","","","","","","","","","","","","","","","","","","","","","","","","","","","","",100.5,1000,100,"","","","","","","","","","","","","",0.0562731062
"X",7,21,2024,1183,143133,41.9166718666667,-69.9636427,1,192,2,"2","1",5,"1","2",1,1,"H","","","","","","","","","","","","","","","","","","","","","","","","","","","","","",100.8,1000,100,"","","","","","","","","","","","","",0.0561383578
"X",7,21,2024,1184,143135,41.9176133833333,-69.9636220833333,1,192,2,"2","1",5,"1","2",1,1,"H","","","","","","","","","","","","","","","","","","","","","","","","","","","","","",101,1000,100,"","","","","","","","","","","","","",0.0565365947
"X",7,21,2024,1185,143137,41.91855835,-69.9636023,1,194,2,"2","1",5,"1","2",1,1,"H","","","","","","","","","","","","","","","","","","","","","","","","","","","","","",101.3,1000,100,"","","","","","","","","","","","","",0.0567431145
"X",7,21,2024,1186,143139,41.9194967666667,-69.9635969333333,0,195,2,"2","1",5,"1","2",1,1,"H","","","","","","","","","","","","","","","","","","","","","","","","","","","","","",101.4,1000,100,"","","","","","","","","","","","","",0.0563434758
"X",7,21,2024,1187,143141,41.9204357833333,-69.9636058666667,360,196,2,"2","1",5,"1","2",1,1,"H","","","","","","","","","","","","","","","","","","","","","","","","","","","","","",101.4,1000,100,"","","","","","","","","","","","","",0.0563804025
"X",7,21,2024,1188,143143,41.9213761,-69.9636095666667,0,196,2,"2","1",5,"1","2",1,1,"H","","","","","","","","","","","","","","","","","","","","","","","","","","","","","",101.4,1000,100,"","","","","","","","","","","","","",0.0564572845
"S",7,21,2024,1189,143143,41.9215471382691,-69.963609176539,0,196,2,"2","1",5,"3","2",1,1,"H","3","","","","","","","","","","","","","","","","","","","","","","","","","","","","",101.4,1000,100,"","","","","","","","","","","UPDATE FROM BEGINNING - ","","",0.0102692307
"X",7,21,2024,1190,143145,41.9223186833333,-69.9636074166667,0,195,2,"2","1",5,"3","2",1,1,"H","","","","","","","","","","","","","","","","","","","","","","","","","","","","","",101.5,1000,100,"","","","","","","","","","","","","",0.0565932157
"X",7,21,2024,1191,143147,41.92326175,-69.9636062333333,0,195,2,"2","1",5,"3","2",1,1,"H","","","","","","","","","","","","","","","","","","","","","","","","","","","","","",101.6,1000,100,"","","","","","","","","","","","","",0.0566221785
"X",7,21,2024,1192,143149,41.9242053,-69.9636114833333,360,196,2,"2","1",5,"3","2",1,1,"H","","","","","","","","","","","","","","","","","","","","","","","","","","","","","",101.7,1000,100,"","","","","","","","","","","","","",0.0566516588
"X",7,21,2024,1193,143151,41.92514585,-69.9636081333333,0,197,2,"2","1",5,"3","2",1,1,"H","","","","","","","","","","","","","","","","","","","","","","","","","","","","","",101.6,1000,100,"","","","","","","","","","","","","",0.0564712503
"X",7,21,2024,1194,143153,41.9260883166667,-69.9636008666667,0,198,2,"2","1",5,"3","2",1,1,"H","","","","","","","","","","","","","","","","","","","","","","","","","","","","","",101.5,1000,100,"","","","","","","","","","","","","",0.0565870606
"X",7,21,2024,1195,143155,41.9270278166667,-69.96359825,0,199,2,"2","1",5,"3","2",1,1,"H","","","","","","","","","","","","","","","","","","","","","","","","","","","","","",101.5,1000,100,"","","","","","","","","","","","","",0.0564081306
"X",7,21,2024,1196,143157,41.9279661166667,-69.96360635,360,200,2,"2","1",5,"3","2",1,1,"H","","","","","","","","","","","","","","","","","","","","","","","","","","","","","",101.4,1000,100,"","","","","","","","","","","","","",0.0563371229
"X",7,21,2024,1197,143159,41.9289027333333,-69.9636178,360,201,2,"2","1",5,"3","2",1,1,"H","","","","","","","","","","","","","","","","","","","","","","","","","","","","","",101.2,1000,100,"","","","","","","","","","","","","",0.0562372187
"X",7,21,2024,1198,143201,41.9298410333333,-69.9636307833333,359,201,2,"2","1",5,"3","2",1,1,"H","","","","","","","","","","","","","","","","","","","","","","","","","","","","","",101.2,1000,100,"","","","","","","","","","","","","",0.0563389459
"X",7,21,2024,1199,143203,41.9307811166667,-69.96364605,359,201,2,"2","1",5,"3","2",1,1,"H","","","","","","","","","","","","","","","","","","","","","","","","","","","","","",101.3,1000,100,"","","","","","","","","","","","","",0.0564471523
"X",7,21,2024,1200,143205,41.9317209666667,-69.9636616666667,359,202,2,"2","1",5,"3","2",1,1,"H","","","","","","","","","","","","","","","","","","","","","","","","","","","","","",101.4,1000,100,"","","","","","","","","","","","","",0.0564333349
"X",7,21,2024,1201,143207,41.9326617666667,-69.9636763333334,360,203,2,"2","1",5,"3","2",1,1,"H","","","","","","","","","","","","","","","","","","","","","","","","","","","","","",101.5,1000,100,"","","","","","","","","","","","","",0.0564898608
"X",7,21,2024,1202,143207,41.9326617666667,-69.9636763333334,360,203,2,"2","1",5,"3","2",1,1,"H","","","","","","","","","","","","","","","","","","","","","","","","","","","","","",101.5,1000,100,"","","","","","","","","","","","","",0
"X",7,21,2024,1203,143209,41.9336045833333,-69.9636863333333,360,202,2,"2","1",5,"3","2",1,1,"H","","","","","","","","","","","","","","","","","","","","","","","","","","","","","",101.7,1000,100,"","","","","","","","","","","","","",0.0566089058
"X",7,21,2024,1204,143211,41.9345515833333,-69.9636982666667,360,201,2,"2","1",5,"3","2",1,1,"H","","","","","","","","","","","","","","","","","","","","","","","","","","","","","",102.1,1000,100,"","","","","","","","","","","","","",0.0568608111
"X",7,21,2024,1205,143213,41.9354993,-69.9637120833333,360,202,2,"2","1",5,"3","2",1,1,"H","","","","","","","","","","","","","","","","","","","","","","","","","","","","","",102.2,1000,100,"","","","","","","","","","","","","",0.0569046882
"X",7,21,2024,1206,143215,41.9364477333333,-69.9637206666667,360,203,2,"2","1",5,"3","2",1,1,"H","","","","","","","","","","","","","","","","","","","","","","","","","","","","","",102.2,1000,100,"","","","","","","","","","","","","",0.0569456613
"X",7,21,2024,1207,143217,41.9373955666667,-69.9637290166667,360,203,2,"2","1",5,"3","2",1,1,"H","","","","","","","","","","","","","","","","","","","","","","","","","","","","","",102.2,1000,100,"","","","","","","","","","","","","",0.0569095686
"X",7,21,2024,1208,143219,41.9383431666667,-69.9637418833333,359,203,2,"2","1",5,"3","2",1,1,"H","","","","","","","","","","","","","","","","","","","","","","","","","","","","","",102.3,1000,100,"","","","","","","","","","","","","",0.0568972392
"X",7,21,2024,1209,143221,41.9392914666667,-69.9637575,359,203,2,"2","1",5,"3","2",1,1,"H","","","","","","","","","","","","","","","","","","","","","","","","","","","","","",102.2,1000,100,"","","","","","","","","","","","","",0.0569406373
"X",7,21,2024,1210,143223,41.9402394166667,-69.9637713333333,360,203,2,"2","1",5,"3","2",1,1,"H","","","","","","","","","","","","","","","","","","","","","","","","","","","","","",102.2,1000,100,"","","","","","","","","","","","","",0.0569187044
"X",7,21,2024,1211,143225,41.9411886833333,-69.9637789666667,360,203,2,"2","1",5,"3","2",1,1,"H","","","","","","","","","","","","","","","","","","","","","","","","","","","","","",102.3,1000,100,"","","","","","","","","","","","","",0.0569954242
"X",7,21,2024,1212,143227,41.9421361666667,-69.9637886166667,360,204,2,"2","1",5,"3","2",1,1,"H","","","","","","","","","","","","","","","","","","","","","","","","","","","","","",102.3,1000,100,"","","","","","","","","","","","","",0.0568889649
"X",7,21,2024,1213,143229,41.9430814833333,-69.9638121,359,204,2,"2","1",5,"3","2",1,1,"H","","","","","","","","","","","","","","","","","","","","","","","","","","","","","",102.2,1000,100,"","","","","","","","","","","","","",0.0567669331
"X",7,21,2024,1214,143231,41.9440275333333,-69.9638401166667,359,203,2,"2","1",5,"3","2",1,1,"H","","","","","","","","","","","","","","","","","","","","","","","","","","","","","",102.2,1000,100,"","","","","","","","","","","","","",0.0568150528
"X",7,21,2024,1215,143233,41.9449756,-69.9638599,359,203,2,"2","1",5,"3","2",1,1,"H","","","","","","","","","","","","","","","","","","","","","","","","","","","","","",102.3,1000,100,"","","","","","","","","","","","","",0.0569292118
"X",7,21,2024,1216,143235,41.9459242666667,-69.9638779,359,204,2,"2","1",5,"3","2",1,1,"H","","","","","","","","","","","","","","","","","","","","","","","","","","","","","",102.4,1000,100,"","","","","","","","","","","","","",0.0569640521
"X",7,21,2024,1217,143237,41.9468724666667,-69.9639014,359,204,2,"2","1",5,"3","2",1,1,"H","","","","","","","","","","","","","","","","","","","","","","","","","","","","","",102.4,1000,100,"","","","","","","","","","","","","",0.0569400329
"X",7,21,2024,1218,143239,41.9478207666667,-69.9639239166667,359,204,2,"2","1",5,"3","2",1,1,"H","","","","","","","","","","","","","","","","","","","","","","","","","","","","","",102.4,1000,100,"","","","","","","","","","","","","",0.0569452434
"X",7,21,2024,1219,143241,41.9487715833333,-69.96394025,359,203,2,"2","1",5,"3","2",1,1,"H","","","","","","","","","","","","","","","","","","","","","","","","","","","","","",102.6,1000,100,"","","","","","","","","","","","","",0.0570921264
"X",7,21,2024,1220,143243,41.9497247833333,-69.9639496666667,360,204,2,"2","1",5,"3","2",1,1,"H","","","","","","","","","","","","","","","","","","","","","","","","","","","","","",102.8,1000,100,"","","","","","","","","","","","","",0.0572321085
"X",7,21,2024,1221,143245,41.9506773833333,-69.9639558666667,360,204,2,"2","1",5,"3","2",1,1,"H","","","","","","","","","","","","","","","","","","","","","","","","","","","","","",102.8,1000,100,"","","","","","","","","","","","","",0.0571952095
"X",7,21,2024,1222,143247,41.95162855,-69.9639647,360,205,2,"2","1",5,"3","2",1,1,"H","","","","","","","","","","","","","","","","","","","","","","","","","","","","","",102.9,1000,100,"","","","","","","","","","","","","",0.0571098436
"X",7,21,2024,1223,143249,41.9525809166667,-69.96396625,0,205,2,"2","1",5,"3","2",1,1,"H","","","","","","","","","","","","","","","","","","","","","","","","","","","","","",102.9,1000,100,"","","","","","","","","","","","","",0.0571805719
"X",7,21,2024,1224,143251,41.9535369833333,-69.96394275,1,205,2,"2","1",5,"3","2",1,1,"H","","","","","","","","","","","","","","","","","","","","","","","","","","","","","",103.1,1000,100,"","","","","","","","","","","","","",0.0574122696
"X",7,21,2024,1225,143253,41.9544938666667,-69.9639090166667,2,206,2,"2","1",5,"3","2",1,1,"H","","","","","","","","","","","","","","","","","","","","","","","","","","","","","",103.3,1000,100,"","","","","","","","","","","","","",0.0574714539
"X",7,21,2024,1226,143255,41.95545005,-69.9638808833333,1,207,2,"2","1",5,"3","2",1,1,"H","","","","","","","","","","","","","","","","","","","","","","","","","","","","","",103.3,1000,100,"","","","","","","","","","","","","",0.0574234256
"X",7,21,2024,1227,143257,41.9564043166667,-69.9638563333333,1,208,2,"2","1",5,"3","2",1,1,"H","","","","","","","","","","","","","","","","","","","","","","","","","","","","","",103.1,1000,100,"","","","","","","","","","","","","",0.0573050916
"X",7,21,2024,1228,143259,41.95735775,-69.9638290333333,1,208,2,"2","1",5,"3","2",1,1,"H","","","","","","","","","","","","","","","","","","","","","","","","","","","","","",103,1000,100,"","","","","","","","","","","","","",0.057257549
"X",7,21,2024,1229,143301,41.9583091666667,-69.9638011333333,1,209,2,"2","1",5,"3","2",1,1,"H","","","","","","","","","","","","","","","","","","","","","","","","","","","","","",102.8,1000,100,"","","","","","","","","","","","","",0.0571370723
"X",7,21,2024,1230,143303,41.9592577166667,-69.9637794333333,1,210,2,"2","1",5,"3","2",1,1,"H","","","","","","","","","","","","","","","","","","","","","","","","","","","","","",102.5,1000,100,"","","","","","","","","","","","","",0.0569596161
"X",7,21,2024,1231,143305,41.96020305,-69.9637665666667,1,211,2,"2","1",5,"3","2",1,1,"H","","","","","","","","","","","","","","","","","","","","","","","","","","","","","",102.2,1000,100,"","","","","","","","","","","","","",0.0567611525
"X",7,21,2024,1232,143307,41.9611477833333,-69.9637581,0,211,2,"2","1",5,"3","2",1,1,"H","","","","","","","","","","","","","","","","","","","","","","","","","","","","","",102.1,1000,100,"","","","","","","","","","","","","",0.0567234807
"X",7,21,2024,1233,143307,41.9611477833333,-69.9637581,0,211,2,"2","1",5,"3","2",1,1,"H","","","","","","","","","","","","","","","","","","","","","","","","","","","","","",102.1,1000,100,"","","","","","","","","","","","","",0
"X",7,21,2024,1234,143309,41.96209155,-69.9637510666667,0,211,2,"2","1",5,"3","2",1,1,"H","","","","","","","","","","","","","","","","","","","","","","","","","","","","","",102,1000,100,"","","","","","","","","","","","","",0.0566650522
"X",7,21,2024,1235,143311,41.9630355833333,-69.9637466666667,0,211,2,"2","1",5,"3","2",1,1,"H","","","","","","","","","","","","","","","","","","","","","","","","","","","","","",102,1000,100,"","","","","","","","","","","","","",0.0566805333
"X",7,21,2024,1236,143313,41.9639788833333,-69.9637467833333,0,211,2,"2","1",5,"3","2",1,1,"H","","","","","","","","","","","","","","","","","","","","","","","","","","","","","",102.1,1000,100,"","","","","","","","","","","","","",0.0566361635
"X",7,21,2024,1237,143315,41.9649223,-69.9637486833333,360,210,2,"2","1",5,"3","2",1,1,"H","","","","","","","","","","","","","","","","","","","","","","","","","","","","","",102.1,1000,100,"","","","","","","","","","","","","",0.0566432315
"X",7,21,2024,1238,143317,41.9658668,-69.9637495166667,0,209,2,"2","1",5,"3","2",1,1,"H","","","","","","","","","","","","","","","","","","","","","","","","","","","","","",102.3,1000,100,"","","","","","","","","","","","","",0.056708224
"X",7,21,2024,1239,143319,41.9668142666667,-69.9637529833333,360,209,2,"2","1",5,"3","2",1,1,"H","","","","","","","","","","","","","","","","","","","","","","","","","","","","","",102.5,1000,100,"","","","","","","","","","","","","",0.0568865423
"X",7,21,2024,1240,143321,41.96776365,-69.96376215,360,208,2,"2","1",5,"3","2",1,1,"H","","","","","","","","","","","","","","","","","","","","","","","","","","","","","",102.6,1000,100,"","","","","","","","","","","","","",0.0570028782
"X",7,21,2024,1241,143323,41.9687123166667,-69.96377395,360,208,2,"2","1",5,"3","2",1,1,"H","","","","","","","","","","","","","","","","","","","","","","","","","","","","","",102.6,1000,100,"","","","","","","","","","","","","",0.0569608161
"X",7,21,2024,1242,143325,41.9696580166667,-69.9637926666667,359,208,2,"2","1",5,"3","2",1,1,"H","","","","","","","","","","","","","","","","","","","","","","","","","","","","","",102.7,1000,100,"","","","","","","","","","","","","",0.0567864073
"X",7,21,2024,1243,143327,41.9706078666667,-69.963809,359,207,2,"2","1",5,"3","2",1,1,"H","","","","","","","","","","","","","","","","","","","","","","","","","","","","","",102.8,1000,100,"","","","","","","","","","","","","",0.0570340889
"X",7,21,2024,1244,143329,41.9715527166667,-69.96382545,360,207,2,"2","1",5,"3","2",1,1,"H","","","","","","","","","","","","","","","","","","","","","","","","","","","","","",102.9,1000,100,"","","","","","","","","","","","","",0.0567339783
"X",7,21,2024,1245,143331,41.9725047333333,-69.9638342833333,360,206,2,"2","1",5,"3","2",1,1,"H","","","","","","","","","","","","","","","","","","","","","","","","","","","","","",103,1000,100,"","","","","","","","","","","","","",0.0571608759
"X",7,21,2024,1246,143333,41.9734550666667,-69.9638457166667,360,206,2,"2","1",5,"3","2",1,1,"H","","","","","","","","","","","","","","","","","","","","","","","","","","","","","",103,1000,100,"","","","","","","","","","","","","",0.0570607302
"X",7,21,2024,1247,143335,41.9744051666667,-69.9638535833333,360,205,2,"2","1",5,"3","2",1,1,"H","","","","","","","","","","","","","","","","","","","","","","","","","","","","","",103,1000,100,"","","","","","","","","","","","","",0.0570455191
"X",7,21,2024,1248,143337,41.9753574,-69.9638537166667,0,204,2,"2","1",5,"3","2",1,1,"H","","","","","","","","","","","","","","","","","","","","","","","","","","","","","",103.1,1000,100,"","","","","","","","","","","","","",0.057172525
"X",7,21,2024,1249,143339,41.97630965,-69.9638500166667,0,204,2,"2","1",5,"3","2",1,1,"H","","","","","","","","","","","","","","","","","","","","","","","","","","","","","",103.1,1000,100,"","","","","","","","","","","","","",0.0571737639
"X",7,21,2024,1250,143341,41.9772607,-69.9638487,0,204,2,"2","1",5,"3","2",1,1,"H","","","","","","","","","","","","","","","","","","","","","","","","","","","","","",103,1000,100,"","","","","","","","","","","","","",0.057101507
"X",7,21,2024,1251,143343,41.9782124666667,-69.9638444166667,0,204,2,"2","1",5,"3","2",1,1,"H","","","","","","","","","","","","","","","","","","","","","","","","","","","","","",102.9,1000,100,"","","","","","","","","","","","","",0.0571448256
"X",7,21,2024,1252,143345,41.9791615,-69.9638361833333,1,205,2,"2","1",5,"3","2",1,1,"H","","","","","","","","","","","","","","","","","","","","","","","","","","","","","",102.8,1000,100,"","","","","","","","","","","","","",0.0569815802
"X",7,21,2024,1253,143347,41.9801100333333,-69.9638230666667,1,205,2,"2","1",5,"3","2",1,1,"H","","","","","","","","","","","","","","","","","","","","","","","","","","","","","",102.6,1000,100,"","","","","","","","","","","","","",0.056953384
"X",7,21,2024,1254,143349,41.9810541833333,-69.9638147333333,0,205,2,"2","1",5,"3","2",1,1,"H","","","","","","","","","","","","","","","","","","","","","","","","","","","","","",102.5,1000,100,"","","","","","","","","","","","","",0.0566884178
"X",7,21,2024,1255,143351,41.9819988,-69.9638050666667,1,205,2,"2","1",5,"3","2",1,1,"H","","","","","","","","","","","","","","","","","","","","","","","","","","","","","",102.3,1000,100,"","","","","","","","","","","","","",0.0567168575
"X",7,21,2024,1256,143353,41.9829417333333,-69.9637916,1,205,2,"2","1",5,"3","2",1,1,"H","","","","","","","","","","","","","","","","","","","","","","","","","","","","","",102.2,1000,100,"","","","","","","","","","","","","",0.0566173387
"X",7,21,2024,1257,143355,41.9838849166667,-69.9637728833333,1,206,2,"2","1",5,"3","2",1,1,"H","","","","","","","","","","","","","","","","","","","","","","","","","","","","","",102.1,1000,100,"","","","","","","","","","","","","",0.0566353191
"X",7,21,2024,1258,143357,41.9848269166667,-69.96375405,1,206,2,"2","1",5,"3","2",1,1,"H","","","","","","","","","","","","","","","","","","","","","","","","","","","","","",101.9,1000,100,"","","","","","","","","","","","","",0.0565643559
"X",7,21,2024,1259,143359,41.98576545,-69.9637387833333,1,206,2,"2","1",5,"3","2",1,1,"H","","","","","","","","","","","","","","","","","","","","","","","","","","","","","",101.8,1000,100,"","","","","","","","","","","","","",0.0563540893
"X",7,21,2024,1260,143401,41.9867060166667,-69.9637227,1,206,2,"2","1",5,"3","2",1,1,"H","","","","","","","","","","","","","","","","","","","","","","","","","","","","","",101.6,1000,100,"","","","","","","","","","","","","",0.056476614
"X",7,21,2024,1261,143403,41.9876444333333,-69.9637053,1,207,2,"2","1",5,"3","2",1,1,"H","","","","","","","","","","","","","","","","","","","","","","","","","","","","","",101.5,1000,100,"","","","","","","","","","","","","",0.0563483165
"S",7,21,2024,1262,143404,41.9881265101333,-69.9636969880933,1,207,2,"2","1",5,"2","2",1,1,"H","4","","","","","","","","","","","","","","","","","","","","","","","","","","","","",101.5,1000,100,"","","","","","","","","","","UPDATE AGAIN TO 2 - ","","",0.0289464883
"X",7,21,2024,1263,143405,41.9885782,-69.9636892,1,207,2,"2","1",5,"2","2",1,1,"H","","","","","","","","","","","","","","","","","","","","","","","","","","","","","",101.5,1000,100,"","","","","","","","","","","","","",0.0560683814
"X",7,21,2024,1264,143407,41.9895157666667,-69.9636723833333,1,208,2,"2","1",5,"2","2",1,1,"H","","","","","","","","","","","","","","","","","","","","","","","","","","","","","",101.3,1000,100,"","","","","","","","","","","","","",0.0562969336
"X",7,21,2024,1265,143409,41.9904526333333,-69.9636592833333,1,208,2,"2","1",5,"2","2",1,1,"H","","","","","","","","","","","","","","","","","","","","","","","","","","","","","",101.2,1000,100,"","","","","","","","","","","","","",0.0562529407
"X",7,21,2024,1266,143411,41.991387,-69.9636495,0,209,2,"2","1",5,"2","2",1,1,"H","","","","","","","","","","","","","","","","","","","","","","","","","","","","","",101,1000,100,"","","","","","","","","","","","","",0.0561015006
"X",7,21,2024,1267,143413,41.99232005,-69.9636441333333,0,209,2,"2","1",5,"2","2",1,1,"H","","","","","","","","","","","","","","","","","","","","","","","","","","","","","",100.9,1000,100,"","","","","","","","","","","","","",0.0560212604
"X",7,21,2024,1268,143415,41.99325215,-69.9636458,360,210,2,"2","1",5,"2","2",1,1,"H","","","","","","","","","","","","","","","","","","","","","","","","","","","","","",100.7,1000,100,"","","","","","","","","","","","","",0.0559637595
"X",7,21,2024,1269,143417,41.99417865,-69.9636532,360,210,2,"2","1",5,"2","2",1,1,"H","","","","","","","","","","","","","","","","","","","","","","","","","","","","","",100.5,1000,100,"","","","","","","","","","","","","",0.0556284636
"X",7,21,2024,1270,143419,41.9951066833333,-69.9636580833333,360,211,2,"2","1",5,"2","2",1,1,"H","","","","","","","","","","","","","","","","","","","","","","","","","","","","","",100.4,1000,100,"","","","","","","","","","","","","",0.0557199717
"X",7,21,2024,1271,143421,41.9960330666667,-69.9636613,360,211,2,"2","1",5,"2","2",1,1,"H","","","","","","","","","","","","","","","","","","","","","","","","","","","","","",100.2,1000,100,"","","","","","","","","","","","","",0.055620664
"X",7,21,2024,1272,143423,41.9969586,-69.9636652333333,360,211,2,"2","1",5,"2","2",1,1,"H","","","","","","","","","","","","","","","","","","","","","","","","","","","","","",100.1,1000,100,"","","","","","","","","","","","","",0.0555697216
"X",7,21,2024,1273,143425,41.9978832,-69.96367335,360,212,2,"2","1",5,"2","2",1,1,"H","","","","","","","","","","","","","","","","","","","","","","","","","","","","","",100,1000,100,"","","","","","","","","","","","","",0.0555145881
"X",7,21,2024,1274,143427,41.99880695,-69.9636819333333,360,211,2,"2","1",5,"2","2",1,1,"H","","","","","","","","","","","","","","","","","","","","","","","","","","","","","",99.9,1000,100,"","","","","","","","","","","","","",0.0554636946
"X",7,21,2024,1275,143429,41.9997307,-69.9636865833333,360,211,2,"2","1",5,"2","2",1,1,"H","","","","","","","","","","","","","","","","","","","","","","","","","","","","","",99.9,1000,100,"","","","","","","","","","","","","",0.0554627604
"X",7,21,2024,1276,143431,42.0006549333333,-69.9636896833333,360,210,2,"2","1",5,"2","2",1,1,"H","","","","","","","","","","","","","","","","","","","","","","","","","","","","","",99.9,1000,100,"","","","","","","","","","","","","",0.0554915642
"X",7,21,2024,1277,143433,42.0015785666667,-69.9636976666667,360,211,2,"2","1",5,"2","2",1,1,"H","","","","","","","","","","","","","","","","","","","","","","","","","","","","","",99.8,1000,100,"","","","","","","","","","","","","",0.0554565115
"X",7,21,2024,1278,143435,42.0025005333333,-69.96370815,360,211,2,"2","1",5,"2","2",1,1,"H","","","","","","","","","","","","","","","","","","","","","","","","","","","","","",99.7,1000,100,"","","","","","","","","","","","","",0.0553572762
"X",7,21,2024,1279,143437,42.00342035,-69.9637178166667,360,212,2,"2","1",5,"2","2",1,1,"H","","","","","","","","","","","","","","","","","","","","","","","","","","","","","",99.5,1000,100,"","","","","","","","","","","","","",0.0552278973
"X",7,21,2024,1280,143439,42.0043408833333,-69.9637237666667,360,212,2,"2","1",5,"2","2",1,1,"H","","","","","","","","","","","","","","","","","","","","","","","","","","","","","",99.5,1000,100,"","","","","","","","","","","","","",0.0552698797
"X",7,21,2024,1281,143441,42.0052589166667,-69.9637303333333,360,212,2,"2","1",5,"2","2",1,1,"H","","","","","","","","","","","","","","","","","","","","","","","","","","","","","",99.3,1000,100,"","","","","","","","","","","","","",0.0551199196
"X",7,21,2024,1282,143443,42.0061768166667,-69.963737,360,211,2,"2","1",5,"2","2",1,1,"H","","","","","","","","","","","","","","","","","","","","","","","","","","","","","",99.3,1000,100,"","","","","","","","","","","","","",0.0551119382
"X",7,21,2024,1283,143445,42.0070952166667,-69.96374285,360,211,2,"2","1",5,"2","2",1,1,"H","","","","","","","","","","","","","","","","","","","","","","","","","","","","","",99.2,1000,100,"","","","","","","","","","","","","",0.0551417735
"X",7,21,2024,1284,143447,42.0080138333333,-69.9637435666667,0,211,2,"2","1",5,"2","2",1,1,"H","","","","","","","","","","","","","","","","","","","","","","","","","","","","","",99.2,1000,100,"","","","","","","","","","","","","",0.0551541739
"X",7,21,2024,1285,143449,42.00893115,-69.9637399833333,0,211,2,"2","1",5,"2","2",1,1,"H","","","","","","","","","","","","","","","","","","","","","","","","","","","","","",99.2,1000,100,"","","","","","","","","","","","","",0.055076344
"X",7,21,2024,1286,143451,42.0098482333333,-69.9637402166667,360,210,2,"2","1",5,"2","2",1,1,"H","","","","","","","","","","","","","","","","","","","","","","","","","","","","","",99.2,1000,100,"","","","","","","","","","","","","",0.0550621036
"X",7,21,2024,1287,143453,42.0107663833333,-69.9637457,360,210,2,"2","1",5,"2","2",1,1,"H","","","","","","","","","","","","","","","","","","","","","","","","","","","","","",99.2,1000,100,"","","","","","","","","","","","","",0.0551266885
"X",7,21,2024,1288,143455,42.01168525,-69.96374905,360,210,2,"2","1",5,"2","2",1,1,"H","","","","","","","","","","","","","","","","","","","","","","","","","","","","","",99.3,1000,100,"","","","","","","","","","","","","",0.0551693771
"X",7,21,2024,1289,143457,42.01260435,-69.9637485666667,0,210,2,"2","1",5,"2","2",1,1,"H","","","","","","","","","","","","","","","","","","","","","","","","","","","","","",99.4,1000,100,"","","","","","","","","","","","","",0.0551831884
"X",7,21,2024,1290,143459,42.0135242833333,-69.96375155,360,210,2,"2","1",5,"2","2",1,1,"H","","","","","","","","","","","","","","","","","","","","","","","","","","","","","",99.4,1000,100,"","","","","","","","","","","","","",0.0552333782
"X",7,21,2024,1291,143501,42.0144454166667,-69.9637588166667,360,210,2,"2","1",5,"2","2",1,1,"H","","","","","","","","","","","","","","","","","","","","","","","","","","","","","",99.5,1000,100,"","","","","","","","","","","","","",0.0553062164
"X",7,21,2024,1292,143503,42.0153685666667,-69.9637632333333,360,210,2,"2","1",5,"2","2",1,1,"H","","","","","","","","","","","","","","","","","","","","","","","","","","","","","",99.7,1000,100,"","","","","","","","","","","","","",0.0554266982
"X",7,21,2024,1293,143505,42.0162916166667,-69.9637653666667,0,211,2,"2","1",5,"2","2",1,1,"H","","","","","","","","","","","","","","","","","","","","","","","","","","","","","",99.8,1000,100,"","","","","","","","","","","","","",0.0554204257
"X",7,21,2024,1294,143507,42.0172170333333,-69.9637607333333,0,212,2,"2","1",5,"2","2",1,1,"H","","","","","","","","","","","","","","","","","","","","","","","","","","","","","",99.9,1000,100,"","","","","","","","","","","","","",0.0555628241
"X",7,21,2024,1295,143509,42.0181425666667,-69.9637556,0,213,2,"2","1",5,"2","2",1,1,"H","","","","","","","","","","","","","","","","","","","","","","","","","","","","","",100,1000,100,"","","","","","","","","","","","","",0.0555699162
"X",7,21,2024,1296,143511,42.0190678833333,-69.9637541666667,0,213,2,"2","1",5,"2","2",1,1,"H","","","","","","","","","","","","","","","","","","","","","","","","","","","","","",100,1000,100,"","","","","","","","","","","","","",0.0555564725
"X",7,21,2024,1297,143513,42.0199937666667,-69.9637504666667,0,214,2,"2","1",5,"2","2",1,1,"H","","","","","","","","","","","","","","","","","","","","","","","","","","","","","",100,1000,100,"","","","","","","","","","","","","",0.0555907036
"X",7,21,2024,1298,143515,42.0209197833333,-69.96374415,0,214,2,"2","1",5,"2","2",1,1,"H","","","","","","","","","","","","","","","","","","","","","","","","","","","","","",100.2,1000,100,"","","","","","","","","","","","","",0.0555991779
"X",7,21,2024,1299,143517,42.0218461666667,-69.9637386666667,0,215,2,"2","1",5,"2","2",1,1,"H","","","","","","","","","","","","","","","","","","","","","","","","","","","","","",100.2,1000,100,"","","","","","","","","","","","","",0.0556210166
"X",7,21,2024,1300,143519,42.0227735,-69.9637343833333,0,216,2,"2","1",5,"2","2",1,1,"H","","","","","","","","","","","","","","","","","","","","","","","","","","","","","",100.2,1000,100,"","","","","","","","","","","","","",0.055677845
"X",7,21,2024,1301,143521,42.02369915,-69.9637330666667,0,217,2,"2","1",5,"2","2",1,1,"H","","","","","","","","","","","","","","","","","","","","","","","","","","","","","",100.2,1000,100,"","","","","","","","","","","","","",0.0555764802
"X",7,21,2024,1302,143523,42.02462755,-69.9637309166667,0,217,2,"2","1",5,"2","2",1,1,"H","","","","","","","","","","","","","","","","","","","","","","","","","","","","","",100.3,1000,100,"","","","","","","","","","","","","",0.0557416429
"X",7,21,2024,1303,143525,42.0255566833333,-69.9637255666667,0,217,2,"2","1",5,"2","2",1,1,"H","","","","","","","","","","","","","","","","","","","","","","","","","","","","","",100.3,1000,100,"","","","","","","","","","","","","",0.0557861004
"X",7,21,2024,1304,143527,42.0264841166667,-69.9637193666667,0,218,2,"2","1",5,"2","2",1,1,"H","","","","","","","","","","","","","","","","","","","","","","","","","","","","","",100.5,1000,100,"","","","","","","","","","","","","",0.0556842079
"X",7,21,2024,1305,143529,42.0274162166667,-69.9637103,0,217,2,"2","1",5,"2","2",1,1,"H","","","","","","","","","","","","","","","","","","","","","","","","","","","","","",100.7,1000,100,"","","","","","","","","","","","","",0.055965171
"X",7,21,2024,1306,143531,42.02834915,-69.9637017166667,0,218,2,"2","1",5,"2","2",1,1,"H","","","","","","","","","","","","","","","","","","","","","","","","","","","","","",100.8,1000,100,"","","","","","","","","","","","","",0.0560150519
"X",7,21,2024,1307,143533,42.0292835166667,-69.9636899166667,1,218,2,"2","1",5,"2","2",1,1,"H","","","","","","","","","","","","","","","","","","","","","","","","","","","","","",100.9,1000,100,"","","","","","","","","","","","","",0.0561022702
"X",7,21,2024,1308,143535,42.0302188333333,-69.9636753666667,1,218,2,"2","1",5,"2","2",1,1,"H","","","","","","","","","","","","","","","","","","","","","","","","","","","","","",101,1000,100,"","","","","","","","","","","","","",0.0561605892
"X",7,21,2024,1309,143537,42.0311564166667,-69.9636620166667,1,218,2,"2","1",5,"2","2",1,1,"H","","","","","","","","","","","","","","","","","","","","","","","","","","","","","",101.2,1000,100,"","","","","","","","","","","","","",0.0562960803
"X",7,21,2024,1310,143539,42.0320948333333,-69.9636526,0,218,2,"2","1",5,"2","2",1,1,"H","","","","","","","","","","","","","","","","","","","","","","","","","","","","","",101.4,1000,100,"","","","","","","","","","","","","",0.0563445307
"X",7,21,2024,1311,143541,42.0330342,-69.96364665,0,219,2,"2","1",5,"2","2",1,1,"H","","","","","","","","","","","","","","","","","","","","","","","","","","","","","",101.5,1000,100,"","","","","","","","","","","","","",0.0564006283
"X",7,21,2024,1312,143543,42.0339745166667,-69.9636387666667,0,219,2,"2","1",5,"2","2",1,1,"H","","","","","","","","","","","","","","","","","","","","","","","","","","","","","",101.6,1000,100,"","","","","","","","","","","","","",0.0564581371
"X",7,21,2024,1313,143545,42.0349172333333,-69.9636301833333,0,219,2,"2","1",5,"2","2",1,1,"H","","","","","","","","","","","","","","","","","","","","","","","","","","","","","",101.8,1000,100,"","","","","","","","","","","","","",0.0566024339
"X",7,21,2024,1314,143547,42.0358617166667,-69.9636226833333,0,219,2,"2","1",5,"2","2",1,1,"H","","","","","","","","","","","","","","","","","","","","","","","","","","","","","",102,1000,100,"","","","","","","","","","","","","",0.0567081974
"X",7,21,2024,1315,143549,42.0368092,-69.96361565,0,219,2,"2","1",5,"2","2",1,1,"H","","","","","","","","","","","","","","","","","","","","","","","","","","","","","",102.2,1000,100,"","","","","","","","","","","","","",0.0568881971
"X",7,21,2024,1316,143551,42.03775715,-69.9636070666667,0,219,2,"2","1",5,"2","2",1,1,"H","","","","","","","","","","","","","","","","","","","","","","","","","","","","","",102.4,1000,100,"","","","","","","","","","","","","",0.0569166383
"X",7,21,2024,1317,143553,42.0387074833333,-69.9635961,0,219,2,"2","1",5,"2","2",1,1,"H","","","","","","","","","","","","","","","","","","","","","","","","","","","","","",102.6,1000,100,"","","","","","","","","","","","","",0.0570605434
"X",7,21,2024,1318,143555,42.0396597333333,-69.9635865666667,0,219,2,"2","1",5,"2","2",1,1,"H","","","","","","","","","","","","","","","","","","","","","","","","","","","","","",102.8,1000,100,"","","","","","","","","","","","","",0.0571751057
"X",7,21,2024,1319,143557,42.04061435,-69.9635814333333,0,219,2,"2","1",5,"2","2",1,1,"H","","","","","","","","","","","","","","","","","","","","","","","","","","","","","",103,1000,100,"","","","","","","","","","","","","",0.0573160781
"X",7,21,2024,1320,143559,42.0415699333333,-69.9635769,0,219,2,"2","1",5,"2","2",1,1,"H","","","","","","","","","","","","","","","","","","","","","","","","","","","","","",103.2,1000,100,"","","","","","","","","","","","","",0.0573740163
"X",7,21,2024,1321,143601,42.0425267166667,-69.9635713,0,219,2,"2","1",5,"2","2",1,1,"H","","","","","","","","","","","","","","","","","","","","","","","","","","","","","",103.4,1000,100,"","","","","","","","","","","","","",0.0574462514
"X",7,21,2024,1322,143603,42.0434842,-69.96356475,0,218,2,"2","1",5,"2","2",1,1,"H","","","","","","","","","","","","","","","","","","","","","","","","","","","","","",103.5,1000,100,"","","","","","","","","","","","","",0.0574884789
"X",7,21,2024,1323,143605,42.04444395,-69.9635614,0,218,2,"2","1",5,"2","2",1,1,"H","","","","","","","","","","","","","","","","","","","","","","","","","","","","","",103.6,1000,100,"","","","","","","","","","","","","",0.0576240223
"X",7,21,2024,1324,143607,42.0454049,-69.9635603333333,0,219,2,"2","1",5,"2","2",1,1,"H","","","","","","","","","","","","","","","","","","","","","","","","","","","","","",103.7,1000,100,"","","","","","","","","","","","","",0.0576958969
"X",7,21,2024,1325,143609,42.0463659666667,-69.9635639166667,360,219,2,"2","1",5,"2","2",1,1,"H","","","","","","","","","","","","","","","","","","","","","","","","","","","","","",103.8,1000,100,"","","","","","","","","","","","","",0.0577031032
"X",7,21,2024,1326,143611,42.04732835,-69.96356975,360,219,2,"2","1",5,"2","2",1,1,"H","","","","","","","","","","","","","","","","","","","","","","","","","","","","","",103.9,1000,100,"","","","","","","","","","","","","",0.0577825206
"X",7,21,2024,1327,143613,42.0482918,-69.9635758333334,360,219,2,"2","1",5,"2","2",1,1,"H","","","","","","","","","","","","","","","","","","","","","","","","","","","","","",104,1000,100,"","","","","","","","","","","","","",0.0578466143
"X",7,21,2024,1328,143615,42.0492562,-69.9635841833334,360,219,2,"2","1",5,"2","2",1,1,"H","","","","","","","","","","","","","","","","","","","","","","","","","","","","","",104.1,1000,100,"","","","","","","","","","","","","",0.0579042136
"X",7,21,2024,1329,143617,42.0502223833333,-69.9635947833333,360,219,2,"2","1",5,"2","2",1,1,"H","","","","","","","","","","","","","","","","","","","","","","","","","","","","","",104.3,1000,100,"","","","","","","","","","","","","",0.058012014
"X",7,21,2024,1330,143619,42.0511891833333,-69.9636056333333,360,219,2,"2","1",5,"2","2",1,1,"H","","","","","","","","","","","","","","","","","","","","","","","","","","","","","",104.4,1000,100,"","","","","","","","","","","","","",0.0580491295
"X",7,21,2024,1331,143621,42.0521575166667,-69.9636168333333,360,219,2,"2","1",5,"2","2",1,1,"H","","","","","","","","","","","","","","","","","","","","","","","","","","","","","",104.5,1000,100,"","","","","","","","","","","","","",0.0581413202
"X",7,21,2024,1332,143623,42.05312705,-69.9636315,359,219,2,"2","1",5,"2","2",1,1,"H","","","","","","","","","","","","","","","","","","","","","","","","","","","","","",104.6,1000,100,"","","","","","","","","","","","","",0.0582148968
"X",7,21,2024,1333,143625,42.0540971666667,-69.9636489,359,219,2,"2","1",5,"2","2",1,1,"H","","","","","","","","","","","","","","","","","","","","","","","","","","","","","",104.7,1000,100,"","","","","","","","","","","","","",0.0582514133
"X",7,21,2024,1334,143627,42.0550671666667,-69.9636689333333,359,219,2,"2","1",5,"2","2",1,1,"H","","","","","","","","","","","","","","","","","","","","","","","","","","","","","",104.8,1000,100,"","","","","","","","","","","","","",0.0582460908
"X",7,21,2024,1335,143629,42.05603635,-69.9636933666667,359,219,2,"2","1",5,"2","2",1,1,"H","","","","","","","","","","","","","","","","","","","","","","","","","","","","","",104.7,1000,100,"","","","","","","","","","","","","",0.0582004039
"X",7,21,2024,1336,143631,42.0570054,-69.9637260333333,359,219,2,"2","1",5,"2","2",1,1,"H","","","","","","","","","","","","","","","","","","","","","","","","","","","","","",104.7,1000,100,"","","","","","","","","","","","","",0.0582004265
"X",7,21,2024,1337,143633,42.0579743333333,-69.9637635833333,358,219,2,"2","1",5,"2","2",1,1,"H","","","","","","","","","","","","","","","","","","","","","","","","","","","","","",104.7,1000,100,"","","","","","","","","","","","","",0.0581992778
"X",7,21,2024,1338,143635,42.0589438666667,-69.96379995,358,219,2,"2","1",5,"2","2",1,1,"H","","","","","","","","","","","","","","","","","","","","","","","","","","","","","",104.7,1000,100,"","","","","","","","","","","","","",0.0582337941
"X",7,21,2024,1339,143637,42.0599132666667,-69.9638386833333,358,220,2,"2","1",5,"2","2",1,1,"H","","","","","","","","","","","","","","","","","","","","","","","","","","","","","",104.7,1000,100,"","","","","","","","","","","","","",0.0582288239
"X",7,21,2024,1340,143639,42.0608816,-69.96388255,358,220,2,"2","1",5,"2","2",1,1,"H","","","","","","","","","","","","","","","","","","","","","","","","","","","","","",104.6,1000,100,"","","","","","","","","","","","","",0.0581720504
"X",7,21,2024,1341,143641,42.0618479166667,-69.9639308333333,358,221,2,"2","1",5,"2","2",1,1,"H","","","","","","","","","","","","","","","","","","","","","","","","","","","","","",104.5,1000,100,"","","","","","","","","","","","","",0.0580580013
"X",7,21,2024,1342,143643,42.0628129166667,-69.9639791166667,358,221,2,"2","1",5,"2","2",1,1,"H","","","","","","","","","","","","","","","","","","","","","","","","","","","","","",104.4,1000,100,"","","","","","","","","","","","","",0.0579790013
"X",7,21,2024,1343,143645,42.0637769666667,-69.9640240666667,358,221,2,"2","1",5,"2","2",1,1,"H","","","","","","","","","","","","","","","","","","","","","","","","","","","","","",104.3,1000,100,"","","","","","","","","","","","","",0.0579166705
"X",7,21,2024,1344,143647,42.0647411333333,-69.9640688833333,358,220,2,"2","1",5,"2","2",1,1,"H","","","","","","","","","","","","","","","","","","","","","","","","","","","","","",104.3,1000,100,"","","","","","","","","","","","","",0.0579234647
"X",7,21,2024,1345,143649,42.06570505,-69.9641176333333,358,220,2,"2","1",5,"2","2",1,1,"H","","","","","","","","","","","","","","","","","","","","","","","","","","","","","",104.2,1000,100,"","","","","","","","","","","","","",0.0579147754
"X",7,21,2024,1346,143651,42.0666670666667,-69.9641702166667,358,220,2,"2","1",5,"2","2",1,1,"H","","","","","","","","","","","","","","","","","","","","","","","","","","","","","",104.1,1000,100,"","","","","","","","","","","","","",0.057807453
"X",7,21,2024,1347,143653,42.0676281333333,-69.96422325,358,220,2,"2","1",5,"2","2",1,1,"H","","","","","","","","","","","","","","","","","","","","","","","","","","","","","",103.9,1000,100,"","","","","","","","","","","","","",0.0577512776
"X",7,21,2024,1348,143655,42.0685900333333,-69.9642739166667,358,220,2,"2","1",5,"2","2",1,1,"H","","","","","","","","","","","","","","","","","","","","","","","","","","","","","",103.9,1000,100,"","","","","","","","","","","","","",0.0577970503
"X",7,21,2024,1349,143657,42.06955205,-69.96432315,358,220,2,"2","1",5,"2","2",1,1,"H","","","","","","","","","","","","","","","","","","","","","","","","","","","","","",104,1000,100,"","","","","","","","","","","","","",0.0578015878
"X",7,21,2024,1350,143659,42.0705125166667,-69.96437025,358,220,2,"2","1",5,"2","2",1,1,"H","","","","","","","","","","","","","","","","","","","","","","","","","","","","","",103.8,1000,100,"","","","","","","","","","","","","",0.0577050539
"X",7,21,2024,1351,143701,42.0714716833333,-69.9644167333333,358,220,2,"2","1",5,"2","2",1,1,"H","","","","","","","","","","","","","","","","","","","","","","","","","","","","","",103.7,1000,100,"","","","","","","","","","","","","",0.0576260572
"X",7,21,2024,1352,143703,42.07243025,-69.9644671666667,358,220,2,"2","1",5,"2","2",1,1,"H","","","","","","","","","","","","","","","","","","","","","","","","","","","","","",103.6,1000,100,"","","","","","","","","","","","","",0.0575966567
"X",7,21,2024,1353,143705,42.0733882166667,-69.9645211666667,358,220,2,"2","1",5,"2","2",1,1,"H","","","","","","","","","","","","","","","","","","","","","","","","","","","","","",103.5,1000,100,"","","","","","","","","","","","","",0.0575670848
"X",7,21,2024,1354,143707,42.07434535,-69.9645762333333,358,221,2,"2","1",5,"2","2",1,1,"H","","","","","","","","","","","","","","","","","","","","","","","","","","","","","",103.4,1000,100,"","","","","","","","","","","","","",0.0575191021
"X",7,21,2024,1355,143707,42.07434535,-69.9645762333333,358,221,2,"2","1",5,"2","2",1,1,"H","","","","","","","","","","","","","","","","","","","","","","","","","","","","","",103.4,1000,100,"","","","","","","","","","","","","",0
"X",7,21,2024,1356,143709,42.0753011666667,-69.9646295166667,358,221,2,"2","1",5,"2","2",1,1,"H","","","","","","","","","","","","","","","","","","","","","","","","","","","","","",103.3,1000,100,"","","","","","","","","","","","","",0.0574367786
"X",7,21,2024,1357,143711,42.0762557833333,-69.9646794666667,358,221,2,"2","1",5,"2","2",1,1,"H","","","","","","","","","","","","","","","","","","","","","","","","","","","","","",103.2,1000,100,"","","","","","","","","","","","","",0.057358833
"X",7,21,2024,1358,143713,42.0772097,-69.9647276333333,358,222,2,"2","1",5,"2","2",1,1,"H","","","","","","","","","","","","","","","","","","","","","","","","","","","","","",103.1,1000,100,"","","","","","","","","","","","","",0.0573138035
"X",7,21,2024,1359,143715,42.0781615833333,-69.96477615,358,222,2,"2","1",5,"2","2",1,1,"H","","","","","","","","","","","","","","","","","","","","","","","","","","","","","",103,1000,100,"","","","","","","","","","","","","",0.0571923934
"X",7,21,2024,1360,143717,42.07911395,-69.9648243166667,358,223,2,"2","1",5,"2","2",1,1,"H","","","","","","","","","","","","","","","","","","","","","","","","","","","","","",103,1000,100,"","","","","","","","","","","","","",0.0572208038
"X",7,21,2024,1361,143719,42.08006595,-69.9648740166667,358,223,2,"2","1",5,"2","2",1,1,"H","","","","","","","","","","","","","","","","","","","","","","","","","","","","","",102.9,1000,100,"","","","","","","","","","","","","",0.0572014082
"X",7,21,2024,1362,143721,42.0810167666667,-69.96492575,358,224,2,"2","1",5,"2","2",1,1,"H","","","","","","","","","","","","","","","","","","","","","","","","","","","","","",102.9,1000,100,"","","","","","","","","","","","","",0.0571339967
"X",7,21,2024,1363,143723,42.0819677,-69.9649767833333,358,224,2,"2","1",5,"2","2",1,1,"H","","","","","","","","","","","","","","","","","","","","","","","","","","","","","",102.8,1000,100,"","","","","","","","","","","","","",0.0571397444
"X",7,21,2024,1364,143725,42.0829180333333,-69.9650264833333,358,225,2,"2","1",5,"2","2",1,1,"H","","","","","","","","","","","","","","","","","","","","","","","","","","","","","",102.7,1000,100,"","","","","","","","","","","","","",0.057101412
"X",7,21,2024,1365,143727,42.0838654,-69.9650747666667,358,225,2,"2","1",5,"2","2",1,1,"H","","","","","","","","","","","","","","","","","","","","","","","","","","","","","",102.6,1000,100,"","","","","","","","","","","","","",0.0569210041
"X",7,21,2024,1366,143729,42.0848138166667,-69.9651217333333,358,225,2,"2","1",5,"2","2",1,1,"H","","","","","","","","","","","","","","","","","","","","","","","","","","","","","",102.7,1000,100,"","","","","","","","","","","","","",0.0569818154
"X",7,21,2024,1367,143731,42.0857621333333,-69.9651707333333,358,225,2,"2","1",5,"2","2",1,1,"H","","","","","","","","","","","","","","","","","","","","","","","","","","","","","",102.6,1000,100,"","","","","","","","","","","","","",0.0569792141
"X",7,21,2024,1368,143733,42.0867116333333,-69.96521925,358,225,2,"2","1",5,"2","2",1,1,"H","","","","","","","","","","","","","","","","","","","","","","","","","","","","","",102.7,1000,100,"","","","","","","","","","","","","",0.0570493885
"X",7,21,2024,1369,143735,42.0876610166667,-69.9652656166667,358,225,2,"2","1",5,"2","2",1,1,"H","","","","","","","","","","","","","","","","","","","","","","","","","","","","","",102.7,1000,100,"","","","","","","","","","","","","",0.0570388373
"X",7,21,2024,1370,143737,42.0886090833333,-69.96530925,358,225,2,"2","1",5,"2","2",1,1,"H","","","","","","","","","","","","","","","","","","","","","","","","","","","","","",102.7,1000,100,"","","","","","","","","","","","","",0.0569555476
"X",7,21,2024,1371,143739,42.0895576333333,-69.96535325,358,225,2,"2","1",5,"2","2",1,1,"H","","","","","","","","","","","","","","","","","","","","","","","","","","","","","",102.7,1000,100,"","","","","","","","","","","","","",0.056985109
"X",7,21,2024,1372,143741,42.0905054666667,-69.9654005666667,358,225,2,"2","1",5,"2","2",1,1,"H","","","","","","","","","","","","","","","","","","","","","","","","","","","","","",102.7,1000,100,"","","","","","","","","","","","","",0.0569473837
"X",7,21,2024,1373,143743,42.0914537833333,-69.96544945,358,225,2,"2","1",5,"2","2",1,1,"H","","","","","","","","","","","","","","","","","","","","","","","","","","","","","",102.7,1000,100,"","","","","","","","","","","","","",0.0569790077
"X",7,21,2024,1374,143745,42.0924021,-69.9654979666667,358,225,2,"2","1",5,"2","2",1,1,"H","","","","","","","","","","","","","","","","","","","","","","","","","","","","","",102.7,1000,100,"","","","","","","","","","","","","",0.0569783844
"X",7,21,2024,1375,143747,42.0933530166667,-69.9655424333333,358,225,2,"2","1",5,"2","2",1,1,"H","","","","","","","","","","","","","","","","","","","","","","","","","","","","","",102.8,1000,100,"","","","","","","","","","","","","",0.0571278341
"X",7,21,2024,1376,143749,42.0943028833333,-69.96558605,358,224,2,"2","1",5,"2","2",1,1,"H","","","","","","","","","","","","","","","","","","","","","","","","","","","","","",102.8,1000,100,"","","","","","","","","","","","","",0.0570635263
"X",7,21,2024,1377,143751,42.0952528666667,-69.9656316,358,224,2,"2","1",5,"2","2",1,1,"H","","","","","","","","","","","","","","","","","","","","","","","","","","","","","",102.9,1000,100,"","","","","","","","","","","","","",0.0570735238
"X",7,21,2024,1378,143753,42.0962049833333,-69.96568035,358,224,2,"2","1",5,"2","2",1,1,"H","","","","","","","","","","","","","","","","","","","","","","","","","","","","","",102.9,1000,100,"","","","","","","","","","","","","",0.0572067633
"X",7,21,2024,1379,143755,42.0971566333333,-69.9657310166667,358,224,2,"2","1",5,"2","2",1,1,"H","","","","","","","","","","","","","","","","","","","","","","","","","","","","","",102.9,1000,100,"","","","","","","","","","","","","",0.0571820705
"X",7,21,2024,1380,143757,42.0981069666667,-69.9657816833333,358,224,2,"2","1",5,"2","2",1,1,"H","","","","","","","","","","","","","","","","","","","","","","","","","","","","","",102.9,1000,100,"","","","","","","","","","","","","",0.0571030776
"X",7,21,2024,1381,143759,42.0990576666667,-69.96582925,358,224,2,"2","1",5,"2","2",1,1,"H","","","","","","","","","","","","","","","","","","","","","","","","","","","","","",102.9,1000,100,"","","","","","","","","","","","","",0.0571197837
"X",7,21,2024,1382,143801,42.100008,-69.9658749,358,224,2,"2","1",5,"2","2",1,1,"H","","","","","","","","","","","","","","","","","","","","","","","","","","","","","",102.9,1000,100,"","","","","","","","","","","","","",0.0570946777
"X",7,21,2024,1383,143803,42.10095775,-69.9659175833333,358,223,2,"2","1",5,"2","2",1,1,"H","","","","","","","","","","","","","","","","","","","","","","","","","","","","","",102.9,1000,100,"","","","","","","","","","","","","",0.0570551179
"X",7,21,2024,1384,143805,42.1019086833333,-69.9659553666667,358,223,2,"2","1",5,"2","2",1,1,"H","","","","","","","","","","","","","","","","","","","","","","","","","","","","","",102.9,1000,100,"","","","","","","","","","","","","",0.0571192765
"X",7,21,2024,1385,143807,42.1028606833333,-69.9659898166667,358,223,2,"2","1",5,"2","2",1,1,"H","","","","","","","","","","","","","","","","","","","","","","","","","","","","","",102.9,1000,100,"","","","","","","","","","","","","",0.0571791132
"X",7,21,2024,1386,143807,42.1028606833333,-69.9659898166667,358,223,2,"2","1",5,"2","2",1,1,"H","","","","","","","","","","","","","","","","","","","","","","","","","","","","","",102.9,1000,100,"","","","","","","","","","","","","",0
"X",7,21,2024,1387,143809,42.1038120833333,-69.9660255833333,358,223,2,"2","1",5,"2","2",1,1,"H","","","","","","","","","","","","","","","","","","","","","","","","","","","","","",102.9,1000,100,"","","","","","","","","","","","","",0.0571447065
"X",7,21,2024,1388,143811,42.1047618333333,-69.9660599166667,359,224,2,"2","1",5,"2","2",1,1,"H","","","","","","","","","","","","","","","","","","","","","","","","","","","","","",102.8,1000,100,"","","","","","","","","","","","","",0.0570439301
"X",7,21,2024,1389,143813,42.10571085,-69.9660888833333,359,224,2,"2","1",5,"2","2",1,1,"H","","","","","","","","","","","","","","","","","","","","","","","","","","","","","",102.7,1000,100,"","","","","","","","","","","","","",0.0569940025
"X",7,21,2024,1390,143815,42.10665965,-69.96611165,359,224,2,"2","1",5,"2","2",1,1,"H","","","","","","","","","","","","","","","","","","","","","","","","","","","","","",102.7,1000,100,"","","","","","","","","","","","","",0.0569754118
"X",7,21,2024,1391,143817,42.1076087833333,-69.9661325166667,359,224,2,"2","1",5,"2","2",1,1,"H","","","","","","","","","","","","","","","","","","","","","","","","","","","","","",102.6,1000,100,"","","","","","","","","","","","","",0.0569939788
"X",7,21,2024,1392,143819,42.1085572166667,-69.9661551666667,359,224,2,"2","1",5,"2","2",1,1,"H","","","","","","","","","","","","","","","","","","","","","","","","","","","","","",102.6,1000,100,"","","","","","","","","","","","","",0.0569533076
"X",7,21,2024,1393,143821,42.109506,-69.9661757833333,359,224,2,"2","1",5,"2","2",1,1,"H","","","","","","","","","","","","","","","","","","","","","","","","","","","","","",102.5,1000,100,"","","","","","","","","","","","","",0.0569727864
"X",7,21,2024,1394,143823,42.11045395,-69.9661917666667,359,224,2,"2","1",5,"2","2",1,1,"H","","","","","","","","","","","","","","","","","","","","","","","","","","","","","",102.5,1000,100,"","","","","","","","","","","","","",0.0569198037
"X",7,21,2024,1395,143825,42.11140215,-69.9662061833333,359,224,2,"2","1",5,"2","2",1,1,"H","","","","","","","","","","","","","","","","","","","","","","","","","","","","","",102.5,1000,100,"","","","","","","","","","","","","",0.0569339827
