rectype,month,day,year,eventno,time,lat,long,heading,alt,legtype,legstage,legno,visiblty,glarel,glarer,beaufort,cloud,wx,sightno,anglel,angler,speccode,number,numcalf,anhead,photos,idrel,confidnc,b1,b2,b3,b4,b5,b6,b7,b8,b9,b10,b11,b12,b13,b14,b15,refno,stratum,utc,radalt,gpsspeed,setalt,setvel,lensfl,ggf,int,gpsq,gpssats,roll,pitch,yaw,maghead,notes,edits,glarev,ph_qual,TrackDist
S,5,29,2024,1105,92554,41.8137852,-69.94821863,73,334,1,-,,5,,,2,1,C,1,,,,,,,,,,,,,,,,,,,,,,,,,,,,,101.9,1000,100,,,,,,,,,,,,,,0.037625092
X,5,29,2024,1106,92554,41.81388167,-69.94782,71,333,1,-,,5,,,2,1,C,,,,,,,,,,,,,,,,,,,,,,,,,,,,,,101.9,1000,100,,,,,,,,,,,,,,0.056380326
X,5,29,2024,1107,92556,41.81421833,-69.946645,68,332,1,-,,5,,,2,1,C,,,,,,,,,,,,,,,,,,,,,,,,,,,,,,101.4,1000,100,,,,,,,,,,,,,,0.056331546
X,5,29,2024,1108,92558,41.814575,-69.94548833,67,332,1,-,,5,,,2,1,C,,,,,,,,,,,,,,,,,,,,,,,,,,,,,,100.7,1000,100,,,,,,,,,,,,,,0.056014298
X,5,29,2024,1109,92600,41.814935,-69.94434167,67,334,1,-,,5,,,2,1,C,,,,,,,,,,,,,,,,,,,,,,,,,,,,,,99.9,1000,100,,,,,,,,,,,,,,0.055678189
X,5,29,2024,1110,92602,41.8153,-69.94321333,67,335,1,-,,5,,,2,1,C,,,,,,,,,,,,,,,,,,,,,,,,,,,,,,99.3,1000,100,,,,,,,,,,,,,,0.055041638
X,5,29,2024,1111,92604,41.81567333,-69.9421,65,336,1,-,,5,,,2,1,C,,,,,,,,,,,,,,,,,,,,,,,,,,,,,,98.1,1000,100,,,,,,,,,,,,,,0.054629686
X,5,29,2024,1112,92606,41.81606333,-69.941005,65,337,1,-,,5,,,2,1,C,,,,,,,,,,,,,,,,,,,,,,,,,,,,,,97.7,1000,100,,,,,,,,,,,,,,0.054306237
X,5,29,2024,1113,92608,41.81646167,-69.93992167,64,338,1,-,,5,,,2,1,C,,,,,,,,,,,,,,,,,,,,,,,,,,,,,,97.7,1000,100,,,,,,,,,,,,,,0.054054906
X,5,29,2024,1114,92610,41.81687667,-69.93884833,62,339,1,-,,5,,,2,1,C,,,,,,,,,,,,,,,,,,,,,,,,,,,,,,97.5,1000,100,,,,,,,,,,,,,,0.05410717
X,5,29,2024,1115,92612,41.81730167,-69.93778,62,339,1,-,,5,,,2,1,C,,,,,,,,,,,,,,,,,,,,,,,,,,,,,,97.5,1000,100,,,,,,,,,,,,,,0.054188517
S,5,29,2024,1116,92614,41.81768902,-69.93684414,61,340,2,1,1,5,1,2,2,1,C,2,,,,,,,,,,,,,,,,,,,,,,,,,,,,,97.4,1000,100,,,,,,,,,,,,,,0.047901372
X,5,29,2024,1117,92614,41.81773833,-69.936725,61,340,2,2,1,5,1,2,2,1,C,,,,,,,,,,,,,,,,,,,,,,,,,,,,,,97.4,1000,100,,,,,,,,,,,,,,0.053999237
X,5,29,2024,1118,92616,41.818185,-69.93567833,60,341,2,2,1,5,1,2,2,1,C,,,,,,,,,,,,,,,,,,,,,,,,,,,,,,97.3,1000,100,,,,,,,,,,,,,,0.053969094
X,5,29,2024,1119,92618,41.81863667,-69.934635,60,342,2,2,1,5,1,2,2,1,C,,,,,,,,,,,,,,,,,,,,,,,,,,,,,,97.5,1000,100,,,,,,,,,,,,,,0.053989587
X,5,29,2024,1120,92620,41.81909667,-69.93359,59,342,2,1,1,5,1,2,2,1,C,,,,,,,,,,,,,,,,,,,,,,,,,,,,,,98.1,1000,100,,,,,,,,,,,,,,0.054306538
X,5,29,2024,1121,92622,41.81956,-69.932545,59,342,2,2,1,5,1,2,2,1,C,,,,,,,,,,,,,,,,,,,,,,,,,,,,,,98.1,1000,100,,,,,,,,,,,,,,0.054408303
X,5,29,2024,1122,92622,41.81960305,-69.93244592,59,342,2,2,1,5,1,2,2,1,C,,,,,,,,,,,,,,,,,,,,,,,,,,,,,,98.1,1000,100,,,,,,,,,,,,,,0.00513173
X,5,29,2024,1123,92624,41.82001833,-69.93149,60,342,2,2,1,5,1,2,2,1,C,,,,,,,,,,,,,,,,,,,,,,,,,,,,,,98.9,1000,100,,,,,,,,,,,,,,0.054641228
X,5,29,2024,1124,92626,41.82047833,-69.930425,60,340,2,2,1,5,1,2,2,1,C,,,,,,,,,,,,,,,,,,,,,,,,,,,,,,99.5,1000,100,,,,,,,,,,,,,,0.055078066
X,5,29,2024,1125,92628,41.82094833,-69.92935,60,338,2,2,1,5,1,2,2,1,C,,,,,,,,,,,,,,,,,,,,,,,,,,,,,,101,1000,100,,,,,,,,,,,,,,0.055766741
X,5,29,2024,1126,92630,41.82141833,-69.92825833,60,337,2,2,1,5,1,2,2,1,C,,,,,,,,,,,,,,,,,,,,,,,,,,,,,,102,1000,100,,,,,,,,,,,,,,0.056410908
X,5,29,2024,1127,92632,41.821895,-69.92716,60,336,2,2,1,5,1,2,2,1,C,,,,,,,,,,,,,,,,,,,,,,,,,,,,,,102.3,1000,100,,,,,,,,,,,,,,0.056869455
X,5,29,2024,1128,92634,41.82238,-69.92605167,59,334,2,2,1,5,1,2,2,1,C,,,,,,,,,,,,,,,,,,,,,,,,,,,,,,104,1000,100,,,,,,,,,,,,,,0.057507948
X,5,29,2024,1129,92636,41.82287333,-69.92494167,59,334,2,2,1,5,1,2,2,1,C,,,,,,,,,,,,,,,,,,,,,,,,,,,,,,104.4,1000,100,,,,,,,,,,,,,,0.057826618
X,5,29,2024,1130,92638,41.823375,-69.923835,59,334,2,2,1,5,1,2,2,1,C,,,,,,,,,,,,,,,,,,,,,,,,,,,,,,104.6,1000,100,,,,,,,,,,,,,,0.05795669
X,5,29,2024,1131,92640,41.82388,-69.92272333,59,334,2,2,1,5,1,2,2,1,C,,,,,,,,,,,,,,,,,,,,,,,,,,,,,,104.9,1000,100,,,,,,,,,,,,,,0.058251521
X,5,29,2024,1132,92642,41.824385,-69.92161167,59,334,2,2,1,5,1,2,2,1,C,,,,,,,,,,,,,,,,,,,,,,,,,,,,,,104.9,1000,100,,,,,,,,,,,,,,0.058251186
X,5,29,2024,1133,92644,41.82490333,-69.92050667,58,335,2,2,1,5,1,2,2,1,C,,,,,,,,,,,,,,,,,,,,,,,,,,,,,,104.7,1000,100,,,,,,,,,,,,,,0.058418877
X,5,29,2024,1134,92646,41.82542,-69.91940833,58,337,2,2,1,5,1,2,2,1,C,,,,,,,,,,,,,,,,,,,,,,,,,,,,,,104.3,1000,100,,,,,,,,,,,,,,0.058112851
X,5,29,2024,1135,92648,41.82593667,-69.91831667,58,339,2,2,1,5,1,2,2,1,C,,,,,,,,,,,,,,,,,,,,,,,,,,,,,,104,1000,100,,,,,,,,,,,,,,0.057860515
X,5,29,2024,1136,92648,41.82593667,-69.91831667,58,339,2,2,1,5,1,2,2,1,C,,,,,,,,,,,,,,,,,,,,,,,,,,,,,,104,1000,100,,,,,,,,,,,,,,0
X,5,29,2024,1137,92650,41.82644667,-69.91723,58,342,2,2,1,5,1,2,2,1,C,,,,,,,,,,,,,,,,,,,,,,,,,,,,,,103.2,1000,100,,,,,,,,,,,,,,0.057457165
X,5,29,2024,1138,92652,41.82694833,-69.916145,58,344,2,2,1,5,1,2,2,1,C,,,,,,,,,,,,,,,,,,,,,,,,,,,,,,102.9,1000,100,,,,,,,,,,,,,,0.057128386
X,5,29,2024,1139,92654,41.827445,-69.91506,59,346,2,2,1,5,1,2,2,1,C,,,,,,,,,,,,,,,,,,,,,,,,,,,,,,102.3,1000,100,,,,,,,,,,,,,,0.056970357
X,5,29,2024,1140,92656,41.827935,-69.913975,59,348,2,2,1,5,1,2,2,1,C,,,,,,,,,,,,,,,,,,,,,,,,,,,,,,102,1000,100,,,,,,,,,,,,,,0.056761547
X,5,29,2024,1141,92658,41.82842,-69.91289333,59,348,2,2,1,5,1,2,2,1,C,,,,,,,,,,,,,,,,,,,,,,,,,,,,,,101.9,1000,100,,,,,,,,,,,,,,0.056478384
X,5,29,2024,1142,92700,41.82890167,-69.911805,59,347,2,2,1,5,1,2,2,1,C,,,,,,,,,,,,,,,,,,,,,,,,,,,,,,102.4,1000,100,,,,,,,,,,,,,,0.056631375
X,5,29,2024,1143,92702,41.82939167,-69.91071167,59,346,2,2,1,5,1,2,2,1,C,,,,,,,,,,,,,,,,,,,,,,,,,,,,,,102.8,1000,100,,,,,,,,,,,,,,0.057079762
X,5,29,2024,1144,92704,41.82988,-69.909615,59,345,2,2,1,5,1,2,2,1,C,,,,,,,,,,,,,,,,,,,,,,,,,,,,,,103.3,1000,100,,,,,,,,,,,,,,0.057155888
X,5,29,2024,1145,92706,41.83037167,-69.90851333,59,346,2,2,1,5,1,2,2,1,C,,,,,,,,,,,,,,,,,,,,,,,,,,,,,,103.8,1000,100,,,,,,,,,,,,,,0.057450274
X,5,29,2024,1146,92708,41.83086833,-69.90740833,59,345,2,2,1,5,1,2,2,1,C,,,,,,,,,,,,,,,,,,,,,,,,,,,,,,104,1000,100,,,,,,,,,,,,,,0.057732418
X,5,29,2024,1147,92710,41.83136333,-69.90629833,59,344,2,2,1,5,1,2,2,1,C,,,,,,,,,,,,,,,,,,,,,,,,,,,,,,104.5,1000,100,,,,,,,,,,,,,,0.057872288
X,5,29,2024,1148,92712,41.83186167,-69.90518667,59,344,2,2,1,5,1,2,2,1,C,,,,,,,,,,,,,,,,,,,,,,,,,,,,,,104.7,1000,100,,,,,,,,,,,,,,0.058038867
X,5,29,2024,1149,92714,41.832365,-69.90407333,59,344,2,2,1,5,1,2,2,1,C,,,,,,,,,,,,,,,,,,,,,,,,,,,,,,104.9,1000,100,,,,,,,,,,,,,,0.058257595
X,5,29,2024,1150,92716,41.83286833,-69.90296,59,343,2,2,1,5,1,2,2,1,C,,,,,,,,,,,,,,,,,,,,,,,,,,,,,,105,1000,100,,,,,,,,,,,,,,0.05825726
X,5,29,2024,1151,92718,41.83336667,-69.90184,59,344,2,2,1,5,1,2,2,1,C,,,,,,,,,,,,,,,,,,,,,,,,,,,,,,105,1000,100,,,,,,,,,,,,,,0.058357621
X,5,29,2024,1152,92720,41.83386167,-69.90072333,60,344,2,2,1,5,1,2,2,1,C,,,,,,,,,,,,,,,,,,,,,,,,,,,,,,104.8,1000,100,,,,,,,,,,,,,,0.058126728
X,5,29,2024,1153,92722,41.83435167,-69.89959833,60,344,2,2,1,5,1,2,2,1,C,,,,,,,,,,,,,,,,,,,,,,,,,,,,,,104.9,1000,100,,,,,,,,,,,,,,0.058295008
X,5,29,2024,1154,92724,41.83484333,-69.89847333,60,344,2,2,1,5,1,2,2,1,C,,,,,,,,,,,,,,,,,,,,,,,,,,,,,,105.2,1000,100,,,,,,,,,,,,,,0.05834524
X,5,29,2024,1155,92726,41.83533,-69.897345,60,344,2,2,1,5,1,2,2,1,C,,,,,,,,,,,,,,,,,,,,,,,,,,,,,,105.2,1000,100,,,,,,,,,,,,,,0.058322598
X,5,29,2024,1156,92728,41.83581333,-69.89621333,60,345,2,2,1,5,1,2,2,1,C,,,,,,,,,,,,,,,,,,,,,,,,,,,,,,105.1,1000,100,,,,,,,,,,,,,,0.058351574
X,5,29,2024,1157,92730,41.83629833,-69.89508667,60,345,2,2,1,5,1,2,2,1,C,,,,,,,,,,,,,,,,,,,,,,,,,,,,,,105.1,1000,100,,,,,,,,,,,,,,0.058207299
X,5,29,2024,1158,92732,41.836785,-69.89396167,60,345,2,2,1,5,1,2,2,1,C,,,,,,,,,,,,,,,,,,,,,,,,,,,,,,105,1000,100,,,,,,,,,,,,,,0.058192606
X,5,29,2024,1159,92734,41.83727,-69.89284167,60,345,2,2,1,5,1,2,2,1,C,,,,,,,,,,,,,,,,,,,,,,,,,,,,,,104.5,1000,100,,,,,,,,,,,,,,0.057948611
X,5,29,2024,1160,92736,41.83775333,-69.89171667,60,345,2,2,1,5,1,2,2,1,C,,,,,,,,,,,,,,,,,,,,,,,,,,,,,,104.6,1000,100,,,,,,,,,,,,,,0.058091711
X,5,29,2024,1161,92738,41.83823167,-69.89059,60,346,2,2,1,5,1,2,2,1,C,,,,,,,,,,,,,,,,,,,,,,,,,,,,,,104.7,1000,100,,,,,,,,,,,,,,0.058006764
X,5,29,2024,1162,92740,41.83871333,-69.88946333,60,346,2,2,1,5,1,2,2,1,C,,,,,,,,,,,,,,,,,,,,,,,,,,,,,,104.8,1000,100,,,,,,,,,,,,,,0.058105784
X,5,29,2024,1163,92742,41.839195,-69.88833833,60,346,2,2,1,5,1,2,2,1,C,,,,,,,,,,,,,,,,,,,,,,,,,,,,,,104.8,1000,100,,,,,,,,,,,,,,0.058040804
X,5,29,2024,1164,92744,41.83967667,-69.88720833,61,347,2,2,1,5,1,2,2,1,C,,,,,,,,,,,,,,,,,,,,,,,,,,,,,,104.8,1000,100,,,,,,,,,,,,,,0.058234498
X,5,29,2024,1165,92746,41.840155,-69.88608,61,348,2,2,1,5,1,2,2,1,C,,,,,,,,,,,,,,,,,,,,,,,,,,,,,,104.5,1000,100,,,,,,,,,,,,,,0.058070232
X,5,29,2024,1166,92748,41.84063333,-69.88495333,60,348,2,2,1,5,1,2,2,1,C,,,,,,,,,,,,,,,,,,,,,,,,,,,,,,104.5,1000,100,,,,,,,,,,,,,,0.058005121
X,5,29,2024,1167,92750,41.841115,-69.88382833,60,348,2,2,1,5,1,2,2,1,C,,,,,,,,,,,,,,,,,,,,,,,,,,,,,,104.2,1000,100,,,,,,,,,,,,,,0.058039495
X,5,29,2024,1168,92752,41.84160333,-69.882705,60,348,2,2,1,5,1,2,2,1,C,,,,,,,,,,,,,,,,,,,,,,,,,,,,,,104.6,1000,100,,,,,,,,,,,,,,0.058175241
X,5,29,2024,1169,92754,41.84209667,-69.88158167,59,348,2,2,1,5,1,2,2,1,C,,,,,,,,,,,,,,,,,,,,,,,,,,,,,,105,1000,100,,,,,,,,,,,,,,0.058326785
X,5,29,2024,1170,92756,41.84259667,-69.88046167,59,348,2,2,1,5,1,2,2,1,C,,,,,,,,,,,,,,,,,,,,,,,,,,,,,,105.1,1000,100,,,,,,,,,,,,,,0.058402791
X,5,29,2024,1171,92758,41.84310333,-69.87935333,58,348,2,2,1,5,1,2,2,1,C,,,,,,,,,,,,,,,,,,,,,,,,,,,,,,104.9,1000,100,,,,,,,,,,,,,,0.058163798
X,5,29,2024,1172,92800,41.84362167,-69.87825667,57,350,2,2,1,5,1,2,2,1,C,,,,,,,,,,,,,,,,,,,,,,,,,,,,,,104.4,1000,100,,,,,,,,,,,,,,0.058091565
X,5,29,2024,1173,92802,41.844155,-69.87717667,57,351,2,2,1,5,1,2,2,1,C,,,,,,,,,,,,,,,,,,,,,,,,,,,,,,104.3,1000,100,,,,,,,,,,,,,,0.057955843
X,5,29,2024,1174,92804,41.84469333,-69.87610667,56,353,2,2,1,5,1,2,2,1,C,,,,,,,,,,,,,,,,,,,,,,,,,,,,,,103.7,1000,100,,,,,,,,,,,,,,0.05775071
X,5,29,2024,1175,92806,41.84522833,-69.87504833,56,356,2,2,1,5,1,2,2,1,C,,,,,,,,,,,,,,,,,,,,,,,,,,,,,,103.3,1000,100,,,,,,,,,,,,,,0.057206069
X,5,29,2024,1176,92808,41.84576,-69.87399333,56,358,2,2,1,5,1,2,2,1,C,,,,,,,,,,,,,,,,,,,,,,,,,,,,,,102.8,1000,100,,,,,,,,,,,,,,0.056970057
X,5,29,2024,1177,92810,41.84628333,-69.872935,57,359,2,2,1,5,1,2,2,1,C,,,,,,,,,,,,,,,,,,,,,,,,,,,,,,102.7,1000,100,,,,,,,,,,,,,,0.056815052
X,5,29,2024,1178,92812,41.84680167,-69.87187167,57,359,2,2,1,5,1,2,2,1,C,,,,,,,,,,,,,,,,,,,,,,,,,,,,,,102.6,1000,100,,,,,,,,,,,,,,0.056836252
X,5,29,2024,1179,92814,41.84732,-69.870805,57,359,2,2,1,5,1,2,2,1,C,,,,,,,,,,,,,,,,,,,,,,,,,,,,,,102.7,1000,100,,,,,,,,,,,,,,0.056960739
X,5,29,2024,1180,92816,41.84782667,-69.86973167,58,358,2,2,1,5,1,2,2,1,C,,,,,,,,,,,,,,,,,,,,,,,,,,,,,,102.9,1000,100,,,,,,,,,,,,,,0.056832384
X,5,29,2024,1181,92818,41.84833167,-69.86865167,59,358,2,2,1,5,1,2,2,1,C,,,,,,,,,,,,,,,,,,,,,,,,,,,,,,103.2,1000,100,,,,,,,,,,,,,,0.057030879
X,5,29,2024,1182,92818,41.84833167,-69.86865167,59,358,2,2,1,5,1,2,2,1,C,,,,,,,,,,,,,,,,,,,,,,,,,,,,,,103.2,1000,100,,,,,,,,,,,,,,0
X,5,29,2024,1183,92820,41.84882833,-69.86756,59,357,2,2,1,5,1,2,2,1,C,,,,,,,,,,,,,,,,,,,,,,,,,,,,,,103.7,1000,100,,,,,,,,,,,,,,0.057210786
X,5,29,2024,1184,92822,41.84932167,-69.86646,59,356,2,2,1,5,1,2,2,1,C,,,,,,,,,,,,,,,,,,,,,,,,,,,,,,103.5,1000,100,,,,,,,,,,,,,,0.057425377
X,5,29,2024,1185,92824,41.84981333,-69.86534833,59,354,2,2,1,5,1,2,2,1,C,,,,,,,,,,,,,,,,,,,,,,,,,,,,,,104.3,1000,100,,,,,,,,,,,,,,0.05782154
X,5,29,2024,1186,92826,41.850305,-69.86423167,60,352,2,2,1,5,1,2,2,1,C,,,,,,,,,,,,,,,,,,,,,,,,,,,,,,104.6,1000,100,,,,,,,,,,,,,,0.058013604
X,5,29,2024,1187,92828,41.85079167,-69.86311,60,352,2,2,1,5,1,2,2,1,C,,,,,,,,,,,,,,,,,,,,,,,,,,,,,,104.8,1000,100,,,,,,,,,,,,,,0.058054213
X,5,29,2024,1188,92830,41.851275,-69.86198167,61,353,2,2,1,5,1,2,2,1,C,,,,,,,,,,,,,,,,,,,,,,,,,,,,,,104.5,1000,100,,,,,,,,,,,,,,0.058211683
X,5,29,2024,1189,92832,41.85174833,-69.86085167,61,355,2,2,1,5,1,2,2,1,C,,,,,,,,,,,,,,,,,,,,,,,,,,,,,,104.5,1000,100,,,,,,,,,,,,,,0.057979339
X,5,29,2024,1190,92834,41.85220833,-69.85972167,62,357,2,2,1,5,1,2,2,1,C,,,,,,,,,,,,,,,,,,,,,,,,,,,,,,103.7,1000,100,,,,,,,,,,,,,,0.057590851
X,5,29,2024,1191,92836,41.85266,-69.85858833,62,358,2,2,1,5,1,2,2,1,C,,,,,,,,,,,,,,,,,,,,,,,,,,,,,,103.2,1000,100,,,,,,,,,,,,,,0.057483669
X,5,29,2024,1192,92838,41.85310333,-69.85745667,62,359,2,2,1,5,1,2,2,1,C,,,,,,,,,,,,,,,,,,,,,,,,,,,,,,103,1000,100,,,,,,,,,,,,,,0.057183038
X,5,29,2024,1193,92840,41.85354167,-69.85632333,63,360,2,2,1,5,1,2,2,1,C,,,,,,,,,,,,,,,,,,,,,,,,,,,,,,102.8,1000,100,,,,,,,,,,,,,,0.057109747
X,5,29,2024,1194,92842,41.85397333,-69.85518667,63,360,2,2,1,5,1,2,2,1,C,,,,,,,,,,,,,,,,,,,,,,,,,,,,,,102.8,1000,100,,,,,,,,,,,,,,0.057058858
X,5,29,2024,1195,92844,41.854395,-69.85404833,64,361,2,2,1,5,1,2,2,1,C,,,,,,,,,,,,,,,,,,,,,,,,,,,,,,102.8,1000,100,,,,,,,,,,,,,,0.056855083
X,5,29,2024,1196,92846,41.85481333,-69.85290833,64,360,2,2,1,5,1,2,2,1,C,,,,,,,,,,,,,,,,,,,,,,,,,,,,,,102.8,1000,100,,,,,,,,,,,,,,0.056832799
X,5,29,2024,1197,92848,41.85522667,-69.85176333,64,360,2,2,1,5,1,2,2,1,C,,,,,,,,,,,,,,,,,,,,,,,,,,,,,,103,1000,100,,,,,,,,,,,,,,0.056901599
X,5,29,2024,1198,92848,41.85522667,-69.85176333,64,360,2,2,1,5,1,2,2,1,C,,,,,,,,,,,,,,,,,,,,,,,,,,,,,,103,1000,100,,,,,,,,,,,,,,0
X,5,29,2024,1199,92850,41.85564167,-69.850615,64,359,2,2,1,5,1,2,2,1,C,,,,,,,,,,,,,,,,,,,,,,,,,,,,,,103.2,1000,100,,,,,,,,,,,,,,0.057079091
X,5,29,2024,1200,92852,41.85606167,-69.849465,64,358,2,2,1,5,1,2,2,1,C,,,,,,,,,,,,,,,,,,,,,,,,,,,,,,103.3,1000,100,,,,,,,,,,,,,,0.057277387
X,5,29,2024,1201,92854,41.85649333,-69.84832333,63,357,2,2,1,5,1,2,2,1,C,,,,,,,,,,,,,,,,,,,,,,,,,,,,,,103.3,1000,100,,,,,,,,,,,,,,0.057256362
X,5,29,2024,1202,92856,41.856925,-69.84718167,63,357,2,2,1,5,1,2,2,1,C,,,,,,,,,,,,,,,,,,,,,,,,,,,,,,103.2,1000,100,,,,,,,,,,,,,,0.057256054
X,5,29,2024,1203,92858,41.85736167,-69.84604167,63,356,2,2,1,5,1,2,2,1,C,,,,,,,,,,,,,,,,,,,,,,,,,,,,,,103.4,1000,100,,,,,,,,,,,,,,0.05732597
X,5,29,2024,1204,92900,41.85780333,-69.84490333,62,356,2,2,1,5,1,2,2,1,C,,,,,,,,,,,,,,,,,,,,,,,,,,,,,,103.4,1000,100,,,,,,,,,,,,,,0.057397465
X,5,29,2024,1205,92902,41.85825333,-69.84377167,62,355,2,2,1,5,1,2,2,1,C,,,,,,,,,,,,,,,,,,,,,,,,,,,,,,103.7,1000,100,,,,,,,,,,,,,,0.05736686
X,5,29,2024,1206,92904,41.85871333,-69.842645,61,353,2,2,1,5,1,2,2,1,C,,,,,,,,,,,,,,,,,,,,,,,,,,,,,,104,1000,100,,,,,,,,,,,,,,0.057455588
X,5,29,2024,1207,92906,41.85918667,-69.84151833,60,351,2,2,1,5,1,2,2,1,C,,,,,,,,,,,,,,,,,,,,,,,,,,,,,,104.4,1000,100,,,,,,,,,,,,,,0.057844342
X,5,29,2024,1208,92908,41.85966,-69.840385,61,350,2,2,1,5,1,2,2,1,C,,,,,,,,,,,,,,,,,,,,,,,,,,,,,,104.6,1000,100,,,,,,,,,,,,,,0.058103856
X,5,29,2024,1209,92910,41.86013167,-69.83924833,61,351,2,2,1,5,1,2,2,1,C,,,,,,,,,,,,,,,,,,,,,,,,,,,,,,104.5,1000,100,,,,,,,,,,,,,,0.058184815
X,5,29,2024,1210,92912,41.86059667,-69.83811333,61,351,2,2,1,5,1,2,2,1,C,,,,,,,,,,,,,,,,,,,,,,,,,,,,,,104.6,1000,100,,,,,,,,,,,,,,0.057925418
X,5,29,2024,1211,92914,41.86105833,-69.83697333,62,351,2,2,1,5,1,2,2,1,C,,,,,,,,,,,,,,,,,,,,,,,,,,,,,,104.7,1000,100,,,,,,,,,,,,,,0.058025222
X,5,29,2024,1212,92916,41.86151667,-69.83582833,62,350,2,2,1,5,1,2,2,1,C,,,,,,,,,,,,,,,,,,,,,,,,,,,,,,104.7,1000,100,,,,,,,,,,,,,,0.058126402
X,5,29,2024,1213,92918,41.86197333,-69.83468333,62,350,2,2,1,5,1,2,2,1,C,,,,,,,,,,,,,,,,,,,,,,,,,,,,,,104.8,1000,100,,,,,,,,,,,,,,0.058078771
X,5,29,2024,1214,92920,41.86243667,-69.83353833,61,350,2,2,1,5,1,2,2,1,C,,,,,,,,,,,,,,,,,,,,,,,,,,,,,,105.1,1000,100,,,,,,,,,,,,,,0.05826848
X,5,29,2024,1215,92922,41.86290333,-69.83239667,61,349,2,2,1,5,1,2,2,1,C,,,,,,,,,,,,,,,,,,,,,,,,,,,,,,105.1,1000,100,,,,,,,,,,,,,,0.05823326
X,5,29,2024,1216,92924,41.86337333,-69.831255,61,348,2,2,1,5,1,2,2,1,C,,,,,,,,,,,,,,,,,,,,,,,,,,,,,,105.1,1000,100,,,,,,,,,,,,,,0.058329491
X,5,29,2024,1217,92926,41.86384167,-69.83010833,62,347,2,2,1,5,1,2,2,1,C,,,,,,,,,,,,,,,,,,,,,,,,,,,,,,105.4,1000,100,,,,,,,,,,,,,,0.058476746
X,5,29,2024,1218,92928,41.86430667,-69.82895667,62,347,2,2,1,5,1,2,2,1,C,,,,,,,,,,,,,,,,,,,,,,,,,,,,,,105.5,1000,100,,,,,,,,,,,,,,0.05857689
X,5,29,2024,1219,92930,41.86477167,-69.827805,62,346,2,2,1,5,1,2,2,1,C,,,,,,,,,,,,,,,,,,,,,,,,,,,,,,105.7,1000,100,,,,,,,,,,,,,,0.058576561
X,5,29,2024,1220,92932,41.86523667,-69.82665333,62,345,2,2,1,5,1,2,2,1,C,,,,,,,,,,,,,,,,,,,,,,,,,,,,,,105.8,1000,100,,,,,,,,,,,,,,0.058576231
X,5,29,2024,1221,92934,41.86570333,-69.82550167,61,344,2,2,1,5,1,2,2,1,C,,,,,,,,,,,,,,,,,,,,,,,,,,,,,,105.9,1000,100,,,,,,,,,,,,,,0.058623662
X,5,29,2024,1222,92936,41.86617833,-69.82435667,61,343,2,2,1,5,1,2,2,1,C,,,,,,,,,,,,,,,,,,,,,,,,,,,,,,105.9,1000,100,,,,,,,,,,,,,,0.05860352
X,5,29,2024,1223,92938,41.86666,-69.82321333,61,342,2,2,1,5,1,2,2,1,C,,,,,,,,,,,,,,,,,,,,,,,,,,,,,,105.9,1000,100,,,,,,,,,,,,,,0.058734144
X,5,29,2024,1224,92940,41.86714333,-69.82207,60,342,2,2,1,5,1,2,2,1,C,,,,,,,,,,,,,,,,,,,,,,,,,,,,,,106,1000,100,,,,,,,,,,,,,,0.058783144
X,5,29,2024,1225,92942,41.86763,-69.82093,60,341,2,2,1,5,1,2,2,1,C,,,,,,,,,,,,,,,,,,,,,,,,,,,,,,106,1000,100,,,,,,,,,,,,,,0.058752519
X,5,29,2024,1226,92944,41.86812333,-69.81979667,60,340,2,2,1,5,1,2,2,1,C,,,,,,,,,,,,,,,,,,,,,,,,,,,,,,105.9,1000,100,,,,,,,,,,,,,,0.058694743
X,5,29,2024,1227,92946,41.86862,-69.81866833,59,339,2,2,1,5,1,2,2,1,C,,,,,,,,,,,,,,,,,,,,,,,,,,,,,,105.7,1000,100,,,,,,,,,,,,,,0.058603098
X,5,29,2024,1228,92948,41.86912333,-69.81754333,59,339,2,2,1,5,1,2,2,1,C,,,,,,,,,,,,,,,,,,,,,,,,,,,,,,105.8,1000,100,,,,,,,,,,,,,,0.058679644
X,5,29,2024,1229,92948,41.86912333,-69.81754333,59,339,2,2,1,5,1,2,2,1,C,,,,,,,,,,,,,,,,,,,,,,,,,,,,,,105.8,1000,100,,,,,,,,,,,,,,0
X,5,29,2024,1230,92950,41.869625,-69.81641833,59,339,2,2,1,5,1,2,2,1,C,,,,,,,,,,,,,,,,,,,,,,,,,,,,,,105.8,1000,100,,,,,,,,,,,,,,0.058627832
X,5,29,2024,1231,92952,41.87013,-69.81529333,59,339,2,2,1,5,1,2,2,1,C,,,,,,,,,,,,,,,,,,,,,,,,,,,,,,105.9,1000,100,,,,,,,,,,,,,,0.058730564
X,5,29,2024,1232,92954,41.87063167,-69.81417167,59,339,2,2,1,5,1,2,2,1,C,,,,,,,,,,,,,,,,,,,,,,,,,,,,,,105.5,1000,100,,,,,,,,,,,,,,0.058499343
X,5,29,2024,1233,92956,41.87113167,-69.813045,59,339,2,2,1,5,1,2,2,1,C,,,,,,,,,,,,,,,,,,,,,,,,,,,,,,105.6,1000,100,,,,,,,,,,,,,,0.058639464
X,5,29,2024,1234,92958,41.87163333,-69.81191833,59,339,2,2,1,5,1,2,2,1,C,,,,,,,,,,,,,,,,,,,,,,,,,,,,,,105.8,1000,100,,,,,,,,,,,,,,0.058690417
X,5,29,2024,1235,93000,41.872135,-69.81079333,59,339,2,2,1,5,1,2,2,1,C,,,,,,,,,,,,,,,,,,,,,,,,,,,,,,105.6,1000,100,,,,,,,,,,,,,,0.058626138
X,5,29,2024,1236,93002,41.87263667,-69.80966167,59,340,2,2,1,5,1,2,2,1,C,,,,,,,,,,,,,,,,,,,,,,,,,,,,,,105.8,1000,100,,,,,,,,,,,,,,0.058881707
X,5,29,2024,1237,93004,41.87313833,-69.80853333,59,341,2,2,1,5,1,2,2,1,C,,,,,,,,,,,,,,,,,,,,,,,,,,,,,,105.5,1000,100,,,,,,,,,,,,,,0.058753364
X,5,29,2024,1238,93006,41.87364333,-69.80741167,59,342,2,2,1,5,1,2,2,1,C,,,,,,,,,,,,,,,,,,,,,,,,,,,,,,105.5,1000,100,,,,,,,,,,,,,,0.05860062
X,5,29,2024,1239,93008,41.87414333,-69.806285,59,342,2,2,1,5,1,2,2,1,C,,,,,,,,,,,,,,,,,,,,,,,,,,,,,,105.2,1000,100,,,,,,,,,,,,,,0.058637425
X,5,29,2024,1240,93010,41.87464167,-69.80516,59,343,2,2,1,5,1,2,2,1,C,,,,,,,,,,,,,,,,,,,,,,,,,,,,,,105.5,1000,100,,,,,,,,,,,,,,0.05852187
X,5,29,2024,1241,93012,41.87514167,-69.80403167,59,343,2,2,1,5,1,2,2,1,C,,,,,,,,,,,,,,,,,,,,,,,,,,,,,,105.5,1000,100,,,,,,,,,,,,,,0.058700767
X,5,29,2024,1242,93014,41.87564333,-69.802905,59,343,2,2,1,5,1,2,2,1,C,,,,,,,,,,,,,,,,,,,,,,,,,,,,,,105.7,1000,100,,,,,,,,,,,,,,0.058687705
X,5,29,2024,1243,93016,41.87614333,-69.80178167,59,343,2,2,1,5,1,2,2,1,C,,,,,,,,,,,,,,,,,,,,,,,,,,,,,,105.6,1000,100,,,,,,,,,,,,,,0.058508114
X,5,29,2024,1244,93018,41.876645,-69.800655,60,342,2,2,1,5,1,2,2,1,C,,,,,,,,,,,,,,,,,,,,,,,,,,,,,,105.4,1000,100,,,,,,,,,,,,,,0.058687028
X,5,29,2024,1245,93020,41.87714,-69.799525,60,342,2,2,1,5,1,2,2,1,C,,,,,,,,,,,,,,,,,,,,,,,,,,,,,,105.4,1000,100,,,,,,,,,,,,,,0.058610654
X,5,29,2024,1246,93022,41.87763167,-69.798395,60,342,2,2,1,5,1,2,2,1,C,,,,,,,,,,,,,,,,,,,,,,,,,,,,,,105.6,1000,100,,,,,,,,,,,,,,0.058509089
X,5,29,2024,1247,93024,41.87812,-69.79726167,60,342,2,2,1,5,1,2,2,1,C,,,,,,,,,,,,,,,,,,,,,,,,,,,,,,105.2,1000,100,,,,,,,,,,,,,,0.058536961
X,5,29,2024,1248,93026,41.87859667,-69.796125,61,342,2,2,1,5,1,2,2,1,C,,,,,,,,,,,,,,,,,,,,,,,,,,,,,,105.1,1000,100,,,,,,,,,,,,,,0.058318727
X,5,29,2024,1249,93028,41.87907167,-69.79498667,61,342,2,2,1,5,1,2,2,1,C,,,,,,,,,,,,,,,,,,,,,,,,,,,,,,105.1,1000,100,,,,,,,,,,,,,,0.058334339
X,5,29,2024,1250,93030,41.87954667,-69.79385,61,341,2,2,1,5,1,2,2,1,C,,,,,,,,,,,,,,,,,,,,,,,,,,,,,,105.1,1000,100,,,,,,,,,,,,,,0.058269026
X,5,29,2024,1251,93032,41.88002333,-69.79271667,61,340,2,2,1,5,1,2,2,1,C,,,,,,,,,,,,,,,,,,,,,,,,,,,,,,105.1,1000,100,,,,,,,,,,,,,,0.058187952
X,5,29,2024,1252,93034,41.88050167,-69.79158333,60,339,2,2,1,5,1,2,2,1,C,,,,,,,,,,,,,,,,,,,,,,,,,,,,,,105.2,1000,100,,,,,,,,,,,,,,0.058236905
X,5,29,2024,1253,93036,41.88098333,-69.79044833,60,338,2,2,1,5,1,2,2,1,C,,,,,,,,,,,,,,,,,,,,,,,,,,,,,,105.2,1000,100,,,,,,,,,,,,,,0.058400246
X,5,29,2024,1254,93038,41.881465,-69.78930833,60,339,2,2,1,5,1,2,2,1,C,,,,,,,,,,,,,,,,,,,,,,,,,,,,,,105.1,1000,100,,,,,,,,,,,,,,0.0585942
X,5,29,2024,1255,93040,41.88194833,-69.788175,60,339,2,2,1,5,1,2,2,1,C,,,,,,,,,,,,,,,,,,,,,,,,,,,,,,105.2,1000,100,,,,,,,,,,,,,,0.05838454
X,5,29,2024,1256,93042,41.88243167,-69.78704833,60,338,2,2,1,5,1,2,2,1,C,,,,,,,,,,,,,,,,,,,,,,,,,,,,,,104.8,1000,100,,,,,,,,,,,,,,0.058125807
X,5,29,2024,1257,93044,41.88291833,-69.785925,60,338,2,2,1,5,1,2,2,1,C,,,,,,,,,,,,,,,,,,,,,,,,,,,,,,104.8,1000,100,,,,,,,,,,,,,,0.058096818
X,5,29,2024,1258,93046,41.88340667,-69.784805,60,339,2,2,1,5,1,2,2,1,C,,,,,,,,,,,,,,,,,,,,,,,,,,,,,,104.2,1000,100,,,,,,,,,,,,,,0.058018256
X,5,29,2024,1259,93048,41.88389167,-69.78369,60,340,2,2,1,5,1,2,2,1,C,,,,,,,,,,,,,,,,,,,,,,,,,,,,,,103.9,1000,100,,,,,,,,,,,,,,0.057723957
X,5,29,2024,1260,93048,41.88389167,-69.78369,60,340,2,2,1,5,1,2,2,1,C,,,,,,,,,,,,,,,,,,,,,,,,,,,,,,103.9,1000,100,,,,,,,,,,,,,,0
X,5,29,2024,1261,93050,41.884375,-69.78257833,60,341,2,2,1,5,1,2,2,1,C,,,,,,,,,,,,,,,,,,,,,,,,,,,,,,103.4,1000,100,,,,,,,,,,,,,,0.0575445
X,5,29,2024,1262,93052,41.88486,-69.78147333,60,342,2,2,1,5,1,2,2,1,C,,,,,,,,,,,,,,,,,,,,,,,,,,,,,,103.4,1000,100,,,,,,,,,,,,,,0.057337799
X,5,29,2024,1263,93054,41.885345,-69.78037667,59,343,2,2,1,5,1,2,2,1,C,,,,,,,,,,,,,,,,,,,,,,,,,,,,,,102.7,1000,100,,,,,,,,,,,,,,0.05701691
X,5,29,2024,1264,93056,41.88582833,-69.779285,59,343,2,2,1,5,1,2,2,1,C,,,,,,,,,,,,,,,,,,,,,,,,,,,,,,102.3,1000,100,,,,,,,,,,,,,,0.056773342
X,5,29,2024,1265,93058,41.88631,-69.77819333,59,342,2,2,1,5,1,2,2,1,C,,,,,,,,,,,,,,,,,,,,,,,,,,,,,,102.2,1000,100,,,,,,,,,,,,,,0.056721941
X,5,29,2024,1266,93100,41.88679167,-69.77710333,60,343,2,2,1,5,1,2,2,1,C,,,,,,,,,,,,,,,,,,,,,,,,,,,,,,102.1,1000,100,,,,,,,,,,,,,,0.05665755
X,5,29,2024,1267,93102,41.88727167,-69.77601667,59,342,2,2,1,5,1,2,2,1,C,,,,,,,,,,,,,,,,,,,,,,,,,,,,,,101.9,1000,100,,,,,,,,,,,,,,0.056478037
X,5,29,2024,1268,93104,41.88775333,-69.77493,60,342,2,2,1,5,1,2,2,1,C,,,,,,,,,,,,,,,,,,,,,,,,,,,,,,101.8,1000,100,,,,,,,,,,,,,,0.05652885
X,5,29,2024,1269,93106,41.88823333,-69.77384667,59,341,2,2,1,5,1,2,2,1,C,,,,,,,,,,,,,,,,,,,,,,,,,,,,,,101.6,1000,100,,,,,,,,,,,,,,0.056349326
X,5,29,2024,1270,93108,41.88871333,-69.77275833,59,341,2,2,1,5,1,2,2,1,C,,,,,,,,,,,,,,,,,,,,,,,,,,,,,,101.9,1000,100,,,,,,,,,,,,,,0.056541173
X,5,29,2024,1271,93110,41.88919333,-69.77167,59,340,2,2,1,5,1,2,2,1,C,,,,,,,,,,,,,,,,,,,,,,,,,,,,,,101.9,1000,100,,,,,,,,,,,,,,0.056540858
X,5,29,2024,1272,93112,41.88967167,-69.77058,60,340,2,2,1,5,1,2,2,1,C,,,,,,,,,,,,,,,,,,,,,,,,,,,,,,101.9,1000,100,,,,,,,,,,,,,,0.056553765
X,5,29,2024,1273,93114,41.89015167,-69.76949,60,340,2,2,1,5,1,2,2,1,C,,,,,,,,,,,,,,,,,,,,,,,,,,,,,,101.5,1000,100,,,,,,,,,,,,,,0.056604333
X,5,29,2024,1274,93116,41.89062667,-69.768405,59,341,2,2,1,5,1,2,2,1,C,,,,,,,,,,,,,,,,,,,,,,,,,,,,,,101.2,1000,100,,,,,,,,,,,,,,0.056259016
X,5,29,2024,1275,93118,41.891105,-69.76732667,59,342,2,2,1,5,1,2,2,1,C,,,,,,,,,,,,,,,,,,,,,,,,,,,,,,100.9,1000,100,,,,,,,,,,,,,,0.056104247
X,5,29,2024,1276,93118,41.891105,-69.76732667,59,342,2,2,1,5,1,2,2,1,C,,,,,,,,,,,,,,,,,,,,,,,,,,,,,,100.9,1000,100,,,,,,,,,,,,,,0
X,5,29,2024,1277,93120,41.89158333,-69.766255,59,344,2,2,1,5,1,2,2,1,C,,,,,,,,,,,,,,,,,,,,,,,,,,,,,,100.5,1000,100,,,,,,,,,,,,,,0.055848179
X,5,29,2024,1278,93122,41.89206333,-69.76519,59,346,2,2,1,5,1,2,2,1,C,,,,,,,,,,,,,,,,,,,,,,,,,,,,,,100.1,1000,100,,,,,,,,,,,,,,0.055644296
X,5,29,2024,1279,93124,41.89254,-69.76413167,59,347,2,2,1,5,1,2,2,1,C,,,,,,,,,,,,,,,,,,,,,,,,,,,,,,99.6,1000,100,,,,,,,,,,,,,,0.055285455
X,5,29,2024,1280,93126,41.89301833,-69.763075,59,348,2,2,1,5,1,2,2,1,C,,,,,,,,,,,,,,,,,,,,,,,,,,,,,,99.4,1000,100,,,,,,,,,,,,,,0.055273361
X,5,29,2024,1281,93128,41.89349333,-69.76202333,59,346,2,2,1,5,1,2,2,1,C,,,,,,,,,,,,,,,,,,,,,,,,,,,,,,99.1,1000,100,,,,,,,,,,,,,,0.054978165
X,5,29,2024,1282,93130,41.89397,-69.76097,59,344,2,2,1,5,1,2,2,1,C,,,,,,,,,,,,,,,,,,,,,,,,,,,,,,99.4,1000,100,,,,,,,,,,,,,,0.055093478
X,5,29,2024,1283,93132,41.89445167,-69.75991333,59,342,2,2,1,5,1,2,2,1,C,,,,,,,,,,,,,,,,,,,,,,,,,,,,,,99.7,1000,100,,,,,,,,,,,,,,0.05537671
X,5,29,2024,1284,93134,41.89494,-69.75885667,58,341,2,2,1,5,1,2,2,1,C,,,,,,,,,,,,,,,,,,,,,,,,,,,,,,100.3,1000,100,,,,,,,,,,,,,,0.055586487
X,5,29,2024,1285,93136,41.89543167,-69.7578,58,339,2,2,1,5,1,2,2,1,C,,,,,,,,,,,,,,,,,,,,,,,,,,,,,,100.4,1000,100,,,,,,,,,,,,,,0.055692003
X,5,29,2024,1286,93138,41.89592,-69.75673333,59,339,2,2,1,5,1,2,2,1,C,,,,,,,,,,,,,,,,,,,,,,,,,,,,,,100.9,1000,100,,,,,,,,,,,,,,0.055966059
X,5,29,2024,1287,93140,41.89641,-69.75567,58,339,2,2,1,5,1,2,2,1,C,,,,,,,,,,,,,,,,,,,,,,,,,,,,,,100.6,1000,100,,,,,,,,,,,,,,0.055891518
X,5,29,2024,1288,93142,41.89690167,-69.754605,58,338,2,2,1,5,1,2,2,1,C,,,,,,,,,,,,,,,,,,,,,,,,,,,,,,101,1000,100,,,,,,,,,,,,,,0.056007231
X,5,29,2024,1289,93144,41.89739,-69.75354,59,338,2,2,1,5,1,2,2,1,C,,,,,,,,,,,,,,,,,,,,,,,,,,,,,,100.8,1000,100,,,,,,,,,,,,,,0.055901693
X,5,29,2024,1290,93146,41.897875,-69.75247333,59,337,2,2,1,5,1,2,2,1,C,,,,,,,,,,,,,,,,,,,,,,,,,,,,,,101,1000,100,,,,,,,,,,,,,,0.055860225
X,5,29,2024,1291,93148,41.898355,-69.75140333,59,336,2,2,1,5,1,2,2,1,C,,,,,,,,,,,,,,,,,,,,,,,,,,,,,,101,1000,100,,,,,,,,,,,,,,0.055831546
X,5,29,2024,1292,93148,41.898355,-69.75140333,59,336,2,2,1,5,1,2,2,1,C,,,,,,,,,,,,,,,,,,,,,,,,,,,,,,101,1000,100,,,,,,,,,,,,,,0
X,5,29,2024,1293,93150,41.89883,-69.75033,59,336,2,2,1,5,1,2,2,1,C,,,,,,,,,,,,,,,,,,,,,,,,,,,,,,100.9,1000,100,,,,,,,,,,,,,,0.055804864
X,5,29,2024,1294,93152,41.8993,-69.74925167,60,335,2,2,1,5,1,2,2,1,C,,,,,,,,,,,,,,,,,,,,,,,,,,,,,,100.9,1000,100,,,,,,,,,,,,,,0.055844443
X,5,29,2024,1295,93154,41.89977,-69.74816833,60,334,2,2,1,5,1,2,2,1,C,,,,,,,,,,,,,,,,,,,,,,,,,,,,,,101.2,1000,100,,,,,,,,,,,,,,0.05603707
X,5,29,2024,1296,93156,41.90024,-69.74708,60,332,2,2,1,5,1,2,2,1,C,,,,,,,,,,,,,,,,,,,,,,,,,,,,,,101.4,1000,100,,,,,,,,,,,,,,0.056229918
X,5,29,2024,1297,93158,41.90070333,-69.74599,60,331,2,2,1,5,1,2,2,1,C,,,,,,,,,,,,,,,,,,,,,,,,,,,,,,101.6,1000,100,,,,,,,,,,,,,,0.056094468
X,5,29,2024,1298,93200,41.90117333,-69.7449,60,330,2,2,1,5,1,2,2,1,C,,,,,,,,,,,,,,,,,,,,,,,,,,,,,,101.7,1000,100,,,,,,,,,,,,,,0.056293738
X,5,29,2024,1299,93202,41.901645,-69.74380833,60,329,2,2,1,5,1,2,2,1,C,,,,,,,,,,,,,,,,,,,,,,,,,,,,,,101.8,1000,100,,,,,,,,,,,,,,0.056408057
X,5,29,2024,1300,93204,41.90212,-69.74272,60,328,2,2,1,5,1,2,2,1,C,,,,,,,,,,,,,,,,,,,,,,,,,,,,,,101.8,1000,100,,,,,,,,,,,,,,0.05637994
X,5,29,2024,1301,93206,41.90259667,-69.74163167,60,328,2,2,1,5,1,2,2,1,C,,,,,,,,,,,,,,,,,,,,,,,,,,,,,,101.6,1000,100,,,,,,,,,,,,,,0.056430311
X,5,29,2024,1302,93208,41.90307333,-69.740545,60,328,2,2,1,5,1,2,2,1,C,,,,,,,,,,,,,,,,,,,,,,,,,,,,,,101.5,1000,100,,,,,,,,,,,,,,0.056365822
X,5,29,2024,1303,93210,41.90354667,-69.73945833,60,328,2,2,1,5,1,2,2,1,C,,,,,,,,,,,,,,,,,,,,,,,,,,,,,,101.4,1000,100,,,,,,,,,,,,,,0.056264158
X,5,29,2024,1304,93212,41.90402,-69.73837167,60,328,2,2,1,5,1,2,2,1,C,,,,,,,,,,,,,,,,,,,,,,,,,,,,,,101.4,1000,100,,,,,,,,,,,,,,0.056263847
X,5,29,2024,1305,93214,41.90449167,-69.73728667,60,328,2,2,1,5,1,2,2,1,C,,,,,,,,,,,,,,,,,,,,,,,,,,,,,,101,1000,100,,,,,,,,,,,,,,0.056148736
X,5,29,2024,1306,93216,41.90496333,-69.73620833,60,328,2,2,1,5,1,2,2,1,C,,,,,,,,,,,,,,,,,,,,,,,,,,,,,,100.8,1000,100,,,,,,,,,,,,,,0.055891391
X,5,29,2024,1307,93218,41.90543667,-69.73513,60,327,2,2,1,5,1,2,2,1,C,,,,,,,,,,,,,,,,,,,,,,,,,,,,,,100.8,1000,100,,,,,,,,,,,,,,0.055941853
X,5,29,2024,1308,93220,41.90591333,-69.73405,59,326,2,2,1,5,1,2,2,1,C,,,,,,,,,,,,,,,,,,,,,,,,,,,,,,100.8,1000,100,,,,,,,,,,,,,,0.056107526
X,5,29,2024,1309,93222,41.90639167,-69.732975,59,325,2,2,1,5,1,2,2,1,C,,,,,,,,,,,,,,,,,,,,,,,,,,,,,,100.9,1000,100,,,,,,,,,,,,,,0.055966444
X,5,29,2024,1310,93224,41.90687,-69.7319,59,325,2,2,1,5,1,2,2,1,C,,,,,,,,,,,,,,,,,,,,,,,,,,,,,,101.1,1000,100,,,,,,,,,,,,,,0.055966135
X,5,29,2024,1311,93226,41.90735,-69.730825,59,325,2,2,1,5,1,2,2,1,C,,,,,,,,,,,,,,,,,,,,,,,,,,,,,,101,1000,100,,,,,,,,,,,,,,0.056017242
X,5,29,2024,1312,93228,41.90782667,-69.72975167,59,325,2,2,1,5,1,2,2,1,C,,,,,,,,,,,,,,,,,,,,,,,,,,,,,,100.8,1000,100,,,,,,,,,,,,,,0.055850267
X,5,29,2024,1313,93230,41.90830167,-69.72868167,59,325,2,2,1,5,1,2,2,1,C,,,,,,,,,,,,,,,,,,,,,,,,,,,,,,100.5,1000,100,,,,,,,,,,,,,,0.055670781
X,5,29,2024,1314,93232,41.90877333,-69.72761167,59,326,2,2,1,5,1,2,2,1,C,,,,,,,,,,,,,,,,,,,,,,,,,,,,,,100.4,1000,100,,,,,,,,,,,,,,0.055568216
X,5,29,2024,1315,93234,41.90924167,-69.72653833,60,326,2,2,1,5,1,2,2,1,C,,,,,,,,,,,,,,,,,,,,,,,,,,,,,,100.3,1000,100,,,,,,,,,,,,,,0.05559462
X,5,29,2024,1316,93236,41.90970333,-69.72546667,60,327,2,2,1,5,1,2,2,1,C,,,,,,,,,,,,,,,,,,,,,,,,,,,,,,99.8,1000,100,,,,,,,,,,,,,,0.05532848
X,5,29,2024,1317,93238,41.91016,-69.72439167,61,327,2,2,1,5,1,2,2,1,C,,,,,,,,,,,,,,,,,,,,,,,,,,,,,,100.1,1000,100,,,,,,,,,,,,,,0.055307696
X,5,29,2024,1318,93240,41.910615,-69.72331333,61,327,2,2,1,5,1,2,2,1,C,,,,,,,,,,,,,,,,,,,,,,,,,,,,,,100,1000,100,,,,,,,,,,,,,,0.055387372
X,5,29,2024,1319,93242,41.91107167,-69.722235,61,327,2,2,1,5,1,2,2,1,C,,,,,,,,,,,,,,,,,,,,,,,,,,,,,,100,1000,100,,,,,,,,,,,,,,0.055436497
X,5,29,2024,1320,93244,41.911525,-69.721155,61,327,2,2,1,5,1,2,2,1,C,,,,,,,,,,,,,,,,,,,,,,,,,,,,,,100,1000,100,,,,,,,,,,,,,,0.055402335
X,5,29,2024,1321,93246,41.91197667,-69.72007,61,326,2,2,1,5,1,2,2,1,C,,,,,,,,,,,,,,,,,,,,,,,,,,,,,,100.3,1000,100,,,,,,,,,,,,,,0.055547808
X,5,29,2024,1322,93248,41.912425,-69.71898333,61,326,2,2,1,5,1,2,2,1,C,,,,,,,,,,,,,,,,,,,,,,,,,,,,,,100.2,1000,100,,,,,,,,,,,,,,0.055515195
X,5,29,2024,1323,93248,41.912425,-69.71898333,61,326,2,2,1,5,1,2,2,1,C,,,,,,,,,,,,,,,,,,,,,,,,,,,,,,100.2,1000,100,,,,,,,,,,,,,,0
X,5,29,2024,1324,93250,41.91287167,-69.717895,61,325,2,2,1,5,1,2,2,1,C,,,,,,,,,,,,,,,,,,,,,,,,,,,,,,100.5,1000,100,,,,,,,,,,,,,,0.055531641
X,5,29,2024,1325,93252,41.91332,-69.71680167,61,324,2,2,1,5,1,2,2,1,C,,,,,,,,,,,,,,,,,,,,,,,,,,,,,,100.5,1000,100,,,,,,,,,,,,,,0.055775292
X,5,29,2024,1326,93254,41.91377,-69.71570833,61,324,2,2,1,5,1,2,2,1,C,,,,,,,,,,,,,,,,,,,,,,,,,,,,,,100.6,1000,100,,,,,,,,,,,,,,0.055823354
X,5,29,2024,1327,93256,41.91422,-69.714615,61,324,2,2,1,5,1,2,2,1,C,,,,,,,,,,,,,,,,,,,,,,,,,,,,,,100.6,1000,100,,,,,,,,,,,,,,0.055823053
X,5,29,2024,1328,93258,41.914665,-69.71352333,61,324,2,2,1,5,1,2,2,1,C,,,,,,,,,,,,,,,,,,,,,,,,,,,,,,100.3,1000,100,,,,,,,,,,,,,,0.055612756
X,5,29,2024,1329,93300,41.91511,-69.71243667,61,326,2,2,1,5,1,2,2,1,C,,,,,,,,,,,,,,,,,,,,,,,,,,,,,,100,1000,100,,,,,,,,,,,,,,0.05541664
X,5,29,2024,1330,93302,41.915555,-69.71135333,61,327,2,2,1,5,1,2,2,1,C,,,,,,,,,,,,,,,,,,,,,,,,,,,,,,99.5,1000,100,,,,,,,,,,,,,,0.055285915
X,5,29,2024,1331,93304,41.915995,-69.710275,62,328,2,2,1,5,1,2,2,1,C,,,,,,,,,,,,,,,,,,,,,,,,,,,,,,99,1000,100,,,,,,,,,,,,,,0.05494519
X,5,29,2024,1332,93306,41.91643167,-69.70919167,62,328,2,2,1,5,1,2,2,1,C,,,,,,,,,,,,,,,,,,,,,,,,,,,,,,99,1000,100,,,,,,,,,,,,,,0.055045273
X,5,29,2024,1333,93308,41.91686167,-69.70811,62,328,2,2,1,5,1,2,2,1,C,,,,,,,,,,,,,,,,,,,,,,,,,,,,,,98.7,1000,100,,,,,,,,,,,,,,0.054789778
X,5,29,2024,1334,93310,41.91729167,-69.70702833,62,328,2,2,1,5,1,2,2,1,C,,,,,,,,,,,,,,,,,,,,,,,,,,,,,,98.7,1000,100,,,,,,,,,,,,,,0.054789491
X,5,29,2024,1335,93312,41.91771833,-69.70595167,62,329,2,2,1,5,1,2,2,1,C,,,,,,,,,,,,,,,,,,,,,,,,,,,,,,98.7,1000,100,,,,,,,,,,,,,,0.054497917
X,5,29,2024,1336,93314,41.918145,-69.70487167,62,329,2,2,1,5,1,2,2,1,C,,,,,,,,,,,,,,,,,,,,,,,,,,,,,,98.6,1000,100,,,,,,,,,,,,,,0.054629121
X,5,29,2024,1337,93316,41.91857167,-69.70379167,62,329,2,2,1,5,1,2,2,1,C,,,,,,,,,,,,,,,,,,,,,,,,,,,,,,98.5,1000,100,,,,,,,,,,,,,,0.054628836
X,5,29,2024,1338,93318,41.91900333,-69.70271333,62,328,2,2,1,5,1,2,2,1,C,,,,,,,,,,,,,,,,,,,,,,,,,,,,,,98.7,1000,100,,,,,,,,,,,,,,0.054704383
X,5,29,2024,1339,93320,41.91943667,-69.70163833,61,328,2,2,1,5,1,2,2,1,C,,,,,,,,,,,,,,,,,,,,,,,,,,,,,,98.5,1000,100,,,,,,,,,,,,,,0.054620591
X,5,29,2024,1340,93322,41.91987667,-69.700565,61,328,2,2,1,5,1,2,2,1,C,,,,,,,,,,,,,,,,,,,,,,,,,,,,,,98.6,1000,100,,,,,,,,,,,,,,0.054746867
X,5,29,2024,1341,93324,41.920325,-69.69950167,60,328,2,2,1,5,1,2,2,1,C,,,,,,,,,,,,,,,,,,,,,,,,,,,,,,98.3,1000,100,,,,,,,,,,,,,,0.054600633
X,5,29,2024,1342,93326,41.92078333,-69.698445,60,328,2,2,1,5,1,2,2,1,C,,,,,,,,,,,,,,,,,,,,,,,,,,,,,,98.3,1000,100,,,,,,,,,,,,,,0.054641318
X,5,29,2024,1343,93328,41.92124833,-69.69739,59,328,2,2,1,5,1,2,2,1,C,,,,,,,,,,,,,,,,,,,,,,,,,,,,,,98.4,1000,100,,,,,,,,,,,,,,0.054779625
X,5,29,2024,1344,93330,41.92171167,-69.69633833,60,327,2,2,1,5,1,2,2,1,C,,,,,,,,,,,,,,,,,,,,,,,,,,,,,,98.5,1000,100,,,,,,,,,,,,,,0.05460021
X,5,29,2024,1345,93332,41.92217667,-69.69528667,59,327,2,2,1,5,1,2,2,1,C,,,,,,,,,,,,,,,,,,,,,,,,,,,,,,98.5,1000,100,,,,,,,,,,,,,,0.054650968
X,5,29,2024,1346,93334,41.92264,-69.69423333,60,326,2,2,1,5,1,2,2,1,C,,,,,,,,,,,,,,,,,,,,,,,,,,,,,,98.7,1000,100,,,,,,,,,,,,,,0.054663701
X,5,29,2024,1347,93336,41.9231,-69.69317333,60,326,2,2,1,5,1,2,2,1,C,,,,,,,,,,,,,,,,,,,,,,,,,,,,,,98.6,1000,100,,,,,,,,,,,,,,0.054818882
X,5,29,2024,1348,93338,41.92355667,-69.692115,60,326,2,2,1,5,1,2,2,1,C,,,,,,,,,,,,,,,,,,,,,,,,,,,,,,98.9,1000,100,,,,,,,,,,,,,,0.05465361
X,5,29,2024,1349,93340,41.924015,-69.69105167,60,325,2,2,1,5,1,2,2,1,C,,,,,,,,,,,,,,,,,,,,,,,,,,,,,,98.9,1000,100,,,,,,,,,,,,,,0.054896744
X,5,29,2024,1350,93342,41.92447833,-69.68998833,60,324,2,2,1,5,1,2,2,1,C,,,,,,,,,,,,,,,,,,,,,,,,,,,,,,99.1,1000,100,,,,,,,,,,,,,,0.055047545
X,5,29,2024,1351,93344,41.92493833,-69.68892333,60,324,2,2,1,5,1,2,2,1,C,,,,,,,,,,,,,,,,,,,,,,,,,,,,,,99.4,1000,100,,,,,,,,,,,,,,0.055010756
X,5,29,2024,1352,93346,41.92539833,-69.68785833,60,324,2,2,1,5,1,2,2,1,C,,,,,,,,,,,,,,,,,,,,,,,,,,,,,,99.4,1000,100,,,,,,,,,,,,,,0.05501046
X,5,29,2024,1353,93348,41.92585833,-69.68679333,60,324,2,2,1,5,1,2,2,1,C,,,,,,,,,,,,,,,,,,,,,,,,,,,,,,99.4,1000,100,,,,,,,,,,,,,,0.055010163
X,5,29,2024,1354,93350,41.92631667,-69.685725,60,324,2,2,1,5,1,2,2,1,C,,,,,,,,,,,,,,,,,,,,,,,,,,,,,,99.6,1000,100,,,,,,,,,,,,,,0.055088637
P,5,29,2024,1355,93351,41.92642422,-69.68547262,60,324,2,2,1,5,1,2,2,1,C,3,,,FIWH,1,,,2,3,0,,,,,,,,,,,,,,,,,,,,99.6,1000,100,,,,,,,,,,,,,,0.012992397
X,5,29,2024,1356,93352,41.92677333,-69.68465333,60,324,2,2,1,5,1,2,2,1,C,,,,,,,,,,,,,,,,,,,,,,,,,,,,,,99.6,1000,100,,,,,,,,,,,,,,0.05516758
X,5,29,2024,1357,93354,41.92723333,-69.68357667,60,323,2,2,1,5,1,2,2,1,C,,,,,,,,,,,,,,,,,,,,,,,,,,,,,,99.9,1000,100,,,,,,,,,,,,,,0.055460596
X,5,29,2024,1358,93356,41.92769833,-69.6825,60,322,2,2,1,5,1,2,2,1,C,,,,,,,,,,,,,,,,,,,,,,,,,,,,,,100.3,1000,100,,,,,,,,,,,,,,0.055610401
X,5,29,2024,1359,93358,41.92816833,-69.68142333,60,322,2,2,1,5,1,2,2,1,C,,,,,,,,,,,,,,,,,,,,,,,,,,,,,,100.8,1000,100,,,,,,,,,,,,,,0.055761416
X,5,29,2024,1360,93400,41.92864333,-69.68034667,59,321,2,2,1,5,1,2,2,1,C,,,,,,,,,,,,,,,,,,,,,,,,,,,,,,101.2,1000,100,,,,,,,,,,,,,,0.055913631
X,5,29,2024,1361,93402,41.92912667,-69.67927167,59,321,2,2,1,5,1,2,2,1,C,,,,,,,,,,,,,,,,,,,,,,,,,,,,,,101.1,1000,100,,,,,,,,,,,,,,0.056106443
X,5,29,2024,1362,93404,41.92961333,-69.67819833,59,322,2,2,1,5,1,2,2,1,C,,,,,,,,,,,,,,,,,,,,,,,,,,,,,,101.1,1000,100,,,,,,,,,,,,,,0.056146322
S,5,29,2024,1363,93406,41.92996152,-69.67747799,56,323,2,3,1,5,1,2,2,1,C,4,,,,,,,,,,,,,,,,,,,,,,,,,,,,,100.9,1000,100,,,,,,,,,,,,,,0.038371169
X,5,29,2024,1364,93406,41.93012167,-69.67714667,55,323,4,-,1,5,1,2,2,1,C,,,,,,,,,,,,,,,,,,,,,,,,,,,,,,100.8,1000,100,,,,,,,,,,,,,,0.056019862
X,5,29,2024,1365,93407,41.93024723,-69.67694098,53,323,4,-,1,5,,,2,1,C,,,,,,,,,,,,,,,,,,,,,,,,,,,,,,100.6,1000,100,,,,,,,,,,,,,,0.011884569
X,5,29,2024,1366,93408,41.93070667,-69.67618833,47,322,4,-,1,5,,,2,1,C,,,,,,,,,,,,,,,,,,,,,,,,,,,,,,99.6,1000,100,,,,,,,,,,,,,,0.055371989
X,5,29,2024,1367,93410,41.93138333,-69.67536,38,322,4,-,1,5,,,2,1,C,,,,,,,,,,,,,,,,,,,,,,,,,,,,,,98.1,1000,100,,,,,,,,,,,,,,0.054950217
X,5,29,2024,1368,93412,41.93215833,-69.67472,32,320,4,-,1,5,,,2,1,C,,,,,,,,,,,,,,,,,,,,,,,,,,,,,,98.2,1000,100,,,,,,,,,,,,,,0.054610994
X,5,29,2024,1369,93414,41.933005,-69.67429167,17,317,4,-,1,5,,,2,1,C,,,,,,,,,,,,,,,,,,,,,,,,,,,,,,96.3,1000,100,,,,,,,,,,,,,,0.054315305
X,5,29,2024,1370,93416,41.93388167,-69.67406833,6,316,4,-,1,5,,,2,1,C,,,,,,,,,,,,,,,,,,,,,,,,,,,,,,95.8,1000,100,,,,,,,,,,,,,,0.053572367
X,5,29,2024,1371,93418,41.934775,-69.67406,357,315,4,-,1,5,,,2,1,C,,,,,,,,,,,,,,,,,,,,,,,,,,,,,,96.5,1000,100,,,,,,,,,,,,,,0.053637433
X,5,29,2024,1372,93420,41.93566667,-69.67424167,347,315,4,-,1,5,,,2,1,C,,,,,,,,,,,,,,,,,,,,,,,,,,,,,,96.1,1000,100,,,,,,,,,,,,,,0.054147466
X,5,29,2024,1373,93422,41.93649667,-69.67463,341,319,4,-,1,5,,,2,1,C,,,,,,,,,,,,,,,,,,,,,,,,,,,,,,94.6,1000,100,,,,,,,,,,,,,,0.052765632
X,5,29,2024,1374,93424,41.93725667,-69.67519,327,325,4,-,1,5,,,2,1,C,,,,,,,,,,,,,,,,,,,,,,,,,,,,,,90.6,1000,100,,,,,,,,,,,,,,0.052035843
X,5,29,2024,1375,93426,41.93792667,-69.67588,320,331,4,-,1,5,,,2,1,C,,,,,,,,,,,,,,,,,,,,,,,,,,,,,,90.2,1000,100,,,,,,,,,,,,,,0.050674597
X,5,29,2024,1376,93428,41.938515,-69.67667833,313,335,4,-,1,5,,,2,1,C,,,,,,,,,,,,,,,,,,,,,,,,,,,,,,89,1000,100,,,,,,,,,,,,,,0.050190282
X,5,29,2024,1377,93430,41.93902833,-69.67756333,305,336,4,-,1,5,,,2,1,C,,,,,,,,,,,,,,,,,,,,,,,,,,,,,,89.4,1000,100,,,,,,,,,,,,,,0.050121757
X,5,29,2024,1378,93432,41.93944833,-69.67855667,300,335,4,-,1,5,,,2,1,C,,,,,,,,,,,,,,,,,,,,,,,,,,,,,,89.7,1000,100,,,,,,,,,,,,,,0.051029649
X,5,29,2024,1379,93434,41.939745,-69.679625,286,332,4,-,1,5,,,2,1,C,,,,,,,,,,,,,,,,,,,,,,,,,,,,,,91.5,1000,100,,,,,,,,,,,,,,0.050929271
X,5,29,2024,1380,93436,41.939915,-69.68077167,277,331,4,-,1,5,,,2,1,C,,,,,,,,,,,,,,,,,,,,,,,,,,,,,,93.4,1000,100,,,,,,,,,,,,,,0.052218447
X,5,29,2024,1381,93438,41.93996333,-69.68194833,270,330,4,-,1,5,,,2,1,C,,,,,,,,,,,,,,,,,,,,,,,,,,,,,,94.1,1000,100,,,,,,,,,,,,,,0.052630991
X,5,29,2024,1382,93440,41.93990333,-69.68312333,263,330,4,-,1,5,,,2,1,C,,,,,,,,,,,,,,,,,,,,,,,,,,,,,,94.9,1000,100,,,,,,,,,,,,,,0.052600002
X,5,29,2024,1383,93442,41.93976833,-69.68428,261,333,4,-,1,5,,,2,1,C,,,,,,,,,,,,,,,,,,,,,,,,,,,,,,94.4,1000,100,,,,,,,,,,,,,,0.052289828
X,5,29,2024,1384,93444,41.93955,-69.68541333,253,336,4,-,1,5,,,2,1,C,,,,,,,,,,,,,,,,,,,,,,,,,,,,,,94.5,1000,100,,,,,,,,,,,,,,0.052285804
X,5,29,2024,1385,93446,41.93925167,-69.68651667,249,340,4,-,1,5,,,2,1,C,,,,,,,,,,,,,,,,,,,,,,,,,,,,,,93.7,1000,100,,,,,,,,,,,,,,0.052430788
X,5,29,2024,1386,93448,41.93891333,-69.68758167,246,342,4,-,1,5,,,2,1,C,,,,,,,,,,,,,,,,,,,,,,,,,,,,,,92.5,1000,100,,,,,,,,,,,,,,0.051720612
X,5,29,2024,1387,93448,41.93891333,-69.68758167,246,342,4,-,1,5,,,2,1,C,,,,,,,,,,,,,,,,,,,,,,,,,,,,,,92.5,1000,100,,,,,,,,,,,,,,0
X,5,29,2024,1388,93450,41.93854333,-69.68862333,245,344,4,-,1,5,,,2,1,C,,,,,,,,,,,,,,,,,,,,,,,,,,,,,,92.7,1000,100,,,,,,,,,,,,,,0.051554406
X,5,29,2024,1389,93452,41.93816333,-69.68965833,244,345,4,-,1,5,,,2,1,C,,,,,,,,,,,,,,,,,,,,,,,,,,,,,,92.6,1000,100,,,,,,,,,,,,,,0.051549038
X,5,29,2024,1390,93454,41.93776667,-69.690685,243,345,4,-,1,5,,,2,1,C,,,,,,,,,,,,,,,,,,,,,,,,,,,,,,93,1000,100,,,,,,,,,,,,,,0.051669352
X,5,29,2024,1391,93456,41.93736,-69.69170833,243,343,4,-,1,5,,,2,1,C,,,,,,,,,,,,,,,,,,,,,,,,,,,,,,93.6,1000,100,,,,,,,,,,,,,,0.051817725
X,5,29,2024,1392,93458,41.93695667,-69.69273833,243,341,4,-,1,5,,,2,1,C,,,,,,,,,,,,,,,,,,,,,,,,,,,,,,94.1,1000,100,,,,,,,,,,,,,,0.05198727
X,5,29,2024,1393,93500,41.936555,-69.69377667,243,339,4,-,1,5,,,2,1,C,,,,,,,,,,,,,,,,,,,,,,,,,,,,,,94.6,1000,100,,,,,,,,,,,,,,0.052270918
X,5,29,2024,1394,93502,41.93616333,-69.69482,244,338,4,-,1,5,,,2,1,C,,,,,,,,,,,,,,,,,,,,,,,,,,,,,,94.4,1000,100,,,,,,,,,,,,,,0.052196166
X,5,29,2024,1395,93504,41.93578333,-69.69587167,244,338,4,-,1,5,,,2,1,C,,,,,,,,,,,,,,,,,,,,,,,,,,,,,,94.2,1000,100,,,,,,,,,,,,,,0.052219143
X,5,29,2024,1396,93506,41.93541667,-69.69692833,246,339,4,-,1,5,,,2,1,C,,,,,,,,,,,,,,,,,,,,,,,,,,,,,,93.5,1000,100,,,,,,,,,,,,,,0.052076919
X,5,29,2024,1397,93508,41.93506,-69.69798667,247,340,4,-,1,5,,,2,1,C,,,,,,,,,,,,,,,,,,,,,,,,,,,,,,93.5,1000,100,,,,,,,,,,,,,,0.051894004
X,5,29,2024,1398,93510,41.934725,-69.69905333,247,340,4,-,1,5,,,2,1,C,,,,,,,,,,,,,,,,,,,,,,,,,,,,,,93,1000,100,,,,,,,,,,,,,,0.051713785
X,5,29,2024,1399,93512,41.9344,-69.70012,248,340,4,-,1,5,,,2,1,C,,,,,,,,,,,,,,,,,,,,,,,,,,,,,,93,1000,100,,,,,,,,,,,,,,0.051483463
X,5,29,2024,1400,93514,41.93408167,-69.70119333,249,339,4,-,1,5,,,2,1,C,,,,,,,,,,,,,,,,,,,,,,,,,,,,,,93.2,1000,100,,,,,,,,,,,,,,0.051609789
X,5,29,2024,1401,93516,41.93376833,-69.70227667,249,338,4,-,1,5,,,2,1,C,,,,,,,,,,,,,,,,,,,,,,,,,,,,,,93.7,1000,100,,,,,,,,,,,,,,0.051915629
X,5,29,2024,1402,93518,41.93345833,-69.703365,249,338,4,-,1,5,,,2,1,C,,,,,,,,,,,,,,,,,,,,,,,,,,,,,,94,1000,100,,,,,,,,,,,,,,0.052052162
X,5,29,2024,1403,93520,41.93314833,-69.70445667,249,337,4,-,1,5,,,2,1,C,,,,,,,,,,,,,,,,,,,,,,,,,,,,,,93.8,1000,100,,,,,,,,,,,,,,0.052191451
X,5,29,2024,1404,93522,41.93284333,-69.70555667,250,336,4,-,1,5,,,2,1,C,,,,,,,,,,,,,,,,,,,,,,,,,,,,,,94.2,1000,100,,,,,,,,,,,,,,0.052433982
X,5,29,2024,1405,93524,41.93255,-69.70666,251,337,4,-,1,5,,,2,1,C,,,,,,,,,,,,,,,,,,,,,,,,,,,,,,94,1000,100,,,,,,,,,,,,,,0.052333868
X,5,29,2024,1406,93526,41.93226833,-69.70776,251,338,4,-,1,5,,,2,1,C,,,,,,,,,,,,,,,,,,,,,,,,,,,,,,93.9,1000,100,,,,,,,,,,,,,,0.051961721
X,5,29,2024,1407,93528,41.93199167,-69.70886,252,339,4,-,1,5,,,2,1,C,,,,,,,,,,,,,,,,,,,,,,,,,,,,,,92.9,1000,100,,,,,,,,,,,,,,0.051864998
X,5,29,2024,1408,93530,41.93172333,-69.709965,252,340,4,-,1,5,,,2,1,C,,,,,,,,,,,,,,,,,,,,,,,,,,,,,,93.5,1000,100,,,,,,,,,,,,,,0.051919384
X,5,29,2024,1409,93532,41.93146,-69.71106,252,341,4,-,1,5,,,2,1,C,,,,,,,,,,,,,,,,,,,,,,,,,,,,,,92.5,1000,100,,,,,,,,,,,,,,0.051402017
X,5,29,2024,1410,93534,41.93119667,-69.71215333,251,342,4,-,1,5,,,2,1,C,,,,,,,,,,,,,,,,,,,,,,,,,,,,,,92.8,1000,100,,,,,,,,,,,,,,0.051331379
X,5,29,2024,1411,93536,41.93088333,-69.71323,246,342,4,-,1,5,,,2,1,C,,,,,,,,,,,,,,,,,,,,,,,,,,,,,,93.7,1000,100,,,,,,,,,,,,,,0.051640238
X,5,29,2024,1412,93538,41.93046667,-69.71425667,237,341,4,-,1,5,,,2,1,C,,,,,,,,,,,,,,,,,,,,,,,,,,,,,,94.6,1000,100,,,,,,,,,,,,,,0.052238315
X,5,29,2024,1413,93540,41.929925,-69.715195,228,340,4,-,1,5,,,2,1,C,,,,,,,,,,,,,,,,,,,,,,,,,,,,,,96.4,1000,100,,,,,,,,,,,,,,0.053050806
X,5,29,2024,1414,93542,41.929275,-69.71602333,224,337,4,-,1,5,,,2,1,C,,,,,,,,,,,,,,,,,,,,,,,,,,,,,,97.1,1000,100,,,,,,,,,,,,,,0.053777845
X,5,29,2024,1415,93544,41.92852167,-69.716725,211,336,4,-,1,5,,,2,1,C,,,,,,,,,,,,,,,,,,,,,,,,,,,,,,98.6,1000,100,,,,,,,,,,,,,,0.055028587
X,5,29,2024,1416,93546,41.92769333,-69.71728333,203,335,4,-,1,5,,,2,1,C,,,,,,,,,,,,,,,,,,,,,,,,,,,,,,99.5,1000,100,,,,,,,,,,,,,,0.05563667
X,5,29,2024,1417,93548,41.92681167,-69.71768667,195,335,4,-,1,5,,,2,1,C,,,,,,,,,,,,,,,,,,,,,,,,,,,,,,101.2,1000,100,,,,,,,,,,,,,,0.055917706
X,5,29,2024,1418,93550,41.92588333,-69.717915,187,334,4,-,1,5,,,2,1,C,,,,,,,,,,,,,,,,,,,,,,,,,,,,,,102.4,1000,100,,,,,,,,,,,,,,0.056663126
X,5,29,2024,1419,93552,41.92493333,-69.717965,183,331,4,-,1,5,,,2,1,C,,,,,,,,,,,,,,,,,,,,,,,,,,,,,,102.3,1000,100,,,,,,,,,,,,,,0.057082149
X,5,29,2024,1420,93554,41.92397667,-69.717845,171,329,4,-,1,5,,,2,1,C,,,,,,,,,,,,,,,,,,,,,,,,,,,,,,104.1,1000,100,,,,,,,,,,,,,,0.057688307
X,5,29,2024,1421,93556,41.92303167,-69.71757,164,329,4,-,1,5,,,2,1,C,,,,,,,,,,,,,,,,,,,,,,,,,,,,,,104.8,1000,100,,,,,,,,,,,,,,0.058052956
X,5,29,2024,1422,93558,41.922115,-69.717135,157,328,4,-,1,5,,,2,1,C,,,,,,,,,,,,,,,,,,,,,,,,,,,,,,105.2,1000,100,,,,,,,,,,,,,,0.058367053
X,5,29,2024,1423,93600,41.92124,-69.716565,151,328,4,-,1,5,,,2,1,C,,,,,,,,,,,,,,,,,,,,,,,,,,,,,,105.1,1000,100,,,,,,,,,,,,,,0.05838135
X,5,29,2024,1424,93602,41.920415,-69.71587833,148,330,4,-,1,5,,,2,1,C,,,,,,,,,,,,,,,,,,,,,,,,,,,,,,105,1000,100,,,,,,,,,,,,,,0.058263119
X,5,29,2024,1425,93604,41.91965,-69.715085,139,332,4,-,1,5,,,2,1,C,,,,,,,,,,,,,,,,,,,,,,,,,,,,,,104.2,1000,100,,,,,,,,,,,,,,0.058015404
X,5,29,2024,1426,93606,41.91895167,-69.71420167,134,333,4,-,1,5,,,2,1,C,,,,,,,,,,,,,,,,,,,,,,,,,,,,,,103.3,1000,100,,,,,,,,,,,,,,0.057578822
X,5,29,2024,1427,93608,41.91832333,-69.713235,129,335,4,-,1,5,,,2,1,C,,,,,,,,,,,,,,,,,,,,,,,,,,,,,,102.9,1000,100,,,,,,,,,,,,,,0.057343588
X,5,29,2024,1428,93610,41.91776833,-69.71219167,123,334,4,-,1,5,,,2,1,C,,,,,,,,,,,,,,,,,,,,,,,,,,,,,,102.6,1000,100,,,,,,,,,,,,,,0.057298147
X,5,29,2024,1429,93612,41.917295,-69.71108333,120,333,4,-,1,5,,,2,1,C,,,,,,,,,,,,,,,,,,,,,,,,,,,,,,102.6,1000,100,,,,,,,,,,,,,,0.057092303
X,5,29,2024,1430,93614,41.916905,-69.70992167,111,331,4,-,1,5,,,2,1,C,,,,,,,,,,,,,,,,,,,,,,,,,,,,,,102.4,1000,100,,,,,,,,,,,,,,0.056937389
X,5,29,2024,1431,93616,41.91660167,-69.708715,106,330,4,-,1,5,,,2,1,C,,,,,,,,,,,,,,,,,,,,,,,,,,,,,,102.4,1000,100,,,,,,,,,,,,,,0.056903531
X,5,29,2024,1432,93618,41.91638167,-69.70747667,101,330,4,-,1,5,,,2,1,C,,,,,,,,,,,,,,,,,,,,,,,,,,,,,,102,1000,100,,,,,,,,,,,,,,0.056880301
X,5,29,2024,1433,93618,41.91638167,-69.70747667,101,330,4,-,1,5,,,2,1,C,,,,,,,,,,,,,,,,,,,,,,,,,,,,,,102,1000,100,,,,,,,,,,,,,,0
X,5,29,2024,1434,93620,41.91624333,-69.706225,96,332,4,-,1,5,,,2,1,C,,,,,,,,,,,,,,,,,,,,,,,,,,,,,,101.2,1000,100,,,,,,,,,,,,,,0.05653462
X,5,29,2024,1435,93622,41.91618833,-69.70498,93,333,4,-,1,5,,,2,1,C,,,,,,,,,,,,,,,,,,,,,,,,,,,,,,101.2,1000,100,,,,,,,,,,,,,,0.055721368
X,5,29,2024,1436,93624,41.91620667,-69.70374333,87,334,4,-,1,5,,,2,1,C,,,,,,,,,,,,,,,,,,,,,,,,,,,,,,99.3,1000,100,,,,,,,,,,,,,,0.0552621
X,5,29,2024,1437,93626,41.9163,-69.70252,82,336,4,-,1,5,,,2,1,C,,,,,,,,,,,,,,,,,,,,,,,,,,,,,,98.6,1000,100,,,,,,,,,,,,,,0.054941913
X,5,29,2024,1438,93628,41.91646167,-69.70131833,78,338,4,-,1,5,,,2,1,C,,,,,,,,,,,,,,,,,,,,,,,,,,,,,,98,1000,100,,,,,,,,,,,,,,0.054557675
X,5,29,2024,1439,93630,41.916685,-69.700145,74,340,4,-,1,5,,,2,1,C,,,,,,,,,,,,,,,,,,,,,,,,,,,,,,96.9,1000,100,,,,,,,,,,,,,,0.054109058
X,5,29,2024,1440,93632,41.91696833,-69.69900667,72,341,4,-,1,5,,,2,1,C,,,,,,,,,,,,,,,,,,,,,,,,,,,,,,96.6,1000,100,,,,,,,,,,,,,,0.053627045
X,5,29,2024,1441,93634,41.91731,-69.69790167,66,341,4,-,1,5,,,2,1,C,,,,,,,,,,,,,,,,,,,,,,,,,,,,,,95.8,1000,100,,,,,,,,,,,,,,0.053460302
X,5,29,2024,1442,93636,41.91770833,-69.69684,61,341,4,-,1,5,,,2,1,C,,,,,,,,,,,,,,,,,,,,,,,,,,,,,,95.7,1000,100,,,,,,,,,,,,,,0.05312003
X,5,29,2024,1443,93638,41.91817167,-69.69583167,56,340,4,-,1,5,,,2,1,C,,,,,,,,,,,,,,,,,,,,,,,,,,,,,,95.4,1000,100,,,,,,,,,,,,,,0.052945769
X,5,29,2024,1444,93640,41.9187,-69.69487667,52,339,4,-,1,5,,,2,1,C,,,,,,,,,,,,,,,,,,,,,,,,,,,,,,95.2,1000,100,,,,,,,,,,,,,,0.053165678
X,5,29,2024,1445,93642,41.91927167,-69.693975,50,339,4,-,1,5,,,2,1,C,,,,,,,,,,,,,,,,,,,,,,,,,,,,,,95.1,1000,100,,,,,,,,,,,,,,0.05292212
X,5,29,2024,1446,93644,41.91987333,-69.69311167,46,339,4,-,1,5,,,2,1,C,,,,,,,,,,,,,,,,,,,,,,,,,,,,,,94.9,1000,100,,,,,,,,,,,,,,0.05284482
X,5,29,2024,1447,93646,41.92049,-69.69227,45,339,4,-,1,5,,,2,1,C,,,,,,,,,,,,,,,,,,,,,,,,,,,,,,94.8,1000,100,,,,,,,,,,,,,,0.052770221
X,5,29,2024,1448,93648,41.92111,-69.691435,45,338,4,-,1,5,,,2,1,C,,,,,,,,,,,,,,,,,,,,,,,,,,,,,,94.8,1000,100,,,,,,,,,,,,,,0.052699339
X,5,29,2024,1449,93648,41.92111,-69.691435,45,338,4,-,1,5,,,2,1,C,,,,,,,,,,,,,,,,,,,,,,,,,,,,,,94.8,1000,100,,,,,,,,,,,,,,0
X,5,29,2024,1450,93650,41.92172167,-69.69059,46,338,4,-,1,5,,,2,1,C,,,,,,,,,,,,,,,,,,,,,,,,,,,,,,94.7,1000,100,,,,,,,,,,,,,,0.052666139
X,5,29,2024,1451,93652,41.92232333,-69.68972833,47,339,4,-,1,5,,,2,1,C,,,,,,,,,,,,,,,,,,,,,,,,,,,,,,94.7,1000,100,,,,,,,,,,,,,,0.052789422
X,5,29,2024,1452,93654,41.92292167,-69.68885833,47,340,4,-,1,5,,,2,1,C,,,,,,,,,,,,,,,,,,,,,,,,,,,,,,95.1,1000,100,,,,,,,,,,,,,,0.052925178
X,5,29,2024,1453,93656,41.92352167,-69.68799333,47,341,4,-,1,5,,,2,1,C,,,,,,,,,,,,,,,,,,,,,,,,,,,,,,95.4,1000,100,,,,,,,,,,,,,,0.052829288
X,5,29,2024,1454,93658,41.92413667,-69.687135,46,341,4,-,1,5,,,2,1,C,,,,,,,,,,,,,,,,,,,,,,,,,,,,,,95.9,1000,100,,,,,,,,,,,,,,0.053232289
X,5,29,2024,1455,93700,41.924755,-69.68628167,46,341,4,-,1,5,,,2,1,C,,,,,,,,,,,,,,,,,,,,,,,,,,,,,,96,1000,100,,,,,,,,,,,,,,0.053210802
X,5,29,2024,1456,93702,41.92539333,-69.68545,45,341,4,-,1,5,,,2,1,C,,,,,,,,,,,,,,,,,,,,,,,,,,,,,,95.9,1000,100,,,,,,,,,,,,,,0.053377052
X,5,29,2024,1457,93704,41.926075,-69.68468,39,340,4,-,1,5,,,2,1,C,,,,,,,,,,,,,,,,,,,,,,,,,,,,,,96.1,1000,100,,,,,,,,,,,,,,0.05346201
X,5,29,2024,1458,93706,41.92680833,-69.68398833,34,337,4,-,1,5,,,2,1,C,,,,,,,,,,,,,,,,,,,,,,,,,,,,,,96.3,1000,100,,,,,,,,,,,,,,0.053788786
X,5,29,2024,1459,93708,41.927595,-69.68338667,28,332,4,-,1,5,,,2,1,C,,,,,,,,,,,,,,,,,,,,,,,,,,,,,,97.9,1000,100,,,,,,,,,,,,,,0.054343181
X,5,29,2024,1460,93710,41.92843833,-69.68291333,20,328,4,-,1,5,,,2,1,C,,,,,,,,,,,,,,,,,,,,,,,,,,,,,,97,1000,100,,,,,,,,,,,,,,0.054871287
X,5,29,2024,1461,93712,41.92932167,-69.68266167,14,326,4,-,1,5,,,2,1,C,,,,,,,,,,,,,,,,,,,,,,,,,,,,,,97,1000,100,,,,,,,,,,,,,,0.054214047
X,5,29,2024,1462,93714,41.9302,-69.682675,355,324,4,-,1,5,,,2,1,C,,,,,,,,,,,,,,,,,,,,,,,,,,,,,,94,1000,100,,,,,,,,,,,,,,0.052738898
X,5,29,2024,1463,93716,41.93105,-69.683045,336,321,4,-,1,5,,,2,1,C,,,,,,,,,,,,,,,,,,,,,,,,,,,,,,94.6,1000,100,,,,,,,,,,,,,,0.053643714
X,5,29,2024,1464,93718,41.93179333,-69.68365,323,320,4,-,1,5,,,2,1,C,,,,,,,,,,,,,,,,,,,,,,,,,,,,,,93.5,1000,100,,,,,,,,,,,,,,0.052173831
P,5,29,2024,1465,93719,41.93213028,-69.68411022,316,320,4,-,1,5,,,2,1,C,5,,,,1,,,1,,0,,,,,,,,,,,,,,,,,,,,93.5,1000,100,,,,,,,,,,EXACT FLUKE PRINT - ,,,,0.028841611
X,5,29,2024,1466,93720,41.93240833,-69.68449,310,321,4,-,1,5,,,2,1,C,,,,,,,,,,,,,,,,,,,,,,,,,,,,,,93.5,1000,100,,,,,,,,,,,,,,0.052641963
X,5,29,2024,1467,93722,41.93284167,-69.68551667,303,321,4,-,1,5,,,2,1,C,,,,,,,,,,,,,,,,,,,,,,,,,,,,,,93.6,1000,100,,,,,,,,,,,,,,0.052723636
X,5,29,2024,1468,93724,41.93308833,-69.68665667,283,321,4,-,1,5,,,2,1,C,,,,,,,,,,,,,,,,,,,,,,,,,,,,,,94.1,1000,100,,,,,,,,,,,,,,0.053028982
X,5,29,2024,1469,93726,41.93317,-69.68784333,271,323,4,-,1,5,,,2,1,C,,,,,,,,,,,,,,,,,,,,,,,,,,,,,,95.4,1000,100,,,,,,,,,,,,,,0.053229513
X,5,29,2024,1470,93728,41.93308167,-69.689035,260,324,4,-,1,5,,,2,1,C,,,,,,,,,,,,,,,,,,,,,,,,,,,,,,95.5,1000,100,,,,,,,,,,,,,,0.053490101
X,5,29,2024,1471,93730,41.932845,-69.69017833,250,327,4,-,1,5,,,2,1,C,,,,,,,,,,,,,,,,,,,,,,,,,,,,,,95.3,1000,100,,,,,,,,,,,,,,0.053007867
X,5,29,2024,1472,93732,41.93248,-69.69125667,246,328,4,-,1,5,,,2,1,C,,,,,,,,,,,,,,,,,,,,,,,,,,,,,,95,1000,100,,,,,,,,,,,,,,0.052915993
X,5,29,2024,1473,93734,41.93198,-69.69224667,231,330,4,-,1,5,,,2,1,C,,,,,,,,,,,,,,,,,,,,,,,,,,,,,,96.5,1000,100,,,,,,,,,,,,,,0.053447034
X,5,29,2024,1474,93736,41.93135833,-69.69311833,222,331,4,-,1,5,,,2,1,C,,,,,,,,,,,,,,,,,,,,,,,,,,,,,,96.6,1000,100,,,,,,,,,,,,,,0.053935663
X,5,29,2024,1475,93738,41.93063667,-69.69385167,214,332,4,-,1,5,,,2,1,C,,,,,,,,,,,,,,,,,,,,,,,,,,,,,,97.6,1000,100,,,,,,,,,,,,,,0.054317279
X,5,29,2024,1476,93740,41.92983833,-69.69444333,205,332,4,-,1,5,,,2,1,C,,,,,,,,,,,,,,,,,,,,,,,,,,,,,,98.4,1000,100,,,,,,,,,,,,,,0.054735391
X,5,29,2024,1477,93742,41.92897333,-69.69487667,201,331,4,-,1,5,,,2,1,C,,,,,,,,,,,,,,,,,,,,,,,,,,,,,,98.9,1000,100,,,,,,,,,,,,,,0.05542479
X,5,29,2024,1478,93744,41.92807,-69.695155,190,329,4,-,1,5,,,2,1,C,,,,,,,,,,,,,,,,,,,,,,,,,,,,,,99.9,1000,100,,,,,,,,,,,,,,0.055643312
X,5,29,2024,1479,93746,41.92714667,-69.69529,183,329,4,-,1,5,,,2,1,C,,,,,,,,,,,,,,,,,,,,,,,,,,,,,,100.3,1000,100,,,,,,,,,,,,,,0.055764378
X,5,29,2024,1480,93748,41.926225,-69.69527333,176,328,4,-,1,5,,,2,1,C,,,,,,,,,,,,,,,,,,,,,,,,,,,,,,100.8,1000,100,,,,,,,,,,,,,,0.055342296
X,5,29,2024,1481,93748,41.926225,-69.69527333,176,328,4,-,1,5,,,2,1,C,,,,,,,,,,,,,,,,,,,,,,,,,,,,,,100.8,1000,100,,,,,,,,,,,,,,0
X,5,29,2024,1482,93750,41.92529833,-69.695075,168,328,4,-,1,5,,,2,1,C,,,,,,,,,,,,,,,,,,,,,,,,,,,,,,101.9,1000,100,,,,,,,,,,,,,,0.056338483
X,5,29,2024,1483,93752,41.92439,-69.69470833,164,326,4,-,1,5,,,2,1,C,,,,,,,,,,,,,,,,,,,,,,,,,,,,,,102.1,1000,100,,,,,,,,,,,,,,0.056943354
X,5,29,2024,1484,93754,41.92352,-69.69417333,153,325,4,-,1,5,,,2,1,C,,,,,,,,,,,,,,,,,,,,,,,,,,,,,,103.5,1000,100,,,,,,,,,,,,,,0.057443049
X,5,29,2024,1485,93756,41.92270667,-69.69348333,144,323,4,-,1,5,,,2,1,C,,,,,,,,,,,,,,,,,,,,,,,,,,,,,,103.5,1000,100,,,,,,,,,,,,,,0.057747541
X,5,29,2024,1486,93758,41.92197833,-69.69262667,135,322,4,-,1,5,,,2,1,C,,,,,,,,,,,,,,,,,,,,,,,,,,,,,,104,1000,100,,,,,,,,,,,,,,0.058110757
X,5,29,2024,1487,93800,41.92135333,-69.69162,127,322,4,-,1,5,,,2,1,C,,,,,,,,,,,,,,,,,,,,,,,,,,,,,,103.9,1000,100,,,,,,,,,,,,,,0.058571151
X,5,29,2024,1488,93802,41.92084,-69.69050667,122,322,4,-,1,5,,,2,1,C,,,,,,,,,,,,,,,,,,,,,,,,,,,,,,104.3,1000,100,,,,,,,,,,,,,,0.058512379
X,5,29,2024,1489,93804,41.92044333,-69.68932167,111,325,4,-,1,5,,,2,1,C,,,,,,,,,,,,,,,,,,,,,,,,,,,,,,102.9,1000,100,,,,,,,,,,,,,,0.058049581
X,5,29,2024,1490,93806,41.92015,-69.68810833,106,329,4,-,1,5,,,2,1,C,,,,,,,,,,,,,,,,,,,,,,,,,,,,,,100.5,1000,100,,,,,,,,,,,,,,0.056994556
X,5,29,2024,1491,93808,41.919945,-69.68689,100,334,4,-,1,5,,,2,1,C,,,,,,,,,,,,,,,,,,,,,,,,,,,,,,99.5,1000,100,,,,,,,,,,,,,,0.055803088
X,5,29,2024,1492,93810,41.91982333,-69.68568167,95,337,4,-,1,5,,,2,1,C,,,,,,,,,,,,,,,,,,,,,,,,,,,,,,97.8,1000,100,,,,,,,,,,,,,,0.054474168
X,5,29,2024,1493,93812,41.91981,-69.68447833,91,339,4,-,1,5,,,2,1,C,,,,,,,,,,,,,,,,,,,,,,,,,,,,,,97.2,1000,100,,,,,,,,,,,,,,0.053764798
X,5,29,2024,1494,93814,41.919945,-69.68329167,78,340,4,-,1,5,,,2,1,C,,,,,,,,,,,,,,,,,,,,,,,,,,,,,,96.5,1000,100,,,,,,,,,,,,,,0.053630257
X,5,29,2024,1495,93816,41.92020333,-69.682145,70,338,4,-,1,5,,,2,1,C,,,,,,,,,,,,,,,,,,,,,,,,,,,,,,96.5,1000,100,,,,,,,,,,,,,,0.053523686
X,5,29,2024,1496,93818,41.920595,-69.68106667,61,336,4,-,1,5,,,2,1,C,,,,,,,,,,,,,,,,,,,,,,,,,,,,,,96.5,1000,100,,,,,,,,,,,,,,0.053607204
X,5,29,2024,1497,93820,41.92108833,-69.680065,53,334,4,-,1,5,,,2,1,C,,,,,,,,,,,,,,,,,,,,,,,,,,,,,,96.2,1000,100,,,,,,,,,,,,,,0.053663636
X,5,29,2024,1498,93822,41.92169,-69.67918167,49,331,4,-,1,5,,,2,1,C,,,,,,,,,,,,,,,,,,,,,,,,,,,,,,96.2,1000,100,,,,,,,,,,,,,,0.053499613
X,5,29,2024,1499,93824,41.9224,-69.67846667,32,329,4,-,1,5,,,2,1,C,,,,,,,,,,,,,,,,,,,,,,,,,,,,,,94.5,1000,100,,,,,,,,,,,,,,0.053267863
X,5,29,2024,1500,93826,41.92318833,-69.67795333,21,326,4,-,1,5,,,2,1,C,,,,,,,,,,,,,,,,,,,,,,,,,,,,,,94.1,1000,100,,,,,,,,,,,,,,0.052594559
X,5,29,2024,1501,93828,41.92402833,-69.67766167,10,324,4,-,1,5,,,2,1,C,,,,,,,,,,,,,,,,,,,,,,,,,,,,,,93.4,1000,100,,,,,,,,,,,,,,0.052089849
X,5,29,2024,1502,93830,41.92488667,-69.677595,359,325,4,-,1,5,,,2,1,C,,,,,,,,,,,,,,,,,,,,,,,,,,,,,,92.3,1000,100,,,,,,,,,,,,,,0.051620704
X,5,29,2024,1503,93832,41.92573667,-69.677715,354,324,4,-,1,5,,,2,1,C,,,,,,,,,,,,,,,,,,,,,,,,,,,,,,91.6,1000,100,,,,,,,,,,,,,,0.051315145
X,5,29,2024,1504,93834,41.926565,-69.67799667,343,324,4,-,1,5,,,2,1,C,,,,,,,,,,,,,,,,,,,,,,,,,,,,,,90.8,1000,100,,,,,,,,,,,,,,0.051300426
X,5,29,2024,1505,93836,41.92736167,-69.67838667,338,324,4,-,1,5,,,2,1,C,,,,,,,,,,,,,,,,,,,,,,,,,,,,,,90.6,1000,100,,,,,,,,,,,,,,0.050906022
X,5,29,2024,1506,93838,41.92813,-69.67885833,333,326,4,-,1,5,,,2,1,C,,,,,,,,,,,,,,,,,,,,,,,,,,,,,,90.9,1000,100,,,,,,,,,,,,,,0.050714714
X,5,29,2024,1507,93840,41.92888,-69.67939833,331,326,4,-,1,5,,,2,1,C,,,,,,,,,,,,,,,,,,,,,,,,,,,,,,90.3,1000,100,,,,,,,,,,,,,,0.051083883
X,5,29,2024,1508,93842,41.9296,-69.67997667,329,326,4,-,1,5,,,2,1,C,,,,,,,,,,,,,,,,,,,,,,,,,,,,,,89.9,1000,100,,,,,,,,,,,,,,0.050359818
X,5,29,2024,1509,93844,41.93030333,-69.68057833,328,329,4,-,1,5,,,2,1,C,,,,,,,,,,,,,,,,,,,,,,,,,,,,,,89.7,1000,100,,,,,,,,,,,,,,0.05005513
X,5,29,2024,1510,93846,41.93100167,-69.68118,327,330,4,-,1,5,,,2,1,C,,,,,,,,,,,,,,,,,,,,,,,,,,,,,,89.6,1000,100,,,,,,,,,,,,,,0.049801969
X,5,29,2024,1511,93848,41.93169167,-69.68178333,327,332,4,-,1,5,,,2,1,C,,,,,,,,,,,,,,,,,,,,,,,,,,,,,,89.2,1000,100,,,,,,,,,,,,,,0.049421869
X,5,29,2024,1512,93848,41.93169167,-69.68178333,327,332,4,-,1,5,,,2,1,C,,,,,,,,,,,,,,,,,,,,,,,,,,,,,,89.2,1000,100,,,,,,,,,,,,,,0
X,5,29,2024,1513,93850,41.932375,-69.682395,326,333,4,-,1,5,,,2,1,C,,,,,,,,,,,,,,,,,,,,,,,,,,,,,,88.7,1000,100,,,,,,,,,,,,,,0.049292
X,5,29,2024,1514,93852,41.93304333,-69.68305167,324,333,4,-,1,5,,,2,1,C,,,,,,,,,,,,,,,,,,,,,,,,,,,,,,89.3,1000,100,,,,,,,,,,,,,,0.049703763
X,5,29,2024,1515,93854,41.93366,-69.683795,317,331,4,-,1,5,,,2,1,C,,,,,,,,,,,,,,,,,,,,,,,,,,,,,,89.6,1000,100,,,,,,,,,,,,,,0.049731024
X,5,29,2024,1516,93856,41.934225,-69.68461833,310,330,4,-,1,5,,,2,1,C,,,,,,,,,,,,,,,,,,,,,,,,,,,,,,89.6,1000,100,,,,,,,,,,,,,,0.050031026
X,5,29,2024,1517,93858,41.93472667,-69.685535,303,333,4,-,1,5,,,2,1,C,,,,,,,,,,,,,,,,,,,,,,,,,,,,,,89.7,1000,100,,,,,,,,,,,,,,0.050828436
X,5,29,2024,1518,93900,41.93512,-69.68651,294,334,4,-,1,5,,,2,1,C,,,,,,,,,,,,,,,,,,,,,,,,,,,,,,89.2,1000,100,,,,,,,,,,,,,,0.049539052
X,5,29,2024,1519,93902,41.93539333,-69.68755667,290,335,4,-,1,5,,,2,1,C,,,,,,,,,,,,,,,,,,,,,,,,,,,,,,89.4,1000,100,,,,,,,,,,,,,,0.049545336
X,5,29,2024,1520,93904,41.93554167,-69.68865333,276,335,4,-,1,5,,,2,1,C,,,,,,,,,,,,,,,,,,,,,,,,,,,,,,89.9,1000,100,,,,,,,,,,,,,,0.049784572
X,5,29,2024,1521,93906,41.93555333,-69.68977333,266,335,4,-,1,5,,,2,1,C,,,,,,,,,,,,,,,,,,,,,,,,,,,,,,90.3,1000,100,,,,,,,,,,,,,,0.050028494
X,5,29,2024,1522,93908,41.93540833,-69.69088333,256,335,4,-,1,5,,,2,1,C,,,,,,,,,,,,,,,,,,,,,,,,,,,,,,90.5,1000,100,,,,,,,,,,,,,,0.050335587
X,5,29,2024,1523,93910,41.93513167,-69.69196,247,335,4,-,1,5,,,2,1,C,,,,,,,,,,,,,,,,,,,,,,,,,,,,,,92.1,1000,100,,,,,,,,,,,,,,0.050876541
X,5,29,2024,1524,93912,41.93473,-69.69297667,243,335,4,-,1,5,,,2,1,C,,,,,,,,,,,,,,,,,,,,,,,,,,,,,,92.1,1000,100,,,,,,,,,,,,,,0.051415453
X,5,29,2024,1525,93914,41.93421833,-69.693905,230,336,4,-,1,5,,,2,1,C,,,,,,,,,,,,,,,,,,,,,,,,,,,,,,92.6,1000,100,,,,,,,,,,,,,,0.051604265
X,5,29,2024,1526,93916,41.93361833,-69.694735,223,338,4,-,1,5,,,2,1,C,,,,,,,,,,,,,,,,,,,,,,,,,,,,,,92.7,1000,100,,,,,,,,,,,,,,0.051692181
X,5,29,2024,1527,93918,41.93295167,-69.69546333,216,339,4,-,1,5,,,2,1,C,,,,,,,,,,,,,,,,,,,,,,,,,,,,,,93.6,1000,100,,,,,,,,,,,,,,0.051579539
X,5,29,2024,1528,93920,41.93221167,-69.696085,209,339,4,-,1,5,,,2,1,C,,,,,,,,,,,,,,,,,,,,,,,,,,,,,,94.4,1000,100,,,,,,,,,,,,,,0.052393184
X,5,29,2024,1529,93922,41.93140833,-69.696575,205,337,4,-,1,5,,,2,1,C,,,,,,,,,,,,,,,,,,,,,,,,,,,,,,95.2,1000,100,,,,,,,,,,,,,,0.052966003
X,5,29,2024,1530,93924,41.93054833,-69.69693833,195,336,4,-,1,5,,,2,1,C,,,,,,,,,,,,,,,,,,,,,,,,,,,,,,97.5,1000,100,,,,,,,,,,,,,,0.05412517
