rectype,month,day,year,eventno,time,lat,long,heading,alt,legtype,legstage,legno,visiblty,glarel,glarer,beaufort,cloud,wx,sightno,strip,speccode,number,numcalf,anhead,photos,idrel,confidnc,behav1,behav2,behav3,behav4,behav5,behav6,behav7,behav8,behav9,behav10,behav11,behav12,behav13,behav14,behav15,psightings,ssightings,pnum,snum,legflag,view,refno,stratum,utc,radalt,gpsspeed,setalt,setvel,lensfl,ggf,int,gpsq,gpssats,roll,pitch,yaw,maghead,notes,edits,glarev,ph_qual
S,4,25,2022,278,92320,41.4382,-71.1762,220,324,1,-,,5, , ,2,4,C,5,,,,,, , ,,,,,,,,,,,,,,,,,2,3,,,,T,278,,,,100,1000,100,85,5,5,N,8,,,,,,GOING ON WATCH, ,
X,4,25,2022,279,92321,41.4365,-71.1782,220,330,1,-,,, , , ,, ,,,,,,, , ,,,,,,,,,,,,,,,,,2,3,,,,T,279,,,,98.2,1000,100,85,5,5,3,8,,,,,,, ,
X,4,25,2022,280,92326,41.4348,-71.18,219,330, , ,,, , , ,, ,,,,,,, , ,,,,,,,,,,,,,,,,,2,3,,,,F,280,,,,98.7,1000,100,85,5,5,3,8,,,,,,, ,
X,4,25,2022,281,92331,41.433,-71.1819,216,329, , ,,, , , ,, ,,,,,,, , ,,,,,,,,,,,,,,,,,2,3,,,,F,281,,,,97.8,1000,100,85,5,5,3,8,,,,,,, ,
X,4,25,2022,282,92336,41.4311,-71.1836,216,331, , ,,, , , ,, ,,,,,,, , ,,,,,,,,,,,,,,,,,2,3,,,,F,282,,,,96.9,1000,100,85,5,5,3,8,,,,,,, ,
X,4,25,2022,283,92341,41.4294,-71.1855,219,327, , ,,, , , ,, ,,,,,,, , ,,,,,,,,,,,,,,,,,2,3,,,,F,283,,,,100.4,1000,100,85,5,5,3,8,,,,,,, ,
X,4,25,2022,284,92346,41.4274,-71.1876,218,324, , ,,, , , ,, ,,,,,,, , ,,,,,,,,,,,,,,,,,2,3,,,,F,284,,,,101.7,1000,100,85,5,5,3,8,,,,,,, ,
X,4,25,2022,285,92351,41.4259,-71.1893,224,328, , ,,, , , ,, ,,,,,,, , ,,,,,,,,,,,,,,,,,2,3,,,,F,285,,,,102.5,1000,100,85,5,5,3,8,,,,,,, ,
X,4,25,2022,286,92356,41.4241,-71.1919,227,327, , ,,, , , ,, ,,,,,,, , ,,,,,,,,,,,,,,,,,2,3,,,,F,286,,,,103.6,1000,100,85,5,5,3,8,,,,,,, ,
Z,4,25,2022,287,92358,41.4235,-71.1927,225,326, , ,,, , , ,, ,,,,,,, , ,,,,,,,,,,,,,,,,,2,3,,,,F,287,,,,103.5,1000,100,85,5,5,3,8,,,,,,, ,
X,4,25,2022,288,92401,41.4224,-71.1942,224,327, , ,,, , , ,, ,,,,,,, , ,,,,,,,,,,,,,,,,,2,3,,,,F,288,,,,102.4,1000,100,85,5,5,3,8,,,,,,, ,
X,4,25,2022,289,92406,41.4206,-71.1964,223,324, , ,,, , , ,, ,,,,,,, , ,,,,,,,,,,,,,,,,,2,3,,,,F,289,,,,103.8,1000,100,85,5,5,3,8,,,,,,, ,
X,4,25,2022,290,92411,41.4189,-71.1986,223,317, , ,,, , , ,, ,,,,,,, , ,,,,,,,,,,,,,,,,,2,3,,,,F,290,,,,106.2,1000,100,85,5,5,3,8,,,,,,, ,
X,4,25,2022,291,92416,41.4171,-71.201,226,314, , ,,, , , ,, ,,,,,,, , ,,,,,,,,,,,,,,,,,2,3,,,,F,291,,,,107.8,1000,100,85,5,5,3,8,,,,,,, ,
X,4,25,2022,292,92421,41.4156,-71.2032,225,324, , ,,, , , ,, ,,,,,,, , ,,,,,,,,,,,,,,,,,2,3,,,,F,292,,,,108.6,1000,100,85,5,5,3,8,,,,,,, ,
X,4,25,2022,293,92426,41.4137,-71.2058,226,327, , ,,, , , ,, ,,,,,,, , ,,,,,,,,,,,,,,,,,2,3,,,,F,293,,,,112.8,1000,100,85,5,5,3,7,,,,,,, ,
X,4,25,2022,294,92431,41.4119,-71.2083,224,317, , ,,, , , ,, ,,,,,,, , ,,,,,,,,,,,,,,,,,2,3,,,,F,294,,,,112,1000,100,85,5,5,3,8,,,,,,, ,
X,4,25,2022,295,92436,41.41,-71.2106,221,310, , ,,, , , ,, ,,,,,,, , ,,,,,,,,,,,,,,,,,2,3,,,,F,295,,,,109,1000,100,85,5,5,3,8,,,,,,, ,
X,4,25,2022,296,92441,41.4081,-71.2127,219,308, , ,,, , , ,, ,,,,,,, , ,,,,,,,,,,,,,,,,,2,3,,,,F,296,,,,106.7,1000,100,85,5,5,3,8,,,,,,, ,
X,4,25,2022,297,92446,41.4064,-71.2146,221,310, , ,,, , , ,, ,,,,,,, , ,,,,,,,,,,,,,,,,,2,3,,,,F,297,,,,105.9,1000,100,85,5,5,3,8,,,,,,, ,
Z,4,25,2022,298,92448,41.4057,-71.2155,223,310, , ,,, , , ,, ,,,,,,, , ,,,,,,,,,,,,,,,,,2,3,,,,F,298,,,,106.5,1000,100,85,5,5,3,8,,,,,,, ,
X,4,25,2022,299,92451,41.4043,-71.2172,224,307, , ,,, , , ,, ,,,,,,, , ,,,,,,,,,,,,,,,,,2,3,,,,F,299,,,,107.4,1000,100,85,5,5,3,8,,,,,,, ,
X,4,25,2022,300,92456,41.4026,-71.2194,223,301, , ,,, , , ,, ,,,,,,, , ,,,,,,,,,,,,,,,,,2,3,,,,F,300,,,,108.6,1000,100,85,5,5,3,8,,,,,,, ,
X,4,25,2022,301,92501,41.4007,-71.2217,221,296, , ,,, , , ,, ,,,,,,, , ,,,,,,,,,,,,,,,,,2,3,,,,F,301,,,,109,1000,100,85,5,5,3,8,,,,,,, ,
X,4,25,2022,302,92506,41.3987,-71.2239,219,292, , ,,, , , ,, ,,,,,,, , ,,,,,,,,,,,,,,,,,2,3,,,,F,302,,,,108.6,1000,100,85,5,5,3,8,,,,,,, ,
X,4,25,2022,303,92511,41.3968,-71.226,219,290, , ,,, , , ,, ,,,,,,, , ,,,,,,,,,,,,,,,,,2,3,,,,F,303,,,,108.3,1000,100,85,5,5,3,7,,,,,,, ,
X,4,25,2022,304,92516,41.3952,-71.2279,221,297, , ,,, , , ,, ,,,,,,, , ,,,,,,,,,,,,,,,,,2,3,,,,F,304,,,,105,1000,100,85,5,5,3,7,,,,,,, ,
X,4,25,2022,305,92521,41.3933,-71.2301,220,304, , ,,, , , ,, ,,,,,,, , ,,,,,,,,,,,,,,,,,2,3,,,,F,305,,,,102.1,1000,100,85,5,5,3,7,,,,,,, ,
X,4,25,2022,306,92526,41.3915,-71.2322,221,308, , ,,, , , ,, ,,,,,,, , ,,,,,,,,,,,,,,,,,2,3,,,,F,306,,,,100.1,1000,100,85,5,5,3,7,,,,,,, ,
X,4,25,2022,307,92531,41.3898,-71.2342,222,314, , ,,, , , ,, ,,,,,,, , ,,,,,,,,,,,,,,,,,2,3,,,,F,307,,,,96.5,1000,100,85,5,5,3,8,,,,,,, ,
X,4,25,2022,308,92536,41.388,-71.2363,221,311, , ,,, , , ,, ,,,,,,, , ,,,,,,,,,,,,,,,,,2,3,,,,F,308,,,,97.2,1000,100,85,5,5,3,8,,,,,,, ,
Z,4,25,2022,309,92537,41.3877,-71.2367,221,311, , ,,, , , ,, ,,,,,,, , ,,,,,,,,,,,,,,,,,2,3,,,,F,309,,,,97.6,1000,100,85,5,5,3,8,,,,,,, ,
X,4,25,2022,310,92541,41.3864,-71.2382,219,310, , ,,, , , ,, ,,,,,,, , ,,,,,,,,,,,,,,,,,2,3,,,,F,310,,,,97.1,1000,100,85,5,5,3,8,,,,,,, ,
X,4,25,2022,311,92546,41.3847,-71.2399,218,309, , ,,, , , ,, ,,,,,,, , ,,,,,,,,,,,,,,,,,2,3,,,,F,311,,,,96.4,1000,100,85,5,5,3,8,,,,,,, ,
X,4,25,2022,312,92551,41.383,-71.2419,222,312, , ,,, , , ,, ,,,,,,, , ,,,,,,,,,,,,,,,,,2,3,,,,F,312,,,,95.4,1000,100,85,5,5,3,8,,,,,,, ,
X,4,25,2022,313,92556,41.3812,-71.244,220,315, , ,,, , , ,, ,,,,,,, , ,,,,,,,,,,,,,,,,,2,3,,,,F,313,,,,94.2,1000,100,85,5,5,3,8,,,,,,, ,
X,4,25,2022,314,92601,41.3795,-71.2459,220,309, , ,,, , , ,, ,,,,,,, , ,,,,,,,,,,,,,,,,,2,3,,,,F,314,,,,97.3,1000,100,85,5,5,3,8,,,,,,, ,
X,4,25,2022,315,92606,41.378,-71.2476,219,305, , ,,, , , ,, ,,,,,,, , ,,,,,,,,,,,,,,,,,2,3,,,,F,315,,,,98.1,1000,100,85,5,5,3,8,,,,,,, ,
X,4,25,2022,316,92611,41.376,-71.2497,222,303, , ,,, , , ,, ,,,,,,, , ,,,,,,,,,,,,,,,,,2,3,,,,F,316,,,,99.1,1000,100,85,5,5,3,8,,,,,,, ,
X,4,25,2022,317,92616,41.3747,-71.2515,228,300, , ,,, , , ,, ,,,,,,, , ,,,,,,,,,,,,,,,,,2,3,,,,F,317,,,,101.3,1000,100,85,5,5,3,8,,,,,,, ,
X,4,25,2022,318,92621,41.3729,-71.2542,228,298, , ,,, , , ,, ,,,,,,, , ,,,,,,,,,,,,,,,,,2,3,,,,F,318,,,,102.4,1000,100,85,5,5,3,8,,,,,,, ,
X,4,25,2022,319,92626,41.3713,-71.2566,226,301, , ,,, , , ,, ,,,,,,, , ,,,,,,,,,,,,,,,,,2,3,,,,F,319,,,,100.2,1000,100,85,5,5,3,7,,,,,,, ,
Z,4,25,2022,320,92627,41.371,-71.257,226,302, , ,,, , , ,, ,,,,,,, , ,,,,,,,,,,,,,,,,,2,3,,,,F,320,,,,99.6,1000,100,85,5,5,3,8,,,,,,, ,
X,4,25,2022,321,92631,41.3697,-71.2588,225,305, , ,,, , , ,, ,,,,,,, , ,,,,,,,,,,,,,,,,,2,3,,,,F,321,,,,98.4,1000,100,85,5,5,3,8,,,,,,, ,
X,4,25,2022,322,92636,41.3681,-71.261,229,299, , ,,, , , ,, ,,,,,,, , ,,,,,,,,,,,,,,,,,2,3,,,,F,322,,,,101.2,1000,100,85,5,5,3,7,,,,,,, ,
X,4,25,2022,323,92641,41.3666,-71.2636,235,299, , ,,, , , ,, ,,,,,,, , ,,,,,,,,,,,,,,,,,2,3,,,,F,323,,,,106.2,1000,100,85,5,5,3,7,,,,,,, ,
X,4,25,2022,324,92646,41.3654,-71.2661,239,288, , ,,, , , ,, ,,,,,,, , ,,,,,,,,,,,,,,,,,2,3,,,,F,324,,,,108.7,1000,100,85,5,5,3,8,,,,,,, ,
X,4,25,2022,325,92651,41.3641,-71.2691,238,293, , ,,, , , ,, ,,,,,,, , ,,,,,,,,,,,,,,,,,2,3,,,,T,325,,,,106.9,1000,100,85,5,5,3,8,,,,,,, ,
S,4,25,2022,326,92652,41.3638,-71.2696,237,294, , ,,, , , ,, ,6,,FV-U,1,,17,1,9,0,,,,,,,,,,,,,,,,2,4,,,,T,326,,,,106.5,1000,100,85,5,5,3,8,,,,,,7 DEGREES, ,
X,4,25,2022,327,92656,41.3627,-71.2718,235,294, , ,,, , , ,, ,,,,,,, , ,,,,,,,,,,,,,,,,,2,4,,,,T,327,,,,104.8,1000,100,85,5,5,3,8,,,,,,, ,
X,4,25,2022,328,92701,41.3613,-71.2746,234,289, , ,,, , , ,, ,,,,,,, , ,,,,,,,,,,,,,,,,,2,4,,,,F,328,,,,104.4,1000,100,85,5,5,3,8,,,,,,, ,
X,4,25,2022,329,92706,41.3598,-71.2772,232,281, , ,,, , , ,, ,,,,,,, , ,,,,,,,,,,,,,,,,,2,4,,,,F,329,,,,105.6,1000,100,85,5,5,3,8,,,,,,, ,
X,4,25,2022,330,92711,41.3585,-71.2795,230,281, , ,,, , , ,, ,,,,,,, , ,,,,,,,,,,,,,,,,,2,4,,,,T,330,,,,105.9,1000,100,85,5,5,3,8,,,,,,, ,
S,4,25,2022,331,92716,41.3578,-71.2805,230,279, , ,,, , , ,, ,7,,FG-U,10,,,1,9,9,,,,,,,,,,,,,,,,2,5,,,,T,331,,,,106.1,1000,100,85,5,5,N,8,,,,,,ENTER FG-U FIELD; AT LEAST 10 PIECES, ,
X,4,25,2022,332,92716,41.3567,-71.2822,228,276, , ,,, , , ,, ,,,,,,, , ,,,,,,,,,,,,,,,,,2,5,,,,T,332,,,,105.9,1000,100,85,5,5,3,8,,,,,,, ,
Z,4,25,2022,333,92717,41.3565,-71.2826,228,275, , ,,, , , ,, ,,,,,,, , ,,,,,,,,,,,,,,,,,2,5,,,,F,333,,,,105.7,1000,100,85,5,5,3,8,,,,,,, ,
X,4,25,2022,334,92721,41.3551,-71.2846,228,273, , ,,, , , ,, ,,,,,,, , ,,,,,,,,,,,,,,,,,2,5,,,,F,334,,,,105.1,1000,100,85,5,5,3,8,,,,,,, ,
X,4,25,2022,335,92726,41.3535,-71.2871,234,270, , ,,, , , ,, ,,,,,,, , ,,,,,,,,,,,,,,,,,2,5,,,,T,335,,,,105.8,1000,100,85,5,5,3,8,,,,,,, ,
S,4,25,2022,336,92730,41.3528,-71.2885,234,270, , ,,, , , ,, ,8,,FV-U,1,,21,1,9,0,,,,,,,,,,,,,,,,2,6,,,,T,336,,,,105.6,1000,100,85,5,5,3,8,,,,,,14 DEGREES, ,
X,4,25,2022,337,92731,41.3521,-71.2898,234,271, , ,,, , , ,, ,,,,,,, , ,,,,,,,,,,,,,,,,,2,6,,,,T,337,,,,103.5,1000,100,85,5,5,3,8,,,,,,, ,
X,4,25,2022,338,92736,41.3508,-71.2923,233,285, , ,,, , , ,, ,,,,,,, , ,,,,,,,,,,,,,,,,,2,6,,,,F,338,,,,97,1000,100,85,5,5,3,8,,,,,,, ,
X,4,25,2022,339,92741,41.3496,-71.2942,231,291, , ,,, , , ,, ,,,,,,, , ,,,,,,,,,,,,,,,,,2,6,,,,T,339,,,,95.1,1000,100,85,5,5,3,8,,,,,,, ,
S,4,25,2022,340,92743,41.3493,-71.2948,230,290, , ,,, , , ,, ,9,,FV-U,1,,4,1,9,0,,,,,,,,,,,,,,,,2,7,,,,T,340,,,,96,1000,100,85,5,5,3,8,,,,,,6 DEGREES, ,
X,4,25,2022,341,92746,41.348,-71.2967,228,285, , ,,, , , ,, ,,,,,,, , ,,,,,,,,,,,,,,,,,2,7,,,,T,341,,,,97.9,1000,100,85,5,5,3,8,,,,,,, ,
X,4,25,2022,342,92751,41.3465,-71.299,227,288, , ,,, , , ,, ,,,,,,, , ,,,,,,,,,,,,,,,,,2,7,,,,T,342,,,,95.4,1000,100,85,5,5,3,8,,,,,,, ,
S,4,25,2022,343,92755,41.3455,-71.3003,220,291, , ,,, , , ,, ,10,,FV-U,1,,,1,9,0,,,,,,,,,,,,,,,,2,8,,,,T,343,,,,91.5,1000,100,85,5,5,3,8,,,,,,NO DEGREES; WHILE BANKING, ,
X,4,25,2022,344,92756,41.345,-71.3009,214,291, , ,,, , , ,, ,,,,,,, , ,,,,,,,,,,,,,,,,,2,8,,,,T,344,,,,89.8,1000,100,85,5,5,3,8,,,,,,, ,
X,4,25,2022,345,92801,41.3432,-71.3022,203,292, , ,,, , , ,, ,,,,,,, , ,,,,,,,,,,,,,,,,,2,8,,,,T,345,,,,85.7,1000,100,85,5,5,3,8,,,,,,, ,
S,4,25,2022,346,92804,41.3426,-71.3025,200,293, , ,,, , , ,, ,11,,,,,, , ,,,,,,,,,,,,,,,,,2,9,,,,T,346,,,,84.3,1000,100,85,5,5,3,8,,,,,,END FG-U FIELD, ,
X,4,25,2022,347,92806,41.3412,-71.303,191,297, , ,,, , , ,, ,,,,,,, , ,,,,,,,,,,,,,,,,,2,9,,,,T,347,,,,80.1,1000,100,85,5,5,3,8,,,,,,, ,
Z,4,25,2022,348,92807,41.341,-71.303,190,297, , ,,, , , ,, ,,,,,,, , ,,,,,,,,,,,,,,,,,2,9,,,,F,348,,,,79.2,1000,100,85,5,5,3,8,,,,,,, ,
X,4,25,2022,349,92811,41.3394,-71.3031,175,302, , ,,, , , ,, ,,,,,,, , ,,,,,,,,,,,,,,,,,2,9,,,,F,349,,,,74.9,1000,100,85,5,5,3,8,,,,,,, ,
X,4,25,2022,350,92816,41.3379,-71.3027,167,307, , ,,, , , ,, ,,,,,,, , ,,,,,,,,,,,,,,,,,2,9,,,,F,350,,,,72.9,1000,100,85,5,5,3,8,,,,,,, ,
X,4,25,2022,351,92821,41.3361,-71.3023,172,310, , ,,, , , ,, ,,,,,,, , ,,,,,,,,,,,,,,,,,2,9,,,,F,351,,,,75,1000,100,85,5,5,3,7,,,,,,, ,
X,4,25,2022,352,92826,41.3343,-71.302,174,312, , ,,, , , ,, ,,,,,,, , ,,,,,,,,,,,,,,,,,2,9,,,,F,352,,,,77.4,1000,100,85,5,5,3,7,,,,,,, ,
X,4,25,2022,353,92831,41.3325,-71.3018,174,318, , ,,, , , ,, ,,,,,,, , ,,,,,,,,,,,,,,,,,2,9,,,,T,353,,,,79.3,1000,100,85,5,5,3,7,,,,,,, ,
S,4,25,2022,354,92834,41.3324,-71.3018,174,318,2,1,3,,3,2,2,, ,12,,,,,, , ,,,,,,,,,,,,,,,,,2,10,,,,T,354,,,,79.3,1000,100,85,5,5,3,7,,,,,,BEGIN LINE, ,
X,4,25,2022,355,92836,41.3307,-71.3016,175,321,2,2,,, , , ,, ,,,,,,, , ,,,,,,,,,,,,,,,,,2,10,,,,T,355,,,,82.3,1000,100,85,5,5,3,7,,,,,,, ,
X,4,25,2022,356,92841,41.3287,-71.3015,178,322, , ,,, , , ,, ,,,,,,, , ,,,,,,,,,,,,,,,,,2,10,,,,F,356,,,,87,1000,100,85,5,5,3,8,,,,,,, ,
X,4,25,2022,357,92846,41.327,-71.3015,180,324, , ,,, , , ,, ,,,,,,, , ,,,,,,,,,,,,,,,,,2,10,,,,F,357,,,,89.6,1000,100,85,5,5,3,7,,,,,,, ,
X,4,25,2022,358,92851,41.3247,-71.3014,177,330, , ,,, , , ,, ,,,,,,, , ,,,,,,,,,,,,,,,,,2,10,,,,F,358,,,,90,1000,100,85,5,5,3,7,,,,,,, ,
X,4,25,2022,359,92856,41.3224,-71.3013,178,339, , ,,, , , ,, ,,,,,,, , ,,,,,,,,,,,,,,,,,2,10,,,,F,359,,,,90.5,1000,100,85,5,5,3,7,,,,,,, ,
Z,4,25,2022,360,92857,41.3223,-71.3013,178,339, , ,,, , , ,, ,,,,,,, , ,,,,,,,,,,,,,,,,,2,10,,,,F,360,,,,90.4,1000,100,85,5,5,3,7,,,,,,, ,
X,4,25,2022,361,92901,41.3204,-71.3012,179,348, , ,,, , , ,, ,,,,,,, , ,,,,,,,,,,,,,,,,,2,10,,,,F,361,,,,90.5,1000,100,85,5,5,3,7,,,,,,, ,
X,4,25,2022,362,92906,41.3182,-71.3013,180,350, , ,,, , , ,, ,,,,,,, , ,,,,,,,,,,,,,,,,,2,10,,,,F,362,,,,93.2,1000,100,85,5,5,3,7,,,,,,, ,
X,4,25,2022,363,92911,41.3162,-71.3012,178,341, , ,,, , , ,, ,,,,,,, , ,,,,,,,,,,,,,,,,,2,10,,,,F,363,,,,99.8,1000,100,85,5,5,3,7,,,,,,, ,
X,4,25,2022,364,92916,41.3137,-71.3011,179,328, , ,,, , , ,, ,,,,,,, , ,,,,,,,,,,,,,,,,,2,10,,,,F,364,,,,107,1000,100,85,5,5,3,7,,,,,,, ,
X,4,25,2022,365,92921,41.3112,-71.301,176,332, , ,,, , , ,, ,,,,,,, , ,,,,,,,,,,,,,,,,,2,10,,,,F,365,,,,106.3,1000,100,85,5,5,3,7,,,,,,, ,
X,4,25,2022,366,92926,41.3087,-71.3008,177,339, , ,,, , , ,, ,,,,,,, , ,,,,,,,,,,,,,,,,,2,10,,,,F,366,,,,106.3,1000,100,85,5,5,3,7,,,,,,, ,
X,4,25,2022,367,92931,41.3061,-71.3007,178,338, , ,,, , , ,, ,,,,,,, , ,,,,,,,,,,,,,,,,,2,10,,,,F,367,,,,108.8,1000,100,85,5,5,3,8,,,,,,, ,
X,4,25,2022,368,92936,41.3037,-71.3006,177,338, , ,,, , , ,, ,,,,,,, , ,,,,,,,,,,,,,,,,,2,10,,,,F,368,,,,110.6,1000,100,85,5,5,3,8,,,,,,, ,
X,4,25,2022,369,92941,41.301,-71.3004,177,333, , ,,, , , ,, ,,,,,,, , ,,,,,,,,,,,,,,,,,2,10,,,,F,369,,,,113.9,1000,100,85,5,5,3,8,,,,,,, ,
Z,4,25,2022,370,92942,41.3004,-71.3004,178,332, , ,,, , , ,, ,,,,,,, , ,,,,,,,,,,,,,,,,,2,10,,,,F,370,,,,114.1,1000,100,85,5,5,3,8,,,,,,, ,
X,4,25,2022,371,92946,41.2983,-71.3004,179,333, , ,,, , , ,, ,,,,,,, , ,,,,,,,,,,,,,,,,,2,10,,,,F,371,,,,115.1,1000,100,85,5,5,3,9,,,,,,, ,
X,4,25,2022,372,92951,41.2956,-71.3004,178,336, , ,,, , , ,, ,,,,,,, , ,,,,,,,,,,,,,,,,,2,10,,,,F,372,,,,115.5,1000,100,85,5,5,3,9,,,,,,, ,
X,4,25,2022,373,92956,41.2929,-71.3002,178,333, , ,,, , , ,, ,,,,,,, , ,,,,,,,,,,,,,,,,,2,10,,,,F,373,,,,117.4,1000,100,85,5,5,3,9,,,,,,, ,
X,4,25,2022,374,93001,41.2902,-71.3001,178,332, , ,,, , , ,, ,,,,,,, , ,,,,,,,,,,,,,,,,,2,10,,,,F,374,,,,118.3,1000,100,85,5,5,3,9,,,,,,, ,
X,4,25,2022,375,93006,41.2877,-71.3001,178,334, , ,,, , , ,, ,,,,,,, , ,,,,,,,,,,,,,,,,,2,10,,,,F,375,,,,117.9,1000,100,85,5,5,3,8,,,,,,, ,
X,4,25,2022,376,93011,41.2849,-71.3,179,336, , ,,, , , ,, ,,,,,,, , ,,,,,,,,,,,,,,,,,2,10,,,,T,376,,,,117.1,1000,100,85,5,5,3,9,,,,,,, ,
S,4,25,2022,377,93016,41.2826,-71.2999,179,333, , ,,, , , ,, ,13,,FV-U,1,,8,1,9,0,,,,,,,,,,,,,,,,2,11,,,,T,377,,,,118.6,1000,100,85,5,5,3,9,,,,,,ON TRACKLINE, ,
X,4,25,2022,378,93016,41.2822,-71.2999,179,332, , ,,, , , ,, ,,,,,,, , ,,,,,,,,,,,,,,,,,2,11,,,,T,378,,,,118.9,1000,100,85,5,5,3,9,,,,,,, ,
X,4,25,2022,379,93021,41.2794,-71.2999,180,328, , ,,, , , ,, ,,,,,,, , ,,,,,,,,,,,,,,,,,2,11,,,,T,379,,,,119.7,1000,100,85,5,5,3,9,,,,,,, ,
P,4,25,2022,380,93025,41.2781,-71.2999,179,326, , ,,, , , ,, ,14,,MY-S,1,,8,1,9,0,,,,,,,,,,,,,,,,3,11,,,,T,380,,,,120,1000,100,85,5,5,3,9,,,,,,NO ANGLE, ,
X,4,25,2022,381,93026,41.2766,-71.2999,179,324, , ,,, , , ,, ,,,,,,, , ,,,,,,,,,,,,,,,,,3,11,,,,T,381,,,,119.8,1000,100,85,5,5,3,9,,,,,,, ,
X,4,25,2022,382,93031,41.2738,-71.2999,177,325, , ,,, , , ,, ,,,,,,, , ,,,,,,,,,,,,,,,,,3,11,,,,F,382,,,,118.3,1000,100,85,5,5,3,9,,,,,,, ,
X,4,25,2022,383,93036,41.271,-71.2998,179,326, , ,,, , , ,, ,,,,,,, , ,,,,,,,,,,,,,,,,,3,11,,,,F,383,,,,117.3,1000,100,85,5,5,3,9,,,,,,, ,
Z,4,25,2022,384,93040,41.269,-71.2998,180,326, , ,,, , , ,, ,,,,,,, , ,,,,,,,,,,,,,,,,,3,11,,,,F,384,,,,116.7,1000,100,85,5,5,3,9,,,,,,, ,
X,4,25,2022,385,93041,41.2684,-71.2998,180,326, , ,,, , , ,, ,,,,,,, , ,,,,,,,,,,,,,,,,,3,11,,,,F,385,,,,116.3,1000,100,85,5,5,3,9,,,,,,, ,
X,4,25,2022,386,93046,41.2658,-71.2999,180,333, , ,,, , , ,, ,,,,,,, , ,,,,,,,,,,,,,,,,,3,11,,,,F,386,,,,113.1,1000,100,85,5,5,3,9,,,,,,, ,
Z,4,25,2022,387,93049,41.2645,-71.2999,180,338, , ,,, , , ,, ,,,,,,, , ,,,,,,,,,,,,,,,,,3,11,,,,F,387,,,,111.4,1000,100,85,5,5,3,9,,,,,,, ,
X,4,25,2022,388,93051,41.263,-71.2999,180,342, , ,,, , , ,, ,,,,,,, , ,,,,,,,,,,,,,,,,,3,11,,,,F,388,,,,109.7,1000,100,85,5,5,3,9,,,,,,, ,
X,4,25,2022,389,93056,41.2605,-71.2999,179,346, , ,,, , , ,, ,,,,,,, , ,,,,,,,,,,,,,,,,,3,11,,,,F,389,,,,108.2,1000,100,85,5,5,3,9,,,,,,, ,
X,4,25,2022,390,93101,41.258,-71.2999,179,335, , ,,, , , ,, ,,,,,,, , ,,,,,,,,,,,,,,,,,3,11,,,,F,390,,,,111.3,1000,100,85,5,5,3,9,,,,,,, ,
X,4,25,2022,391,93106,41.2553,-71.2999,179,321, , ,,, , , ,, ,,,,,,, , ,,,,,,,,,,,,,,,,,3,11,,,,F,391,,,,115.1,1000,100,85,5,5,3,9,,,,,,, ,
X,4,25,2022,392,93111,41.2529,-71.2999,179,315, , ,,, , , ,, ,,,,,,, , ,,,,,,,,,,,,,,,,,3,11,,,,F,392,,,,115.7,1000,100,85,5,5,3,9,,,,,,, ,
X,4,25,2022,393,93116,41.2503,-71.2999,179,312, , ,,, , , ,, ,,,,,,, , ,,,,,,,,,,,,,,,,,3,11,,,,F,393,,,,115.3,1000,100,85,5,5,3,9,,,,,,, ,
X,4,25,2022,394,93121,41.2475,-71.2998,180,309, , ,,, , , ,, ,,,,,,, , ,,,,,,,,,,,,,,,,,3,11,,,,F,394,,,,114.9,1000,100,85,5,5,3,9,,,,,,, ,
X,4,25,2022,395,93126,41.2448,-71.2998,179,304, , ,,, , , ,, ,,,,,,, , ,,,,,,,,,,,,,,,,,3,11,,,,F,395,,,,114.3,1000,100,85,5,5,3,9,,,,,,, ,
X,4,25,2022,396,93131,41.2422,-71.2998,180,300, , ,,, , , ,, ,,,,,,, , ,,,,,,,,,,,,,,,,,3,11,,,,F,396,,,,114.2,1000,100,85,5,5,3,9,,,,,,, ,
X,4,25,2022,397,93136,41.2394,-71.2998,179,298, , ,,, , , ,, ,,,,,,, , ,,,,,,,,,,,,,,,,,3,11,,,,F,397,,,,112.7,1000,100,85,5,5,3,9,,,,,,, ,
Z,4,25,2022,398,93138,41.2384,-71.2998,179,299, , ,,, , , ,, ,,,,,,, , ,,,,,,,,,,,,,,,,,3,11,,,,F,398,,,,111.7,1000,100,85,5,5,3,9,,,,,,, ,
X,4,25,2022,399,93141,41.2371,-71.2998,179,300, , ,,, , , ,, ,,,,,,, , ,,,,,,,,,,,,,,,,,3,11,,,,F,399,,,,110.2,1000,100,85,5,5,3,9,,,,,,, ,
X,4,25,2022,400,93146,41.2344,-71.2998,180,302, , ,,, , , ,, ,,,,,,, , ,,,,,,,,,,,,,,,,,3,11,,,,F,400,,,,108.8,1000,100,85,5,5,3,9,,,,,,, ,
X,4,25,2022,401,93151,41.2319,-71.2998,180,304, , ,,, , , ,, ,,,,,,, , ,,,,,,,,,,,,,,,,,3,11,,,,F,401,,,,106,1000,100,85,5,5,3,9,,,,,,, ,
X,4,25,2022,402,93156,41.2295,-71.2998,179,309, , ,,, , , ,, ,,,,,,, , ,,,,,,,,,,,,,,,,,3,11,,,,F,402,,,,103,1000,100,85,5,5,3,9,,,,,,, ,
X,4,25,2022,403,93201,41.2271,-71.2998,179,311, , ,,, , , ,, ,,,,,,, , ,,,,,,,,,,,,,,,,,3,11,,,,F,403,,,,100.9,1000,100,85,5,5,3,9,,,,,,, ,
X,4,25,2022,404,93206,41.2248,-71.2998,180,310, , ,,, , , ,, ,,,,,,, , ,,,,,,,,,,,,,,,,,3,11,,,,F,404,,,,99.2,1000,100,85,5,5,3,9,,,,,,, ,
X,4,25,2022,405,93211,41.2225,-71.2998,179,306, , ,,, , , ,, ,,,,,,, , ,,,,,,,,,,,,,,,,,3,11,,,,F,405,,,,99.2,1000,100,85,5,5,3,9,,,,,,, ,
X,4,25,2022,406,93216,41.2201,-71.2998,181,300, , ,,, , , ,, ,,,,,,, , ,,,,,,,,,,,,,,,,,3,11,,,,F,406,,,,100,1000,100,85,5,5,3,9,,,,,,, ,
X,4,25,2022,407,93221,41.2179,-71.2999,180,295, , ,,, , , ,, ,,,,,,, , ,,,,,,,,,,,,,,,,,3,11,,,,F,407,,,,100.1,1000,100,85,5,5,3,9,,,,,,, ,
X,4,25,2022,408,93226,41.2155,-71.2999,179,289, , ,,, , , ,, ,,,,,,, , ,,,,,,,,,,,,,,,,,3,11,,,,F,408,,,,99.7,1000,100,85,5,5,3,9,,,,,,, ,
Z,4,25,2022,409,93228,41.2146,-71.2999,179,287, , ,,, , , ,, ,,,,,,, , ,,,,,,,,,,,,,,,,,3,11,,,,F,409,,,,99.8,1000,100,85,5,5,3,9,,,,,,, ,
X,4,25,2022,410,93231,41.2131,-71.2999,179,285, , ,,, , , ,, ,,,,,,, , ,,,,,,,,,,,,,,,,,3,11,,,,T,410,,,,99.5,1000,100,85,5,5,3,9,,,,,,, ,
P,4,25,2022,411,93234,41.2127,-71.2999,180,285, , ,,,2, , ,, ,15,,,,,, , ,,,,,,,,,,,,,,,,,4,11,,,,T,411,,,,99.2,1000,100,85,5,5,3,9,,,,,,LGLARE, ,
X,4,25,2022,412,93236,41.2109,-71.2998,179,290, , ,,, , , ,, ,,,,,,, , ,,,,,,,,,,,,,,,,,4,11,,,,T,412,,,,95.7,1000,100,85,5,5,3,10,,,,,,, ,
X,4,25,2022,413,93241,41.2087,-71.2999,181,293, , ,,, , , ,, ,,,,,,, , ,,,,,,,,,,,,,,,,,4,11,,,,F,413,,,,93.6,1000,100,85,5,5,3,9,,,,,,, ,
X,4,25,2022,414,93246,41.2069,-71.2999,181,292, , ,,, , , ,, ,,,,,,, , ,,,,,,,,,,,,,,,,,4,11,,,,F,414,,,,93.2,1000,100,85,5,5,3,9,,,,,,, ,
X,4,25,2022,415,93251,41.2045,-71.2999,179,289, , ,,, , , ,, ,,,,,,, , ,,,,,,,,,,,,,,,,,4,11,,,,F,415,,,,93.5,1000,100,85,5,5,3,9,,,,,,, ,
X,4,25,2022,416,93256,41.2023,-71.3,181,285, , ,,, , , ,, ,,,,,,, , ,,,,,,,,,,,,,,,,,4,11,,,,F,416,,,,94.8,1000,100,85,5,5,3,8,,,,,,, ,
X,4,25,2022,417,93301,41.2001,-71.3,181,285, , ,,, , , ,, ,,,,,,, , ,,,,,,,,,,,,,,,,,4,11,,,,F,417,,,,92.6,1000,100,85,5,5,3,9,,,,,,, ,
X,4,25,2022,418,93306,41.198,-71.3001,180,290, , ,,, , , ,, ,,,,,,, , ,,,,,,,,,,,,,,,,,4,11,,,,F,418,,,,89.3,1000,100,85,5,5,3,10,,,,,,, ,
X,4,25,2022,419,93311,41.1959,-71.3001,179,293, , ,,, , , ,, ,,,,,,, , ,,,,,,,,,,,,,,,,,4,11,,,,F,419,,,,87,1000,100,85,5,5,3,9,,,,,,, ,
Z,4,25,2022,420,93314,41.1949,-71.3001,180,294, , ,,, , , ,, ,,,,,,, , ,,,,,,,,,,,,,,,,,4,11,,,,F,420,,,,86.6,1000,100,85,5,5,3,9,,,,,,, ,
X,4,25,2022,421,93316,41.1942,-71.3001,181,294, , ,,, , , ,, ,,,,,,, , ,,,,,,,,,,,,,,,,,4,11,,,,F,421,,,,86.6,1000,100,85,5,5,3,10,,,,,,, ,
X,4,25,2022,422,93321,41.192,-71.3001,179,296, , ,,, , , ,, ,,,,,,, , ,,,,,,,,,,,,,,,,,4,11,,,,F,422,,,,85.6,1000,100,85,5,5,3,9,,,,,,, ,
X,4,25,2022,423,93326,41.1899,-71.3001,179,299, , ,,, , , ,, ,,,,,,, , ,,,,,,,,,,,,,,,,,4,11,,,,F,423,,,,85,1000,100,85,5,5,3,8,,,,,,, ,
X,4,25,2022,424,93331,41.1879,-71.3001,179,300, , ,,, , , ,, ,,,,,,, , ,,,,,,,,,,,,,,,,,4,11,,,,F,424,,,,84.7,1000,100,85,5,5,3,10,,,,,,, ,
X,4,25,2022,425,93336,41.186,-71.3,179,300, , ,,, , , ,, ,,,,,,, , ,,,,,,,,,,,,,,,,,4,11,,,,F,425,,,,85.3,1000,100,85,5,5,3,10,,,,,,, ,
X,4,25,2022,426,93341,41.184,-71.3,179,299, , ,,, , , ,, ,,,,,,, , ,,,,,,,,,,,,,,,,,4,11,,,,F,426,,,,85.4,1000,100,85,5,5,3,9,,,,,,, ,
X,4,25,2022,427,93346,41.1823,-71.3,180,300, , ,,, , , ,, ,,,,,,, , ,,,,,,,,,,,,,,,,,4,11,,,,T,427,,,,85.4,1000,100,85,5,5,3,8,,,,,,, ,
S,4,25,2022,428,93348,41.1817,-71.3,180,300, , ,,, , , ,, ,16,,FV-T,1,,2,1,9,0,,,,,,,,,,,,,,,,4,12,,,,T,428,,,,85.7,1000,100,85,5,5,3,9,,,,,,3 DEGREES, ,
X,4,25,2022,429,93351,41.1801,-71.3,179,300, , ,,, , , ,, ,,,,,,, , ,,,,,,,,,,,,,,,,,4,12,,,,T,429,,,,85.4,1000,100,85,5,5,3,9,,,,,,, ,
X,4,25,2022,430,93356,41.1781,-71.3,179,301, , ,,, , , ,, ,,,,,,, , ,,,,,,,,,,,,,,,,,4,12,,,,F,430,,,,85.3,1000,100,85,5,5,3,10,,,,,,, ,
X,4,25,2022,431,93401,41.1762,-71.3001,180,302, , ,,, , , ,, ,,,,,,, , ,,,,,,,,,,,,,,,,,4,12,,,,T,431,,,,85.9,1000,100,85,5,5,3,10,,,,,,, ,
S,4,25,2022,432,93405,41.1752,-71.3001,180,302, , ,,, , , ,, ,17,,FV-U,1,,21,1,9,0,,,,,,,,,,,,,,,,4,13,,,,T,432,,,,85.8,1000,100,85,5,5,3,10,,,,,,14 DEGREES, ,
X,4,25,2022,433,93406,41.1741,-71.3001,180,302, , ,,, , , ,, ,,,,,,, , ,,,,,,,,,,,,,,,,,4,13,,,,T,433,,,,85.8,1000,100,85,5,5,3,8,,,,,,, ,
Z,4,25,2022,434,93408,41.1736,-71.3001,180,301, , ,,, , , ,, ,,,,,,, , ,,,,,,,,,,,,,,,,,4,13,,,,F,434,,,,85.7,1000,100,85,5,5,3,9,,,,,,, ,
X,4,25,2022,435,93411,41.1721,-71.3001,180,303, , ,,, , , ,, ,,,,,,, , ,,,,,,,,,,,,,,,,,4,13,,,,F,435,,,,85.9,1000,100,85,5,5,3,10,,,,,,, ,
X,4,25,2022,436,93416,41.1703,-71.3001,181,301, , ,,, , , ,, ,,,,,,, , ,,,,,,,,,,,,,,,,,4,13,,,,F,436,,,,86.2,1000,100,85,5,5,3,10,,,,,,, ,
X,4,25,2022,437,93421,41.1683,-71.3002,179,299, , ,,, , , ,, ,,,,,,, , ,,,,,,,,,,,,,,,,,4,13,,,,F,437,,,,86.6,1000,100,85,5,5,3,8,,,,,,, ,
X,4,25,2022,438,93426,41.1662,-71.3001,178,300, , ,,, , , ,, ,,,,,,, , ,,,,,,,,,,,,,,,,,4,13,,,,F,438,,,,87.1,1000,100,85,5,5,3,8,,,,,,, ,
X,4,25,2022,439,93431,41.1641,-71.3001,179,296, , ,,, , , ,, ,,,,,,, , ,,,,,,,,,,,,,,,,,4,13,,,,F,439,,,,88.6,1000,100,85,5,5,3,8,,,,,,, ,
X,4,25,2022,440,93436,41.162,-71.3001,181,287, , ,,, , , ,, ,,,,,,, , ,,,,,,,,,,,,,,,,,4,13,,,,F,440,,,,93.2,1000,100,85,5,5,3,10,,,,,,, ,
X,4,25,2022,441,93441,41.16,-71.3002,179,288, , ,,, , , ,, ,,,,,,, , ,,,,,,,,,,,,,,,,,4,13,,,,F,441,,,,93.4,1000,100,85,5,5,3,9,,,,,,, ,
X,4,25,2022,442,93446,41.1577,-71.3002,180,289, , ,,, , , ,, ,,,,,,, , ,,,,,,,,,,,,,,,,,4,13,,,,F,442,,,,93,1000,100,85,5,5,3,10,,,,,,, ,
X,4,25,2022,443,93451,41.1555,-71.3002,181,291, , ,,, , , ,, ,,,,,,, , ,,,,,,,,,,,,,,,,,4,13,,,,F,443,,,,92.2,1000,100,85,5,5,3,9,,,,,,, ,
X,4,25,2022,444,93456,41.1533,-71.3002,178,293, , ,,, , , ,, ,,,,,,, , ,,,,,,,,,,,,,,,,,4,13,,,,F,444,,,,91,1000,100,85,5,5,3,9,,,,,,, ,
Z,4,25,2022,445,93458,41.1531,-71.3002,178,294, , ,,, , , ,, ,,,,,,, , ,,,,,,,,,,,,,,,,,4,13,,,,F,445,,,,91,1000,100,85,5,5,3,10,,,,,,, ,
X,4,25,2022,446,93501,41.1512,-71.3001,179,299, , ,,, , , ,, ,,,,,,, , ,,,,,,,,,,,,,,,,,4,13,,,,F,446,,,,91.2,1000,100,85,5,5,3,10,,,,,,, ,
X,4,25,2022,447,93506,41.1491,-71.3002,181,300, , ,,, , , ,, ,,,,,,, , ,,,,,,,,,,,,,,,,,4,13,,,,F,447,,,,91.5,1000,100,85,5,5,3,9,,,,,,, ,
X,4,25,2022,448,93511,41.147,-71.3002,178,306, , ,,, , , ,, ,,,,,,, , ,,,,,,,,,,,,,,,,,4,13,,,,F,448,,,,89.9,1000,100,85,5,5,3,10,,,,,,, ,
X,4,25,2022,449,93516,41.1451,-71.3001,178,308, , ,,, , , ,, ,,,,,,, , ,,,,,,,,,,,,,,,,,4,13,,,,F,449,,,,88.8,1000,100,85,5,5,3,10,,,,,,, ,
X,4,25,2022,450,93521,41.1429,-71.3002,183,309, , ,,, , , ,, ,,,,,,, , ,,,,,,,,,,,,,,,,,4,13,,,,F,450,,,,89.6,1000,100,85,5,5,3,9,,,,,,, ,
X,4,25,2022,451,93526,41.1409,-71.3003,180,312, , ,,, , , ,, ,,,,,,, , ,,,,,,,,,,,,,,,,,4,13,,,,F,451,,,,88.5,1000,100,85,5,5,3,8,,,,,,, ,
X,4,25,2022,452,93531,41.1388,-71.3002,178,315, , ,,, , , ,, ,,,,,,, , ,,,,,,,,,,,,,,,,,4,13,,,,F,452,,,,87,1000,100,85,5,5,3,10,,,,,,, ,
X,4,25,2022,453,93536,41.1368,-71.3002,181,320, , ,,, , , ,, ,,,,,,, , ,,,,,,,,,,,,,,,,,4,13,,,,F,453,,,,88,1000,100,85,5,5,3,8,,,,,,, ,
X,4,25,2022,454,93541,41.1348,-71.3003,179,325, , ,,, , , ,, ,,,,,,, , ,,,,,,,,,,,,,,,,,4,13,,,,F,454,,,,88.3,1000,100,85,5,5,3,10,,,,,,, ,
Z,4,25,2022,455,93543,41.134,-71.3002,178,324, , ,,, , , ,, ,,,,,,, , ,,,,,,,,,,,,,,,,,4,13,,,,F,455,,,,88.1,1000,100,85,5,5,3,10,,,,,,, ,
X,4,25,2022,456,93546,41.1327,-71.3002,180,323, , ,,, , , ,, ,,,,,,, , ,,,,,,,,,,,,,,,,,4,13,,,,F,456,,,,88.8,1000,100,85,5,5,3,9,,,,,,, ,
X,4,25,2022,457,93551,41.1307,-71.3003,181,320, , ,,, , , ,, ,,,,,,, , ,,,,,,,,,,,,,,,,,4,13,,,,F,457,,,,91,1000,100,85,5,5,3,8,,,,,,, ,
X,4,25,2022,458,93556,41.1284,-71.3003,178,319, , ,,, , , ,, ,,,,,,, , ,,,,,,,,,,,,,,,,,4,13,,,,F,458,,,,91.6,1000,100,85,5,5,3,10,,,,,,, ,
X,4,25,2022,459,93601,41.1263,-71.3003,181,319, , ,,, , , ,, ,,,,,,, , ,,,,,,,,,,,,,,,,,4,13,,,,F,459,,,,91.2,1000,100,85,5,5,3,9,,,,,,, ,
X,4,25,2022,460,93606,41.1242,-71.3004,180,322, , ,,, , , ,, ,,,,,,, , ,,,,,,,,,,,,,,,,,4,13,,,,F,460,,,,89.2,1000,100,85,5,5,3,8,,,,,,, ,
X,4,25,2022,461,93611,41.1224,-71.3003,178,324, , ,,, , , ,, ,,,,,,, , ,,,,,,,,,,,,,,,,,4,13,,,,F,461,,,,88.4,1000,100,85,5,5,3,9,,,,,,, ,
X,4,25,2022,462,93616,41.1202,-71.3003,181,325, , ,,, , , ,, ,,,,,,, , ,,,,,,,,,,,,,,,,,4,13,,,,F,462,,,,89.7,1000,100,85,5,5,3,9,,,,,,, ,
X,4,25,2022,463,93621,41.1183,-71.3003,178,318, , ,,, , , ,, ,,,,,,, , ,,,,,,,,,,,,,,,,,4,13,,,,F,463,,,,91.7,1000,100,85,5,5,3,9,,,,,,, ,
X,4,25,2022,464,93626,41.1159,-71.3003,181,311, , ,,, , , ,, ,,,,,,, , ,,,,,,,,,,,,,,,,,4,13,,,,F,464,,,,97.4,1000,100,85,5,5,3,10,,,,,,, ,
X,4,25,2022,465,93631,41.1135,-71.3004,178,308, , ,,, , , ,, ,,,,,,, , ,,,,,,,,,,,,,,,,,4,13,,,,F,465,,,,98.4,1000,100,85,5,5,3,9,,,,,,, ,
Z,4,25,2022,466,93633,41.1128,-71.3003,178,306, , ,,, , , ,, ,,,,,,, , ,,,,,,,,,,,,,,,,,4,13,,,,F,466,,,,98.3,1000,100,85,5,5,3,9,,,,,,, ,
X,4,25,2022,467,93636,41.1112,-71.3003,178,299, , ,,, , , ,, ,,,,,,, , ,,,,,,,,,,,,,,,,,4,13,,,,F,467,,,,100.5,1000,100,85,5,5,3,9,,,,,,, ,
X,4,25,2022,468,93641,41.109,-71.3003,181,298, , ,,, , , ,, ,,,,,,, , ,,,,,,,,,,,,,,,,,4,13,,,,F,468,,,,101.4,1000,100,85,5,5,3,8,,,,,,, ,
X,4,25,2022,469,93646,41.1069,-71.3003,179,297, , ,,, , , ,, ,,,,,,, , ,,,,,,,,,,,,,,,,,4,13,,,,F,469,,,,101,1000,100,85,5,5,3,9,,,,,,, ,
X,4,25,2022,470,93651,41.1043,-71.3003,180,298, , ,,, , , ,, ,,,,,,, , ,,,,,,,,,,,,,,,,,4,13,,,,F,470,,,,99.4,1000,100,85,5,5,3,10,,,,,,, ,
X,4,25,2022,471,93656,41.102,-71.3004,181,298, , ,,, , , ,, ,,,,,,, , ,,,,,,,,,,,,,,,,,4,13,,,,F,471,,,,100.1,1000,100,85,5,5,3,9,,,,,,, ,
X,4,25,2022,472,93701,41.0997,-71.3004,178,304, , ,,, , , ,, ,,,,,,, , ,,,,,,,,,,,,,,,,,4,13,,,,F,472,,,,97,1000,100,85,5,5,3,9,,,,,,, ,
X,4,25,2022,473,93706,41.0977,-71.3004,182,303, , ,,, , , ,, ,,,,,,, , ,,,,,,,,,,,,,,,,,4,13,,,,F,473,,,,97.7,1000,100,85,5,5,3,9,,,,,,, ,
X,4,25,2022,474,93711,41.0951,-71.3005,180,308, , ,,, , , ,, ,,,,,,, , ,,,,,,,,,,,,,,,,,4,13,,,,F,474,,,,97.7,1000,100,85,5,5,3,10,,,,,,, ,
X,4,25,2022,475,93716,41.0934,-71.3005,179,306, , ,,, , , ,, ,,,,,,, , ,,,,,,,,,,,,,,,,,4,13,,,,F,475,,,,96.9,1000,100,85,5,5,3,10,,,,,,, ,
X,4,25,2022,476,93721,41.0906,-71.3005,181,308, , ,,, , , ,, ,,,,,,, , ,,,,,,,,,,,,,,,,,4,13,,,,F,476,,,,97,1000,100,85,5,5,3,9,,,,,,, ,
Z,4,25,2022,477,93723,41.0901,-71.3005,181,307, , ,,, , , ,, ,,,,,,, , ,,,,,,,,,,,,,,,,,4,13,,,,F,477,,,,97.1,1000,100,85,5,5,3,9,,,,,,, ,
X,4,25,2022,478,93726,41.0883,-71.3005,180,305, , ,,, , , ,, ,,,,,,, , ,,,,,,,,,,,,,,,,,4,13,,,,F,478,,,,96.8,1000,100,85,5,5,3,9,,,,,,, ,
X,4,25,2022,479,93731,41.0861,-71.3005,179,309, , ,,, , , ,, ,,,,,,, , ,,,,,,,,,,,,,,,,,4,13,,,,F,479,,,,96.3,1000,100,85,5,5,3,10,,,,,,, ,
X,4,25,2022,480,93736,41.0839,-71.3006,180,306, , ,,, , , ,, ,,,,,,, , ,,,,,,,,,,,,,,,,,4,13,,,,F,480,,,,97,1000,100,85,5,5,3,9,,,,,,, ,
X,4,25,2022,481,93741,41.0816,-71.3005,179,300, , ,,, , , ,, ,,,,,,, , ,,,,,,,,,,,,,,,,,4,13,,,,F,481,,,,97.8,1000,100,85,5,5,3,9,,,,,,, ,
X,4,25,2022,482,93746,41.0796,-71.3005,180,301, , ,,, , , ,, ,,,,,,, , ,,,,,,,,,,,,,,,,,4,13,,,,F,482,,,,97.1,1000,100,85,5,5,3,9,,,,,,, ,
X,4,25,2022,483,93751,41.0772,-71.3005,179,306, , ,,, , , ,, ,,,,,,, , ,,,,,,,,,,,,,,,,,4,13,,,,F,483,,,,94.2,1000,100,85,5,5,3,9,,,,,,, ,
X,4,25,2022,484,93756,41.075,-71.3005,179,305, , ,,, , , ,, ,,,,,,, , ,,,,,,,,,,,,,,,,,4,13,,,,F,484,,,,94.2,1000,100,85,5,5,3,9,,,,,,, ,
X,4,25,2022,485,93801,41.0728,-71.3005,180,305, , ,,, , , ,, ,,,,,,, , ,,,,,,,,,,,,,,,,,4,13,,,,F,485,,,,97.3,1000,100,85,5,5,3,9,,,,,,, ,
X,4,25,2022,486,93806,41.0706,-71.3004,177,303, , ,,, , , ,, ,,,,,,, , ,,,,,,,,,,,,,,,,,4,13,,,,F,486,,,,97.2,1000,100,85,5,5,3,10,,,,,,, ,
X,4,25,2022,487,93811,41.0684,-71.3004,179,296, , ,,, , , ,, ,,,,,,, , ,,,,,,,,,,,,,,,,,4,13,,,,F,487,,,,99.6,1000,100,85,5,5,3,9,,,,,,, ,
Z,4,25,2022,488,93813,41.0676,-71.3004,178,297, , ,,, , , ,, ,,,,,,, , ,,,,,,,,,,,,,,,,,4,13,,,,F,488,,,,99.6,1000,100,85,5,5,3,9,,,,,,, ,
X,4,25,2022,489,93816,41.066,-71.3003,179,296, , ,,, , , ,, ,,,,,,, , ,,,,,,,,,,,,,,,,,4,13,,,,F,489,,,,100.1,1000,100,85,5,5,3,9,,,,,,, ,
X,4,25,2022,490,93821,41.0637,-71.3003,180,297, , ,,, , , ,, ,,,,,,, , ,,,,,,,,,,,,,,,,,4,13,,,,F,490,,,,99.9,1000,100,85,5,5,3,8,,,,,,, ,
X,4,25,2022,491,93826,41.0613,-71.3003,179,301, , ,,, , , ,, ,,,,,,, , ,,,,,,,,,,,,,,,,,4,13,,,,F,491,,,,98.1,1000,100,85,5,5,3,9,,,,,,, ,
X,4,25,2022,492,93831,41.059,-71.3003,180,306, , ,,, , , ,, ,,,,,,, , ,,,,,,,,,,,,,,,,,4,13,,,,F,492,,,,95.7,1000,100,85,5,5,3,9,,,,,,, ,
X,4,25,2022,493,93836,41.0572,-71.3003,179,307, , ,,, , , ,, ,,,,,,, , ,,,,,,,,,,,,,,,,,4,13,,,,F,493,,,,94.8,1000,100,85,5,5,3,9,,,,,,, ,
X,4,25,2022,494,93841,41.055,-71.3003,179,301, , ,,, , , ,, ,,,,,,, , ,,,,,,,,,,,,,,,,,4,13,,,,F,494,,,,98.1,1000,100,85,5,5,3,9,,,,,,, ,
X,4,25,2022,495,93846,41.0525,-71.3003,179,291, , ,,, , , ,, ,,,,,,, , ,,,,,,,,,,,,,,,,,4,13,,,,F,495,,,,100.3,1000,100,85,5,5,3,9,,,,,,, ,
X,4,25,2022,496,93851,41.0501,-71.3002,179,301, , ,,, , , ,, ,,,,,,, , ,,,,,,,,,,,,,,,,,4,13,,,,F,496,,,,96.1,1000,100,85,5,5,3,9,,,,,,, ,
X,4,25,2022,497,93856,41.0479,-71.3002,179,304, , ,,, , , ,, ,,,,,,, , ,,,,,,,,,,,,,,,,,4,13,,,,F,497,,,,94.8,1000,100,85,5,5,3,9,,,,,,, ,
X,4,25,2022,498,93901,41.0456,-71.3002,180,301, , ,,, , , ,, ,,,,,,, , ,,,,,,,,,,,,,,,,,4,13,,,,F,498,,,,96.7,1000,100,85,5,5,3,10,,,,,,, ,
Z,4,25,2022,499,93902,41.0451,-71.3002,180,302, , ,,, , , ,, ,,,,,,, , ,,,,,,,,,,,,,,,,,4,13,,,,F,499,,,,97.1,1000,100,85,5,5,3,10,,,,,,, ,
X,4,25,2022,500,93906,41.0436,-71.3003,180,302, , ,,, , , ,, ,,,,,,, , ,,,,,,,,,,,,,,,,,4,13,,,,F,500,,,,97.8,1000,100,85,5,5,3,10,,,,,,, ,
X,4,25,2022,501,93911,41.0412,-71.3003,180,303, , ,,, , , ,, ,,,,,,, , ,,,,,,,,,,,,,,,,,4,13,,,,F,501,,,,96.7,1000,100,85,5,5,3,8,,,,,,, ,
X,4,25,2022,502,93916,41.039,-71.3003,180,310, , ,,, , , ,, ,,,,,,, , ,,,,,,,,,,,,,,,,,4,13,,,,F,502,,,,95,1000,100,85,5,5,3,10,,,,,,, ,
X,4,25,2022,503,93921,41.0368,-71.3003,180,310, , ,,, , , ,, ,,,,,,, , ,,,,,,,,,,,,,,,,,4,13,,,,F,503,,,,94.9,1000,100,85,5,5,3,9,,,,,,, ,
X,4,25,2022,504,93926,41.0346,-71.3003,180,306, , ,,, , , ,, ,,,,,,, , ,,,,,,,,,,,,,,,,,4,13,,,,F,504,,,,95.1,1000,100,85,5,5,3,10,,,,,,, ,
X,4,25,2022,505,93931,41.0327,-71.3003,178,305, , ,,, , , ,, ,,,,,,, , ,,,,,,,,,,,,,,,,,4,13,,,,F,505,,,,95.4,1000,100,85,5,5,3,9,,,,,,, ,
X,4,25,2022,506,93936,41.03,-71.3003,179,299, , ,,, , , ,, ,,,,,,, , ,,,,,,,,,,,,,,,,,4,13,,,,F,506,,,,98.6,1000,100,85,5,5,3,9,,,,,,, ,
X,4,25,2022,507,93941,41.028,-71.3003,180,305, , ,,, , , ,, ,,,,,,, , ,,,,,,,,,,,,,,,,,4,13,,,,F,507,,,,98.8,1000,100,85,5,5,3,8,,,,,,, ,
X,4,25,2022,508,93946,41.0255,-71.3003,179,304, , ,,, , , ,, ,,,,,,, , ,,,,,,,,,,,,,,,,,4,13,,,,F,508,,,,96.8,1000,100,85,5,5,3,9,,,,,,, ,
Z,4,25,2022,509,93948,41.025,-71.3003,179,305, , ,,, , , ,, ,,,,,,, , ,,,,,,,,,,,,,,,,,4,13,,,,F,509,,,,96.3,1000,100,85,5,5,3,10,,,,,,, ,
X,4,25,2022,510,93951,41.0232,-71.3003,179,304, , ,,, , , ,, ,,,,,,, , ,,,,,,,,,,,,,,,,,4,13,,,,F,510,,,,96.7,1000,100,85,5,5,3,9,,,,,,, ,
X,4,25,2022,511,93956,41.021,-71.3003,181,307, , ,,, , , ,, ,,,,,,, , ,,,,,,,,,,,,,,,,,4,13,,,,F,511,,,,97.9,1000,100,85,5,5,3,10,,,,,,, ,
X,4,25,2022,512,94001,41.0187,-71.3003,179,308, , ,,, , , ,, ,,,,,,, , ,,,,,,,,,,,,,,,,,4,13,,,,F,512,,,,96.1,1000,100,85,5,5,3,8,,,,,,, ,
X,4,25,2022,513,94006,41.0166,-71.3003,179,310, , ,,, , , ,, ,,,,,,, , ,,,,,,,,,,,,,,,,,4,13,,,,F,513,,,,96.1,1000,100,85,5,5,3,9,,,,,,, ,
X,4,25,2022,514,94011,41.0145,-71.3003,181,303, , ,,, , , ,, ,,,,,,, , ,,,,,,,,,,,,,,,,,4,13,,,,F,514,,,,98,1000,100,85,5,5,3,8,,,,,,, ,
X,4,25,2022,515,94016,41.0121,-71.3004,179,299, , ,,, , , ,, ,,,,,,, , ,,,,,,,,,,,,,,,,,4,13,,,,F,515,,,,99.3,1000,100,85,5,5,3,9,,,,,,, ,
X,4,25,2022,516,94021,41.0098,-71.3004,179,301, , ,,, , , ,, ,,,,,,, , ,,,,,,,,,,,,,,,,,4,13,,,,F,516,,,,97.5,1000,100,85,5,5,3,10,,,,,,, ,
X,4,25,2022,517,94026,41.0075,-71.3004,180,301, , ,,, , , ,, ,,,,,,, , ,,,,,,,,,,,,,,,,,4,13,,,,F,517,,,,97.9,1000,100,85,5,5,3,8,,,,,,, ,
X,4,25,2022,518,94031,41.0053,-71.3004,179,299, , ,,, , , ,, ,,,,,,, , ,,,,,,,,,,,,,,,,,4,13,,,,F,518,,,,97.3,1000,100,85,5,5,3,8,,,,,,, ,
X,4,25,2022,519,94036,41.003,-71.3003,178,299, , ,,, , , ,, ,,,,,,, , ,,,,,,,,,,,,,,,,,4,13,,,,F,519,,,,96.2,1000,100,85,5,5,3,9,,,,,,, ,
Z,4,25,2022,520,94038,41.0022,-71.3003,179,298, , ,,, , , ,, ,,,,,,, , ,,,,,,,,,,,,,,,,,4,13,,,,F,520,,,,96.2,1000,100,85,5,5,3,9,,,,,,, ,
X,4,25,2022,521,94041,41.0008,-71.3003,182,301, , ,,, , , ,, ,,,,,,, , ,,,,,,,,,,,,,,,,,4,13,,,,F,521,,,,97,1000,100,85,5,5,3,9,,,,,,, ,
X,4,25,2022,522,94046,40.9984,-71.3004,179,302, , ,,, , , ,, ,,,,,,, , ,,,,,,,,,,,,,,,,,4,13,,,,F,522,,,,95.4,1000,100,85,5,5,3,8,,,,,,, ,
X,4,25,2022,523,94051,40.9962,-71.3004,180,306, , ,,, , , ,, ,,,,,,, , ,,,,,,,,,,,,,,,,,4,13,,,,F,523,,,,93.5,1000,100,85,5,5,3,9,,,,,,, ,
X,4,25,2022,524,94056,40.9941,-71.3004,179,311, , ,,, , , ,, ,,,,,,, , ,,,,,,,,,,,,,,,,,4,13,,,,F,524,,,,92.5,1000,100,85,5,5,3,8,,,,,,, ,
X,4,25,2022,525,94101,40.9923,-71.3004,179,309, , ,,, , , ,, ,,,,,,, , ,,,,,,,,,,,,,,,,,4,13,,,,F,525,,,,92.9,1000,100,85,5,5,3,8,,,,,,, ,
X,4,25,2022,526,94106,40.9899,-71.3005,181,312, , ,,, , , ,, ,,,,,,, , ,,,,,,,,,,,,,,,,,4,13,,,,F,526,,,,93.4,1000,100,85,5,5,3,8,,,,,,, ,
X,4,25,2022,527,94111,40.9877,-71.3004,178,312, , ,,, , , ,, ,,,,,,, , ,,,,,,,,,,,,,,,,,4,13,,,,F,527,,,,92.9,1000,100,85,5,5,3,9,,,,,,, ,
X,4,25,2022,528,94116,40.9856,-71.3005,181,313, , ,,, , , ,, ,,,,,,, , ,,,,,,,,,,,,,,,,,4,13,,,,F,528,,,,92.7,1000,100,85,5,5,3,9,,,,,,, ,
X,4,25,2022,529,94121,40.9834,-71.3005,179,313, , ,,, , , ,, ,,,,,,, , ,,,,,,,,,,,,,,,,,4,13,,,,F,529,,,,91.7,1000,100,85,5,5,3,8,,,,,,, ,
X,4,25,2022,530,94126,40.9812,-71.3004,179,312, , ,,, , , ,, ,,,,,,, , ,,,,,,,,,,,,,,,,,4,13,,,,F,530,,,,91.9,1000,100,85,5,5,3,9,,,,,,, ,
Z,4,25,2022,531,94128,40.9807,-71.3004,179,311, , ,,, , , ,, ,,,,,,, , ,,,,,,,,,,,,,,,,,4,13,,,,F,531,,,,92,1000,100,85,5,5,3,10,,,,,,, ,
X,4,25,2022,532,94131,40.9793,-71.3004,180,306, , ,,, , , ,, ,,,,,,, , ,,,,,,,,,,,,,,,,,4,13,,,,F,532,,,,94.6,1000,100,85,5,5,3,9,,,,,,, ,
X,4,25,2022,533,94136,40.9769,-71.3005,179,299, , ,,, , , ,, ,,,,,,, , ,,,,,,,,,,,,,,,,,4,13,,,,F,533,,,,97.2,1000,100,85,5,5,3,9,,,,,,, ,
X,4,25,2022,534,94141,40.9747,-71.3004,179,299, , ,,, , , ,, ,,,,,,, , ,,,,,,,,,,,,,,,,,4,13,,,,T,534,,,,96.9,1000,100,85,5,5,3,9,,,,,,, ,
S,4,25,2022,535,94146,40.9733,-71.3004,180,301, , ,,, , ,3,, ,18,,,,,, , ,,,,,,,,,,,,,,,,,4,14,,,,T,535,,,,96.2,1000,100,85,5,5,3,8,,,,,,BSS, ,
X,4,25,2022,536,94146,40.9724,-71.3005,180,302, , ,,, , , ,, ,,,,,,, , ,,,,,,,,,,,,,,,,,4,14,,,,T,536,,,,95.8,1000,100,85,5,5,3,8,,,,,,, ,
X,4,25,2022,537,94151,40.9701,-71.3005,180,304, , ,,, , , ,, ,,,,,,, , ,,,,,,,,,,,,,,,,,4,14,,,,F,537,,,,95.7,1000,100,85,5,5,3,9,,,,,,, ,
Z,4,25,2022,538,94157,40.968,-71.3005,180,302, , ,,, , , ,, ,,,,,,, , ,,,,,,,,,,,,,,,,,4,14,,,,F,538,,,,96.5,1000,100,85,5,5,3,9,,,,,,, ,
X,4,25,2022,539,94201,40.9659,-71.3005,179,297, , ,,, , , ,, ,,,,,,, , ,,,,,,,,,,,,,,,,,4,14,,,,F,539,,,,97.8,1000,100,85,5,5,3,9,,,,,,, ,
X,4,25,2022,540,94206,40.9634,-71.3005,180,287, , ,,, , , ,, ,,,,,,, , ,,,,,,,,,,,,,,,,,4,14,,,,F,540,,,,101.9,1000,100,85,5,5,3,9,,,,,,, ,
X,4,25,2022,541,94211,40.9611,-71.3004,178,284, , ,,, , , ,, ,,,,,,, , ,,,,,,,,,,,,,,,,,4,14,,,,F,541,,,,101.6,1000,100,85,5,5,3,9,,,,,,, ,
X,4,25,2022,542,94216,40.9586,-71.3004,181,289, , ,,, , , ,, ,,,,,,, , ,,,,,,,,,,,,,,,,,4,14,,,,F,542,,,,99.9,1000,100,85,5,5,3,8,,,,,,, ,
Z,4,25,2022,543,94217,40.9581,-71.3004,181,290, , ,,, , , ,, ,,,,,,, , ,,,,,,,,,,,,,,,,,4,14,,,,F,543,,,,99.8,1000,100,85,5,5,3,8,,,,,,, ,
X,4,25,2022,544,94221,40.9563,-71.3004,179,292, , ,,, , , ,, ,,,,,,, , ,,,,,,,,,,,,,,,,,4,14,,,,F,544,,,,99.1,1000,100,85,5,5,3,9,,,,,,, ,
X,4,25,2022,545,94226,40.954,-71.3004,178,292, , ,,, , , ,, ,,,,,,, , ,,,,,,,,,,,,,,,,,4,14,,,,F,545,,,,99.7,1000,100,85,5,5,3,9,,,,,,, ,
X,4,25,2022,546,94231,40.9519,-71.3004,180,289, , ,,, , , ,, ,,,,,,, , ,,,,,,,,,,,,,,,,,4,14,,,,F,546,,,,101,1000,100,85,5,5,3,9,,,,,,, ,
X,4,25,2022,547,94236,40.9495,-71.3005,182,288, , ,,, , , ,, ,,,,,,, , ,,,,,,,,,,,,,,,,,4,14,,,,F,547,,,,101.2,1000,100,85,5,5,3,9,,,,,,, ,
X,4,25,2022,548,94241,40.9472,-71.3006,180,295, , ,,, , , ,, ,,,,,,, , ,,,,,,,,,,,,,,,,,4,14,,,,F,548,,,,96.8,1000,100,85,5,5,3,9,,,,,,, ,
X,4,25,2022,549,94246,40.945,-71.3005,179,303, , ,,, , , ,, ,,,,,,, , ,,,,,,,,,,,,,,,,,4,14,,,,F,549,,,,94.4,1000,100,85,5,5,3,9,,,,,,, ,
X,4,25,2022,550,94251,40.9427,-71.3005,178,299, , ,,, , , ,, ,,,,,,, , ,,,,,,,,,,,,,,,,,4,14,,,,F,550,,,,96.4,1000,100,85,5,5,3,8,,,,,,, ,
X,4,25,2022,551,94256,40.9405,-71.3004,179,295, , ,,, , , ,, ,,,,,,, , ,,,,,,,,,,,,,,,,,4,14,,,,F,551,,,,97.5,1000,100,85,5,5,3,10,,,,,,, ,
X,4,25,2022,552,94301,40.9385,-71.3004,179,304, , ,,, , , ,, ,,,,,,, , ,,,,,,,,,,,,,,,,,4,14,,,,F,552,,,,95.8,1000,100,85,5,5,3,8,,,,,,, ,
X,4,25,2022,553,94306,40.936,-71.3004,180,310, , ,,, , , ,, ,,,,,,, , ,,,,,,,,,,,,,,,,,4,14,,,,F,553,,,,94.5,1000,100,85,5,5,3,9,,,,,,, ,
Z,4,25,2022,554,94307,40.9358,-71.3004,180,310, , ,,, , , ,, ,,,,,,, , ,,,,,,,,,,,,,,,,,4,14,,,,F,554,,,,94.5,1000,100,85,5,5,3,9,,,,,,, ,
X,4,25,2022,555,94311,40.9338,-71.3004,180,304, , ,,, , , ,, ,,,,,,, , ,,,,,,,,,,,,,,,,,4,14,,,,F,555,,,,96.6,1000,100,85,5,5,3,9,,,,,,, ,
X,4,25,2022,556,94316,40.9315,-71.3004,179,298, , ,,, , , ,, ,,,,,,, , ,,,,,,,,,,,,,,,,,4,14,,,,F,556,,,,97.4,1000,100,85,5,5,3,9,,,,,,, ,
X,4,25,2022,557,94321,40.9293,-71.3004,179,303, , ,,, , , ,, ,,,,,,, , ,,,,,,,,,,,,,,,,,4,14,,,,F,557,,,,94.9,1000,100,85,5,5,3,8,,,,,,, ,
X,4,25,2022,558,94326,40.9276,-71.3004,179,309, , ,,, , , ,, ,,,,,,, , ,,,,,,,,,,,,,,,,,4,14,,,,F,558,,,,93.3,1000,100,85,5,5,3,9,,,,,,, ,
X,4,25,2022,559,94331,40.9251,-71.3003,178,308, , ,,, , , ,, ,,,,,,, , ,,,,,,,,,,,,,,,,,4,14,,,,F,559,,,,94.1,1000,100,85,5,5,3,9,,,,,,, ,
X,4,25,2022,560,94336,40.9228,-71.3002,179,302, , ,,, , , ,, ,,,,,,, , ,,,,,,,,,,,,,,,,,4,14,,,,F,560,,,,96.3,1000,100,85,5,5,3,8,,,,,,, ,
X,4,25,2022,561,94341,40.9206,-71.3003,180,297, , ,,, , , ,, ,,,,,,, , ,,,,,,,,,,,,,,,,,4,14,,,,F,561,,,,97.2,1000,100,85,5,5,3,9,,,,,,, ,
X,4,25,2022,562,94346,40.9183,-71.3003,180,299, , ,,, , , ,, ,,,,,,, , ,,,,,,,,,,,,,,,,,4,14,,,,F,562,,,,96.4,1000,100,85,5,5,3,9,,,,,,, ,
X,4,25,2022,563,94351,40.9161,-71.3003,179,299, , ,,, , , ,, ,,,,,,, , ,,,,,,,,,,,,,,,,,4,14,,,,T,563,,,,95.8,1000,100,85,5,5,3,9,,,,,,, ,
S,4,25,2022,564,94354,40.9153,-71.3003,179,299,2,5,,, , , ,, ,19,,,,,, , ,,,,,,,,,,,,,,,,,4,15,,,,T,564,,,,95.7,1000,100,85,5,5,3,9,,,,,,END LINE, ,
X,4,25,2022,565,94356,40.9141,-71.3002,178,298,3,-,,, , , ,, ,,,,,,, , ,,,,,,,,,,,,,,,,,4,15,,,,T,565,,,,96,1000,100,85,5,5,3,9,,,,,,, ,
Z,4,25,2022,566,94357,40.9135,-71.3002,178,297, , ,,, , , ,, ,,,,,,, , ,,,,,,,,,,,,,,,,,4,15,,,,F,566,,,,96,1000,100,85,5,5,3,9,,,,,,, ,
X,4,25,2022,567,94401,40.9116,-71.3001,174,297, , ,,, , , ,, ,,,,,,, , ,,,,,,,,,,,,,,,,,4,15,,,,F,567,,,,95.2,1000,100,85,5,5,3,9,,,,,,, ,
X,4,25,2022,568,94406,40.9096,-71.2997,165,297, , ,,, , , ,, ,,,,,,, , ,,,,,,,,,,,,,,,,,4,15,,,,F,568,,,,92.8,1000,100,85,5,5,3,9,,,,,,, ,
X,4,25,2022,569,94411,40.9075,-71.2987,154,299, , ,,, , , ,, ,,,,,,, , ,,,,,,,,,,,,,,,,,4,15,,,,F,569,,,,90.2,1000,100,85,5,5,3,8,,,,,,, ,
X,4,25,2022,570,94416,40.9058,-71.2972,141,298, , ,,, , , ,, ,,,,,,, , ,,,,,,,,,,,,,,,,,4,15,,,,F,570,,,,88.9,1000,100,85,5,5,3,8,,,,,,, ,
X,4,25,2022,571,94421,40.9043,-71.2952,126,300, , ,,, , , ,, ,,,,,,, , ,,,,,,,,,,,,,,,,,4,15,,,,F,571,,,,87.3,1000,100,85,5,5,3,8,,,,,,, ,
X,4,25,2022,572,94426,40.9033,-71.293,112,299, , ,,, , , ,, ,,,,,,, , ,,,,,,,,,,,,,,,,,4,15,,,,F,572,,,,86.7,1000,100,85,5,5,3,8,,,,,,, ,
X,4,25,2022,573,94431,40.9028,-71.2909,106,298, , ,,, , , ,, ,,,,,,, , ,,,,,,,,,,,,,,,,,4,15,,,,F,573,,,,85.1,1000,100,85,5,5,3,9,,,,,,, ,
X,4,25,2022,574,94436,40.9022,-71.288,101,301, , ,,, , , ,, ,,,,,,, , ,,,,,,,,,,,,,,,,,4,15,,,,F,574,,,,83.6,1000,100,85,5,5,3,9,,,,,,, ,
X,4,25,2022,575,94441,40.9019,-71.2854,99,302, , ,,, , , ,, ,,,,,,, , ,,,,,,,,,,,,,,,,,4,15,,,,F,575,,,,83.1,1000,100,85,5,5,3,9,,,,,,, ,
Z,4,25,2022,576,94443,40.9018,-71.2849,99,301, , ,,, , , ,, ,,,,,,, , ,,,,,,,,,,,,,,,,,4,15,,,,F,576,,,,83.4,1000,100,85,5,5,3,9,,,,,,, ,
X,4,25,2022,577,94446,40.9016,-71.2829,100,298, , ,,, , , ,, ,,,,,,, , ,,,,,,,,,,,,,,,,,4,15,,,,F,577,,,,84.8,1000,100,85,5,5,3,9,,,,,,, ,
X,4,25,2022,578,94451,40.9013,-71.2807,100,294, , ,,, , , ,, ,,,,,,, , ,,,,,,,,,,,,,,,,,4,15,,,,F,578,,,,85.7,1000,100,85,5,5,3,9,,,,,,, ,
X,4,25,2022,579,94456,40.9008,-71.2778,101,296, , ,,, , , ,, ,,,,,,, , ,,,,,,,,,,,,,,,,,4,15,,,,T,579,,,,84.3,1000,100,85,5,5,3,9,,,,,,, ,
S,4,25,2022,580,94500,40.9006,-71.2764,101,299, , ,,, ,2, ,, ,20,,,,,, , ,,,,,,,,,,,,,,,,,4,16,,,,T,580,,,,83.3,1000,100,85,5,5,3,9,,,,,,GLARE R, ,
X,4,25,2022,581,94501,40.9005,-71.2758,102,299, , ,,, , , ,, ,,,,,,, , ,,,,,,,,,,,,,,,,,4,16,,,,T,581,,,,83.3,1000,100,85,5,5,3,9,,,,,,, ,
X,4,25,2022,582,94506,40.9,-71.2729,102,302, , ,,, , , ,, ,,,,,,, , ,,,,,,,,,,,,,,,,,4,16,,,,F,582,,,,82.7,1000,100,85,5,5,3,9,,,,,,, ,
X,4,25,2022,583,94511,40.8996,-71.2705,102,304, , ,,, , , ,, ,,,,,,, , ,,,,,,,,,,,,,,,,,4,16,,,,F,583,,,,82.4,1000,100,85,5,5,3,9,,,,,,, ,
X,4,25,2022,584,94516,40.8992,-71.268,102,307, , ,,, , , ,, ,,,,,,, , ,,,,,,,,,,,,,,,,,4,16,,,,F,584,,,,81.8,1000,100,85,5,5,3,9,,,,,,, ,
X,4,25,2022,585,94521,40.8988,-71.2656,100,310, , ,,, , , ,, ,,,,,,, , ,,,,,,,,,,,,,,,,,4,16,,,,F,585,,,,81.3,1000,100,85,5,5,3,9,,,,,,, ,
X,4,25,2022,586,94526,40.8985,-71.2633,100,312, , ,,, , , ,, ,,,,,,, , ,,,,,,,,,,,,,,,,,4,16,,,,F,586,,,,81.4,1000,100,85,5,5,3,9,,,,,,, ,
X,4,25,2022,587,94531,40.8982,-71.2606,98,316, , ,,, , , ,, ,,,,,,, , ,,,,,,,,,,,,,,,,,4,16,,,,F,587,,,,80.2,1000,100,85,5,5,3,8,,,,,,, ,
Z,4,25,2022,588,94532,40.8981,-71.2602,98,317, , ,,, , , ,, ,,,,,,, , ,,,,,,,,,,,,,,,,,4,16,,,,F,588,,,,79.9,1000,100,85,5,5,3,8,,,,,,, ,
X,4,25,2022,589,94536,40.8979,-71.2582,94,318, , ,,, , , ,, ,,,,,,, , ,,,,,,,,,,,,,,,,,4,16,,,,F,589,,,,80.2,1000,100,85,5,5,3,8,,,,,,, ,
X,4,25,2022,590,94541,40.8978,-71.2557,93,313, , ,,, , , ,, ,,,,,,, , ,,,,,,,,,,,,,,,,,4,16,,,,F,590,,,,82.2,1000,100,85,5,5,3,8,,,,,,, ,
X,4,25,2022,591,94546,40.8977,-71.2532,92,313, , ,,, , , ,, ,,,,,,, , ,,,,,,,,,,,,,,,,,4,16,,,,F,591,,,,82.3,1000,100,85,5,5,3,8,,,,,,, ,
X,4,25,2022,592,94551,40.8977,-71.251,91,318, , ,,, , , ,, ,,,,,,, , ,,,,,,,,,,,,,,,,,4,16,,,,F,592,,,,81.6,1000,100,85,5,5,3,8,,,,,,, ,
X,4,25,2022,593,94556,40.8976,-71.2483,90,318, , ,,, , , ,, ,,,,,,, , ,,,,,,,,,,,,,,,,,4,16,,,,F,593,,,,82.2,1000,100,85,5,5,3,8,,,,,,, ,
X,4,25,2022,594,94601,40.8976,-71.2457,90,308, , ,,, , , ,, ,,,,,,, , ,,,,,,,,,,,,,,,,,4,16,,,,F,594,,,,86.1,1000,100,85,5,5,3,8,,,,,,, ,
X,4,25,2022,595,94606,40.8976,-71.2431,91,307, , ,,, , , ,, ,,,,,,, , ,,,,,,,,,,,,,,,,,4,16,,,,F,595,,,,86.9,1000,100,85,5,5,3,8,,,,,,, ,
X,4,25,2022,596,94611,40.8976,-71.2404,90,307, , ,,, , , ,, ,,,,,,, , ,,,,,,,,,,,,,,,,,4,16,,,,F,596,,,,87.6,1000,100,85,5,5,3,8,,,,,,, ,
X,4,25,2022,597,94616,40.8975,-71.2377,92,300, , ,,, , , ,, ,,,,,,, , ,,,,,,,,,,,,,,,,,4,16,,,,F,597,,,,89.5,1000,100,85,5,5,3,8,,,,,,, ,
X,4,25,2022,598,94621,40.8974,-71.2351,93,298, , ,,, , , ,, ,,,,,,, , ,,,,,,,,,,,,,,,,,4,16,,,,F,598,,,,90.5,1000,100,85,5,5,3,9,,,,,,, ,
Z,4,25,2022,599,94622,40.8973,-71.2344,92,299, , ,,, , , ,, ,,,,,,, , ,,,,,,,,,,,,,,,,,4,16,,,,F,599,,,,90.1,1000,100,85,5,5,3,8,,,,,,, ,
X,4,25,2022,600,94626,40.8973,-71.2323,91,303, , ,,, , , ,, ,,,,,,, , ,,,,,,,,,,,,,,,,,4,16,,,,F,600,,,,88.5,1000,100,85,5,5,3,8,,,,,,, ,
X,4,25,2022,601,94631,40.8972,-71.2295,91,305, , ,,, , , ,, ,,,,,,, , ,,,,,,,,,,,,,,,,,4,16,,,,F,601,,,,87.5,1000,100,85,5,5,3,8,,,,,,, ,
X,4,25,2022,602,94636,40.8972,-71.2268,91,301, , ,,, , , ,, ,,,,,,, , ,,,,,,,,,,,,,,,,,4,16,,,,F,602,,,,88.8,1000,100,85,5,5,3,8,,,,,,, ,
X,4,25,2022,603,94641,40.8971,-71.2241,91,296, , ,,, , , ,, ,,,,,,, , ,,,,,,,,,,,,,,,,,4,16,,,,F,603,,,,90.1,1000,100,85,5,5,3,8,,,,,,, ,
X,4,25,2022,604,94646,40.897,-71.2212,91,294, , ,,, , , ,, ,,,,,,, , ,,,,,,,,,,,,,,,,,4,16,,,,F,604,,,,90.7,1000,100,85,5,5,3,8,,,,,,, ,
X,4,25,2022,605,94651,40.897,-71.2186,92,295, , ,,, , , ,, ,,,,,,, , ,,,,,,,,,,,,,,,,,4,16,,,,T,605,,,,89.8,1000,100,85,5,5,3,8,,,,,,, ,
S,4,25,2022,606,94653,40.897,-71.2186,92,295, , ,,, , ,2,, ,21,,,,,, , ,,,,,,,,,,,,,,,,,4,17,,,,T,606,,,,89.8,1000,100,85,5,5,3,8,,,,,,BSS, ,
X,4,25,2022,607,94656,40.8969,-71.2159,92,296, , ,,, , , ,, ,,,,,,, , ,,,,,,,,,,,,,,,,,4,17,,,,T,607,,,,89.5,1000,100,85,5,5,3,8,,,,,,, ,
X,4,25,2022,608,94701,40.8968,-71.2131,93,295, , ,,, , , ,, ,,,,,,, , ,,,,,,,,,,,,,,,,,4,17,,,,F,608,,,,89.3,1000,100,85,5,5,3,8,,,,,,, ,
X,4,25,2022,609,94706,40.8966,-71.2104,93,296, , ,,, , , ,, ,,,,,,, , ,,,,,,,,,,,,,,,,,4,17,,,,F,609,,,,89.5,1000,100,85,5,5,3,8,,,,,,, ,
X,4,25,2022,610,94711,40.8965,-71.2075,93,296, , ,,, , , ,, ,,,,,,, , ,,,,,,,,,,,,,,,,,4,17,,,,F,610,,,,89,1000,100,85,5,5,3,8,,,,,,, ,
Z,4,25,2022,611,94712,40.8965,-71.2073,94,296, , ,,, , , ,, ,,,,,,, , ,,,,,,,,,,,,,,,,,4,17,,,,F,611,,,,89,1000,100,85,5,5,3,8,,,,,,, ,
X,4,25,2022,612,94716,40.8964,-71.2048,93,297, , ,,, , , ,, ,,,,,,, , ,,,,,,,,,,,,,,,,,4,17,,,,F,612,,,,88.4,1000,100,85,5,5,3,8,,,,,,, ,
X,4,25,2022,613,94721,40.8963,-71.2021,89,299, , ,,, , , ,, ,,,,,,, , ,,,,,,,,,,,,,,,,,4,17,,,,F,613,,,,88,1000,100,85,5,5,3,8,,,,,,, ,
X,4,25,2022,614,94726,40.8964,-71.1997,88,298, , ,,, , , ,, ,,,,,,, , ,,,,,,,,,,,,,,,,,4,17,,,,F,614,,,,88.3,1000,100,85,5,5,3,8,,,,,,, ,
X,4,25,2022,615,94731,40.8965,-71.1969,87,297, , ,,, , , ,, ,,,,,,, , ,,,,,,,,,,,,,,,,,4,17,,,,F,615,,,,88.7,1000,100,85,5,5,3,8,,,,,,, ,
X,4,25,2022,616,94736,40.8966,-71.1942,85,298, , ,,, , , ,, ,,,,,,, , ,,,,,,,,,,,,,,,,,4,17,,,,F,616,,,,88.2,1000,100,85,5,5,3,8,,,,,,, ,
X,4,25,2022,617,94741,40.8967,-71.1915,84,303, , ,,, , , ,, ,,,,,,, , ,,,,,,,,,,,,,,,,,4,17,,,,F,617,,,,86.2,1000,100,85,5,5,3,8,,,,,,, ,
X,4,25,2022,618,94746,40.897,-71.1889,83,304, , ,,, , , ,, ,,,,,,, , ,,,,,,,,,,,,,,,,,4,17,,,,F,618,,,,86.6,1000,100,85,5,5,3,8,,,,,,, ,
X,4,25,2022,619,94751,40.8972,-71.1868,81,305, , ,,, , , ,, ,,,,,,, , ,,,,,,,,,,,,,,,,,4,17,,,,F,619,,,,86.3,1000,100,85,5,5,3,8,,,,,,, ,
X,4,25,2022,620,94756,40.8976,-71.1837,77,307, , ,,, , , ,, ,,,,,,, , ,,,,,,,,,,,,,,,,,4,17,,,,F,620,,,,86.4,1000,100,85,5,5,3,8,,,,,,, ,
X,4,25,2022,621,94801,40.8982,-71.181,70,303, , ,,, , , ,, ,,,,,,, , ,,,,,,,,,,,,,,,,,4,17,,,,F,621,,,,88.2,1000,100,85,5,5,3,8,,,,,,, ,
Z,4,25,2022,622,94802,40.8982,-71.181,70,303, , ,,, , , ,, ,,,,,,, , ,,,,,,,,,,,,,,,,,4,17,,,,F,622,,,,88.2,1000,100,85,5,5,3,8,,,,,,, ,
X,4,25,2022,623,94806,40.899,-71.1787,59,301, , ,,, , , ,, ,,,,,,, , ,,,,,,,,,,,,,,,,,4,17,,,,F,623,,,,89.6,1000,100,85,5,5,3,8,,,,,,, ,
X,4,25,2022,624,94811,40.9002,-71.1763,54,294, , ,,, , , ,, ,,,,,,, , ,,,,,,,,,,,,,,,,,4,17,,,,F,624,,,,92.3,1000,100,85,5,5,3,9,,,,,,, ,
Z,4,25,2022,625,94814,40.9008,-71.1753,52,292, , ,,, , , ,, ,,,,,,, , ,,,,,,,,,,,,,,,,,4,17,,,,F,625,,,,92.9,1000,100,85,5,5,3,9,,,,,,, ,
X,4,25,2022,626,94816,40.9016,-71.1741,48,295, , ,,, , , ,, ,,,,,,, , ,,,,,,,,,,,,,,,,,4,17,,,,F,626,,,,91.8,1000,100,85,5,5,3,9,,,,,,, ,
X,4,25,2022,627,94821,40.9025,-71.1727,49,303, , ,,, , , ,, ,,,,,,, , ,,,,,,,,,,,,,,,,,4,17,,,,F,627,,,,89.3,1000,100,85,5,5,3,9,,,,,,, ,
X,4,25,2022,628,94826,40.9041,-71.17,50,310, , ,,, , , ,, ,,,,,,, , ,,,,,,,,,,,,,,,,,4,17,,,,F,628,,,,87.7,1000,100,85,5,5,3,9,,,,,,, ,
X,4,25,2022,629,94831,40.9054,-71.168,50,307, , ,,, , , ,, ,,,,,,, , ,,,,,,,,,,,,,,,,,4,17,,,,F,629,,,,88.6,1000,100,85,5,5,3,9,,,,,,, ,
X,4,25,2022,630,94836,40.9067,-71.1658,49,307, , ,,, , , ,, ,,,,,,, , ,,,,,,,,,,,,,,,,,4,17,,,,F,630,,,,88.8,1000,100,85,5,5,3,9,,,,,,, ,
X,4,25,2022,631,94841,40.9081,-71.1638,42,311, , ,,, , , ,, ,,,,,,, , ,,,,,,,,,,,,,,,,,4,17,,,,F,631,,,,88.7,1000,100,85,5,5,3,9,,,,,,, ,
X,4,25,2022,632,94846,40.9099,-71.1623,23,310, , ,,, , , ,, ,,,,,,, , ,,,,,,,,,,,,,,,,,4,17,,,,F,632,,,,92.7,1000,100,85,5,5,3,9,,,,,,, ,
X,4,25,2022,633,94851,40.912,-71.1616,7,302, , ,,, , , ,, ,,,,,,, , ,,,,,,,,,,,,,,,,,4,17,,,,F,633,,,,98.7,1000,100,85,5,5,3,9,,,,,,, ,
Z,4,25,2022,634,94852,40.912,-71.1616,7,302, , ,,, , , ,, ,,,,,,, , ,,,,,,,,,,,,,,,,,4,17,,,,F,634,,,,98.7,1000,100,85,5,5,3,9,,,,,,, ,
X,4,25,2022,635,94856,40.9142,-71.1617,349,294, , ,,, , , ,, ,,,,,,, , ,,,,,,,,,,,,,,,,,4,17,,,,F,635,,,,106.3,1000,100,85,5,5,3,9,,,,,,, ,
X,4,25,2022,636,94901,40.9167,-71.1629,335,294, , ,,, , , ,, ,,,,,,, , ,,,,,,,,,,,,,,,,,4,17,,,,F,636,,,,109.3,1000,100,85,5,5,3,8,,,,,,, ,
X,4,25,2022,637,94906,40.919,-71.1642,342,303, , ,,, , , ,, ,,,,,,, , ,,,,,,,,,,,,,,,,,4,17,,,,T,637,,,,105.1,1000,100,85,5,5,3,8,,,,,,, ,
S,4,25,2022,638,94909,40.92,-71.1645,347,305,2,1,11,,2,2,2,, ,22,,,,,, , ,,,,,,,,,,,,,,,,,4,18,,,,T,638,,,,103.8,1000,100,85,5,5,3,9,,,,,,BEGIN LINE; TURN ONTO LINE WAS OFF, ,
X,4,25,2022,639,94911,40.9215,-71.1649,349,311,2,2,,, , , ,, ,,,,,,, , ,,,,,,,,,,,,,,,,,4,18,,,,T,639,,,,103.2,1000,100,85,5,5,3,8,,,,,,, ,
X,4,25,2022,640,94916,40.9236,-71.1654,350,313, , ,,, , , ,, ,,,,,,, , ,,,,,,,,,,,,,,,,,4,18,,,,F,640,,,,100.3,1000,100,85,5,5,3,8,,,,,,, ,
X,4,25,2022,641,94921,40.9261,-71.1657,359,321, , ,,, , , ,, ,,,,,,, , ,,,,,,,,,,,,,,,,,4,18,,,,F,641,,,,96.1,1000,100,85,5,5,3,9,,,,,,, ,
X,4,25,2022,642,94926,40.928,-71.1657,359,320, , ,,, , , ,, ,,,,,,, , ,,,,,,,,,,,,,,,,,4,18,,,,F,642,,,,95.9,1000,100,85,5,5,3,9,,,,,,, ,
X,4,25,2022,643,94931,40.9304,-71.1659,356,321, , ,,, , , ,, ,,,,,,, , ,,,,,,,,,,,,,,,,,4,18,,,,F,643,,,,96,1000,100,85,5,5,3,7,,,,,,, ,
X,4,25,2022,644,94936,40.9327,-71.1659,0,325, , ,,, , , ,, ,,,,,,, , ,,,,,,,,,,,,,,,,,4,18,,,,F,644,,,,94.8,1000,100,85,5,5,3,9,,,,,,, ,
Z,4,25,2022,645,94937,40.933,-71.1658,0,328, , ,,, , , ,, ,,,,,,, , ,,,,,,,,,,,,,,,,,4,18,,,,F,645,,,,95.1,1000,100,85,5,5,3,9,,,,,,, ,
X,4,25,2022,646,94941,40.9349,-71.1659,358,325, , ,,, , , ,, ,,,,,,, , ,,,,,,,,,,,,,,,,,4,18,,,,F,646,,,,95.8,1000,100,85,5,5,3,8,,,,,,, ,
X,4,25,2022,647,94946,40.9371,-71.1659,1,326, , ,,, , , ,, ,,,,,,, , ,,,,,,,,,,,,,,,,,4,18,,,,F,647,,,,94.1,1000,100,85,5,5,3,8,,,,,,, ,
X,4,25,2022,648,94951,40.9392,-71.1659,358,326, , ,,, , , ,, ,,,,,,, , ,,,,,,,,,,,,,,,,,4,18,,,,F,648,,,,93.6,1000,100,85,5,5,3,8,,,,,,, ,
X,4,25,2022,649,94956,40.9413,-71.166,358,326, , ,,, , , ,, ,,,,,,, , ,,,,,,,,,,,,,,,,,4,18,,,,F,649,,,,93.9,1000,100,85,5,5,3,8,,,,,,, ,
X,4,25,2022,650,95001,40.9436,-71.166,0,318, , ,,, , , ,, ,,,,,,, , ,,,,,,,,,,,,,,,,,4,18,,,,F,650,,,,95.7,1000,100,85,5,5,3,8,,,,,,, ,
X,4,25,2022,651,95006,40.9458,-71.1661,358,322, , ,,, , , ,, ,,,,,,, , ,,,,,,,,,,,,,,,,,4,18,,,,F,651,,,,94.7,1000,100,85,5,5,3,9,,,,,,, ,
X,4,25,2022,652,95011,40.948,-71.1661,1,323, , ,,, , , ,, ,,,,,,, , ,,,,,,,,,,,,,,,,,4,18,,,,F,652,,,,94.8,1000,100,85,5,5,3,9,,,,,,, ,
X,4,25,2022,653,95016,40.9502,-71.1661,358,313, , ,,, , , ,, ,,,,,,, , ,,,,,,,,,,,,,,,,,4,18,,,,F,653,,,,99.7,1000,100,85,5,5,3,9,,,,,,, ,
X,4,25,2022,654,95021,40.9522,-71.1661,0,307, , ,,, , , ,, ,,,,,,, , ,,,,,,,,,,,,,,,,,4,18,,,,F,654,,,,101.3,1000,100,85,5,5,3,9,,,,,,, ,
X,4,25,2022,655,95026,40.955,-71.1661,358,307, , ,,, , , ,, ,,,,,,, , ,,,,,,,,,,,,,,,,,4,18,,,,F,655,,,,102.3,1000,100,85,5,5,3,9,,,,,,, ,
Z,4,25,2022,656,95027,40.955,-71.1661,358,307, , ,,, , , ,, ,,,,,,, , ,,,,,,,,,,,,,,,,,4,18,,,,F,656,,,,102.3,1000,100,85,5,5,3,9,,,,,,, ,
X,4,25,2022,657,95031,40.9574,-71.1662,358,308, , ,,, , , ,, ,,,,,,, , ,,,,,,,,,,,,,,,,,4,18,,,,F,657,,,,101.7,1000,100,85,5,5,3,9,,,,,,, ,
X,4,25,2022,658,95036,40.9597,-71.1662,0,308, , ,,, , , ,, ,,,,,,, , ,,,,,,,,,,,,,,,,,4,18,,,,F,658,,,,100.5,1000,100,85,5,5,3,9,,,,,,, ,
X,4,25,2022,659,95041,40.962,-71.1663,358,311, , ,,, , , ,, ,,,,,,, , ,,,,,,,,,,,,,,,,,4,18,,,,F,659,,,,100.5,1000,100,85,5,5,3,9,,,,,,, ,
X,4,25,2022,660,95046,40.9642,-71.1663,1,311, , ,,, , , ,, ,,,,,,, , ,,,,,,,,,,,,,,,,,4,18,,,,F,660,,,,98.9,1000,100,85,5,5,3,9,,,,,,, ,
X,4,25,2022,661,95051,40.9666,-71.1663,357,307, , ,,, , , ,, ,,,,,,, , ,,,,,,,,,,,,,,,,,4,18,,,,F,661,,,,101.7,1000,100,85,5,5,3,9,,,,,,, ,
X,4,25,2022,662,95056,40.9689,-71.1663,359,304, , ,,, , , ,, ,,,,,,, , ,,,,,,,,,,,,,,,,,4,18,,,,F,662,,,,102.1,1000,100,85,5,5,3,9,,,,,,, ,
X,4,25,2022,663,95101,40.9713,-71.1663,0,301, , ,,, , , ,, ,,,,,,, , ,,,,,,,,,,,,,,,,,4,18,,,,F,663,,,,102.8,1000,100,85,5,5,3,9,,,,,,, ,
X,4,25,2022,664,95106,40.9737,-71.1663,359,297, , ,,, , , ,, ,,,,,,, , ,,,,,,,,,,,,,,,,,4,18,,,,F,664,,,,104.1,1000,100,85,5,5,3,9,,,,,,, ,
X,4,25,2022,665,95111,40.9761,-71.1663,0,294, , ,,, , , ,, ,,,,,,, , ,,,,,,,,,,,,,,,,,4,18,,,,F,665,,,,104.2,1000,100,85,5,5,3,9,,,,,,, ,
X,4,25,2022,666,95116,40.9784,-71.1664,358,294, , ,,, , , ,, ,,,,,,, , ,,,,,,,,,,,,,,,,,4,18,,,,F,666,,,,104.2,1000,100,85,5,5,3,9,,,,,,, ,
Z,4,25,2022,667,95117,40.9789,-71.1664,359,294, , ,,, , , ,, ,,,,,,, , ,,,,,,,,,,,,,,,,,4,18,,,,F,667,,,,104.3,1000,100,85,5,5,3,9,,,,,,, ,
X,4,25,2022,668,95121,40.9809,-71.1664,0,289, , ,,, , , ,, ,,,,,,, , ,,,,,,,,,,,,,,,,,4,18,,,,F,668,,,,104.7,1000,100,85,5,5,3,9,,,,,,, ,
X,4,25,2022,669,95126,40.9833,-71.1664,358,290, , ,,, , , ,, ,,,,,,, , ,,,,,,,,,,,,,,,,,4,18,,,,F,669,,,,104.8,1000,100,85,5,5,3,9,,,,,,, ,
Z,4,25,2022,670,95129,40.9848,-71.1664,358,291, , ,,, , , ,, ,,,,,,, , ,,,,,,,,,,,,,,,,,4,18,,,,F,670,,,,104.1,1000,100,85,5,5,3,9,,,,,,, ,
X,4,25,2022,671,95131,40.9858,-71.1664,0,293, , ,,, , , ,, ,,,,,,, , ,,,,,,,,,,,,,,,,,4,18,,,,F,671,,,,102.3,1000,100,85,5,5,3,9,,,,,,, ,
X,4,25,2022,672,95136,40.9882,-71.1664,358,304, , ,,, , , ,, ,,,,,,, , ,,,,,,,,,,,,,,,,,4,18,,,,F,672,,,,98.9,1000,100,85,5,5,3,9,,,,,,, ,
X,4,25,2022,673,95141,40.9905,-71.1665,0,302, , ,,, , , ,, ,,,,,,, , ,,,,,,,,,,,,,,,,,4,18,,,,F,673,,,,99.1,1000,100,85,5,5,3,9,,,,,,, ,
X,4,25,2022,674,95146,40.9928,-71.1665,359,290, , ,,, , , ,, ,,,,,,, , ,,,,,,,,,,,,,,,,,4,18,,,,F,674,,,,102.9,1000,100,85,5,5,3,9,,,,,,, ,
X,4,25,2022,675,95151,40.995,-71.1665,358,292, , ,,, , , ,, ,,,,,,, , ,,,,,,,,,,,,,,,,,4,18,,,,F,675,,,,102.2,1000,100,85,5,5,3,9,,,,,,, ,
X,4,25,2022,676,95156,40.9974,-71.1665,1,296, , ,,, , , ,, ,,,,,,, , ,,,,,,,,,,,,,,,,,4,18,,,,F,676,,,,99.1,1000,100,85,5,5,3,9,,,,,,, ,
X,4,25,2022,677,95201,40.9997,-71.1665,358,298, , ,,, , , ,, ,,,,,,, , ,,,,,,,,,,,,,,,,,4,18,,,,F,677,,,,99.4,1000,100,85,5,5,3,9,,,,,,, ,
X,4,25,2022,678,95206,41.0021,-71.1665,1,295, , ,,, , , ,, ,,,,,,, , ,,,,,,,,,,,,,,,,,4,18,,,,F,678,,,,99,1000,100,85,5,5,3,9,,,,,,, ,
Z,4,25,2022,679,95207,41.0023,-71.1665,1,295, , ,,, , , ,, ,,,,,,, , ,,,,,,,,,,,,,,,,,4,18,,,,F,679,,,,99.1,1000,100,85,5,5,3,9,,,,,,, ,
X,4,25,2022,680,95211,41.0043,-71.1664,358,293, , ,,, , , ,, ,,,,,,, , ,,,,,,,,,,,,,,,,,4,18,,,,F,680,,,,100.7,1000,100,85,5,5,3,9,,,,,,, ,
X,4,25,2022,681,95216,41.0068,-71.1665,0,291, , ,,, , , ,, ,,,,,,, , ,,,,,,,,,,,,,,,,,4,18,,,,F,681,,,,99.8,1000,100,85,5,5,3,9,,,,,,, ,
Z,4,25,2022,682,95219,41.0079,-71.1665,0,292, , ,,, , , ,, ,,,,,,, , ,,,,,,,,,,,,,,,,,4,18,,,,F,682,,,,100,1000,100,85,5,5,3,9,,,,,,, ,
X,4,25,2022,683,95221,41.0086,-71.1665,359,292, , ,,, , , ,, ,,,,,,, , ,,,,,,,,,,,,,,,,,4,18,,,,F,683,,,,100.1,1000,100,85,5,5,3,9,,,,,,, ,
X,4,25,2022,684,95226,41.0113,-71.1665,358,295, , ,,, , , ,, ,,,,,,, , ,,,,,,,,,,,,,,,,,4,18,,,,F,684,,,,99.1,1000,100,85,5,5,3,9,,,,,,, ,
X,4,25,2022,685,95231,41.0136,-71.1665,1,297, , ,,, , , ,, ,,,,,,, , ,,,,,,,,,,,,,,,,,4,18,,,,F,685,,,,97.6,1000,100,85,5,5,3,9,,,,,,, ,
X,4,25,2022,686,95236,41.0158,-71.1665,357,298, , ,,, , , ,, ,,,,,,, , ,,,,,,,,,,,,,,,,,4,18,,,,F,686,,,,98.4,1000,100,85,5,5,3,9,,,,,,, ,
X,4,25,2022,687,95241,41.0181,-71.1666,358,299, , ,,, , , ,, ,,,,,,, , ,,,,,,,,,,,,,,,,,4,18,,,,F,687,,,,98.1,1000,100,85,5,5,3,9,,,,,,, ,
X,4,25,2022,688,95246,41.0204,-71.1667,0,299, , ,,, , , ,, ,,,,,,, , ,,,,,,,,,,,,,,,,,4,18,,,,F,688,,,,97.4,1000,100,85,5,5,3,9,,,,,,, ,
X,4,25,2022,689,95251,41.0226,-71.1666,0,298, , ,,, , , ,, ,,,,,,, , ,,,,,,,,,,,,,,,,,4,18,,,,F,689,,,,97.6,1000,100,85,5,5,3,9,,,,,,, ,
X,4,25,2022,690,95256,41.0249,-71.1666,359,298, , ,,, , , ,, ,,,,,,, , ,,,,,,,,,,,,,,,,,4,18,,,,F,690,,,,98.4,1000,100,85,5,5,3,9,,,,,,, ,
Z,4,25,2022,691,95256,41.0249,-71.1666,359,298, , ,,, , , ,, ,,,,,,, , ,,,,,,,,,,,,,,,,,4,18,,,,T,691,,,,98.4,1000,100,85,5,5,3,9,,,,,,, ,
S,4,25,2022,692,95258,41.0249,-71.1666,359,298, , ,,, ,3, ,, ,23,,,,,, , ,,,,,,,,,,,,,,,,,4,19,,,,T,692,,,,98.4,1000,100,85,5,5,3,9,,,,,,GLARE R, ,
X,4,25,2022,693,95301,41.0272,-71.1667,359,298, , ,,, , , ,, ,,,,,,, , ,,,,,,,,,,,,,,,,,4,19,,,,T,693,,,,97.9,1000,100,85,5,5,3,9,,,,,,, ,
X,4,25,2022,694,95306,41.0296,-71.1666,0,299, , ,,, , , ,, ,,,,,,, , ,,,,,,,,,,,,,,,,,4,19,,,,F,694,,,,97.4,1000,100,85,5,5,3,9,,,,,,, ,
Z,4,25,2022,695,95309,41.0305,-71.1666,359,299, , ,,, , , ,, ,,,,,,, , ,,,,,,,,,,,,,,,,,4,19,,,,F,695,,,,97.8,1000,100,85,5,5,3,9,,,,,,, ,
X,4,25,2022,696,95311,41.0318,-71.1667,359,299, , ,,, , , ,, ,,,,,,, , ,,,,,,,,,,,,,,,,,4,19,,,,F,696,,,,97.8,1000,100,85,5,5,3,9,,,,,,, ,
X,4,25,2022,697,95316,41.0337,-71.1666,1,298, , ,,, , , ,, ,,,,,,, , ,,,,,,,,,,,,,,,,,4,19,,,,F,697,,,,97,1000,100,85,5,5,3,9,,,,,,, ,
X,4,25,2022,698,95321,41.0362,-71.1666,0,298, , ,,, , , ,, ,,,,,,, , ,,,,,,,,,,,,,,,,,4,19,,,,F,698,,,,97.3,1000,100,85,5,5,3,9,,,,,,, ,
X,4,25,2022,699,95326,41.0385,-71.1666,359,298, , ,,, , , ,, ,,,,,,, , ,,,,,,,,,,,,,,,,,4,19,,,,F,699,,,,97.2,1000,100,85,5,5,3,9,,,,,,, ,
X,4,25,2022,700,95331,41.0407,-71.1666,0,299, , ,,, , , ,, ,,,,,,, , ,,,,,,,,,,,,,,,,,4,19,,,,F,700,,,,97.4,1000,100,85,5,5,3,9,,,,,,, ,
X,4,25,2022,701,95336,41.043,-71.1665,359,299, , ,,, , , ,, ,,,,,,, , ,,,,,,,,,,,,,,,,,4,19,,,,F,701,,,,97.6,1000,100,85,5,5,3,9,,,,,,, ,
X,4,25,2022,702,95341,41.0451,-71.1666,359,295, , ,,, , , ,, ,,,,,,, , ,,,,,,,,,,,,,,,,,4,19,,,,F,702,,,,98.7,1000,100,85,5,5,3,9,,,,,,, ,
X,4,25,2022,703,95346,41.0476,-71.1666,1,287, , ,,, , , ,, ,,,,,,, , ,,,,,,,,,,,,,,,,,4,19,,,,F,703,,,,100.2,1000,100,85,5,5,3,9,,,,,,, ,
Z,4,25,2022,704,95350,41.0494,-71.1666,359,289, , ,,, , , ,, ,,,,,,, , ,,,,,,,,,,,,,,,,,4,19,,,,F,704,,,,99.9,1000,100,85,5,5,3,9,,,,,,, ,
