rectype,month,day,year,eventno,time,lat,long,heading,alt,legtype,legstage,legno,visiblty,glarel,glarer,beaufort,cloud,wx,sightno,anglel,angler,speccode,number,numcalf,anhead,photos,idrel,confidnc,behav1,behav2,behav3,behav4,behav5,behav6,behav7,behav8,behav9,behav10,behav11,behav12,behav13,behav14,behav15,refno,stratum,utc,radalt,gpsspeed,setalt,setvel,lensfl,ggf,int,gpsq,gpssats,roll,pitch,yaw,maghead,notes,edits,glarev,ph_qual
S,3,23,2022,346,93101,41.3974,-71.1676,231,310,1,-,,5, , ,4,1,C,3,,,,,,, , ,,,,,,,,,,,,,,,,,348,,,,116.4,1000,100,85,5,5,3,10,,,,,GOING ON WATCH,, ,
X,3,23,2022,347,93103,41.3965,-71.1691,230,309,1,-,,5, , ,4,1,C,,,,,,,, , ,,,,,,,,,,,,,,,,,349,,,,113.9,1000,100,85,5,5,3,10,,,,,,, ,
X,3,23,2022,348,93108,41.3947,-71.1721,231,303,1,-,,5, , ,4,1,C,,,,,,,, , ,,,,,,,,,,,,,,,,,350,,,,111.5,1000,100,85,5,5,3,10,,,,,,, ,
X,3,23,2022,349,93113,41.3933,-71.1745,232,307,1,-,,5, , ,4,1,C,,,,,,,, , ,,,,,,,,,,,,,,,,,351,,,,107.1,1000,100,85,5,5,3,10,,,,,,, ,
X,3,23,2022,350,93118,41.3916,-71.1773,232,305,1,-,,5, , ,4,1,C,,,,,,,, , ,,,,,,,,,,,,,,,,,352,,,,105.1,1000,100,85,5,5,3,10,,,,,,, ,
X,3,23,2022,351,93123,41.3902,-71.1799,233,306,1,-,,5, , ,4,1,C,,,,,,,, , ,,,,,,,,,,,,,,,,,353,,,,103.5,1000,100,85,5,5,3,9,,,,,,, ,
X,3,23,2022,352,93128,41.3887,-71.1825,232,306,1,-,,5, , ,4,1,C,,,,,,,, , ,,,,,,,,,,,,,,,,,354,,,,103.7,1000,100,85,5,5,3,9,,,,,,, ,
Z,3,23,2022,353,93129,41.3885,-71.1829,232,306,1,-,,5, , ,4,1,C,,,,,,,, , ,,,,,,,,,,,,,,,,,355,,,,103.9,1000,100,85,5,5,3,9,,,,,,, ,
X,3,23,2022,354,93133,41.3874,-71.1848,232,305,1,-,,5, , ,4,1,C,,,,,,,, , ,,,,,,,,,,,,,,,,,356,,,,104.2,1000,100,85,5,5,3,9,,,,,,, ,
X,3,23,2022,355,93138,41.3858,-71.1875,232,304,1,-,,5, , ,4,1,C,,,,,,,, , ,,,,,,,,,,,,,,,,,357,,,,104.3,1000,100,85,5,5,3,9,,,,,,, ,
X,3,23,2022,356,93143,41.3843,-71.19,232,302,1,-,,5, , ,4,1,C,,,,,,,, , ,,,,,,,,,,,,,,,,,358,,,,103.2,1000,100,85,5,5,3,9,,,,,,, ,
X,3,23,2022,357,93148,41.3829,-71.1925,233,305,1,-,,5, , ,4,1,C,,,,,,,, , ,,,,,,,,,,,,,,,,,359,,,,100.9,1000,100,85,5,5,3,9,,,,,,, ,
X,3,23,2022,358,93153,41.3815,-71.195,233,304,1,-,,5, , ,4,1,C,,,,,,,, , ,,,,,,,,,,,,,,,,,360,,,,101.7,1000,100,85,5,5,3,9,,,,,,, ,
X,3,23,2022,359,93158,41.3802,-71.1974,233,305,1,-,,5, , ,4,1,C,,,,,,,, , ,,,,,,,,,,,,,,,,,361,,,,100.8,1000,100,85,5,5,3,9,,,,,,, ,
X,3,23,2022,360,93203,41.3787,-71.2,234,304,1,-,,5, , ,4,1,C,,,,,,,, , ,,,,,,,,,,,,,,,,,363,,,,100.2,1000,100,85,5,5,3,9,,,,,,, ,
X,3,23,2022,361,93208,41.3778,-71.2018,234,303,1,-,,5, , ,4,1,C,,,,,,,, , ,,,,,,,,,,,,,,,,,364,,,,100.1,1000,100,85,5,5,3,9,,,,,,, ,
X,3,23,2022,362,93213,41.3761,-71.2049,234,302,1,-,,5, , ,4,1,C,,,,,,,, , ,,,,,,,,,,,,,,,,,365,,,,100.8,1000,100,85,5,5,3,9,,,,,,, ,
X,3,23,2022,363,93218,41.3747,-71.2076,235,299,1,-,,5, , ,4,1,C,,,,,,,, , ,,,,,,,,,,,,,,,,,366,,,,100.9,1000,100,85,5,5,3,9,,,,,,, ,
Z,3,23,2022,364,93219,41.3745,-71.208,234,298,1,-,,5, , ,4,1,C,,,,,,,, , ,,,,,,,,,,,,,,,,,367,,,,100.8,1000,100,85,5,5,3,9,,,,,,, ,
X,3,23,2022,365,93223,41.3734,-71.2101,234,297,1,-,,5, , ,4,1,C,,,,,,,, , ,,,,,,,,,,,,,,,,,368,,,,101.7,1000,100,85,5,5,3,9,,,,,,, ,
X,3,23,2022,366,93228,41.372,-71.2127,234,293,1,-,,5, , ,4,1,C,,,,,,,, , ,,,,,,,,,,,,,,,,,369,,,,102.9,1000,100,85,5,5,3,9,,,,,,, ,
X,3,23,2022,367,93233,41.3706,-71.2153,234,295,1,-,,5, , ,4,1,C,,,,,,,, , ,,,,,,,,,,,,,,,,,370,,,,101.9,1000,100,85,5,5,3,9,,,,,,, ,
X,3,23,2022,368,93238,41.3693,-71.2178,234,297,1,-,,5, , ,4,1,C,,,,,,,, , ,,,,,,,,,,,,,,,,,371,,,,101.3,1000,100,85,5,5,3,9,,,,,,, ,
X,3,23,2022,369,93243,41.3679,-71.2204,236,296,1,-,,5, , ,4,1,C,,,,,,,, , ,,,,,,,,,,,,,,,,,372,,,,102,1000,100,85,5,5,3,9,,,,,,, ,
X,3,23,2022,370,93248,41.3666,-71.223,237,308,1,-,,5, , ,4,1,C,,,,,,,, , ,,,,,,,,,,,,,,,,,373,,,,99.8,1000,100,85,5,5,3,9,,,,,,, ,
X,3,23,2022,371,93253,41.3654,-71.2256,237,313,1,-,,5, , ,4,1,C,,,,,,,, , ,,,,,,,,,,,,,,,,,374,,,,100.1,1000,100,85,5,5,3,9,,,,,,, ,
X,3,23,2022,372,93258,41.3641,-71.2282,236,311,1,-,,5, , ,4,1,C,,,,,,,, , ,,,,,,,,,,,,,,,,,375,,,,102.2,1000,100,85,5,5,3,9,,,,,,, ,
X,3,23,2022,373,93303,41.3629,-71.2306,236,308,1,-,,5, , ,4,1,C,,,,,,,, , ,,,,,,,,,,,,,,,,,376,,,,104.4,1000,100,85,5,5,3,9,,,,,,, ,
X,3,23,2022,374,93308,41.3615,-71.2335,235,310,1,-,,5, , ,4,1,C,,,,,,,, , ,,,,,,,,,,,,,,,,,377,,,,105.1,1000,100,85,5,5,3,9,,,,,,, ,
Z,3,23,2022,375,93309,41.3614,-71.2337,235,311,1,-,,5, , ,4,1,C,,,,,,,, , ,,,,,,,,,,,,,,,,,378,,,,105.2,1000,100,85,5,5,3,9,,,,,,, ,
X,3,23,2022,376,93313,41.3601,-71.236,233,313,1,-,,5, , ,4,1,C,,,,,,,, , ,,,,,,,,,,,,,,,,,379,,,,105.5,1000,100,85,5,5,3,9,,,,,,, ,
X,3,23,2022,377,93318,41.3586,-71.2387,233,316,1,-,,5, , ,4,1,C,,,,,,,, , ,,,,,,,,,,,,,,,,,380,,,,104.4,1000,100,85,5,5,3,9,,,,,,, ,
Z,3,23,2022,378,93321,41.3578,-71.2402,233,320,1,-,,5, , ,4,1,C,,,,,,,, , ,,,,,,,,,,,,,,,,,381,,,,103.9,1000,100,85,5,5,3,9,,,,,,, ,
X,3,23,2022,379,93323,41.3571,-71.2413,233,321,1,-,,5, , ,4,1,C,,,,,,,, , ,,,,,,,,,,,,,,,,,382,,,,103.8,1000,100,85,5,5,3,9,,,,,,, ,
X,3,23,2022,380,93328,41.3557,-71.2439,233,320,1,-,,5, , ,4,1,C,,,,,,,, , ,,,,,,,,,,,,,,,,,383,,,,106.6,1000,100,85,5,5,3,9,,,,,,, ,
X,3,23,2022,381,93333,41.3542,-71.2466,234,316,1,-,,5, , ,4,1,C,,,,,,,, , ,,,,,,,,,,,,,,,,,384,,,,108.9,1000,100,85,5,5,3,9,,,,,,, ,
X,3,23,2022,382,93338,41.3527,-71.2493,234,317,1,-,,5, , ,4,1,C,,,,,,,, , ,,,,,,,,,,,,,,,,,385,,,,110.6,1000,100,85,5,5,3,9,,,,,,, ,
X,3,23,2022,383,93343,41.3513,-71.2521,234,318,1,-,,5, , ,4,1,C,,,,,,,, , ,,,,,,,,,,,,,,,,,386,,,,109.8,1000,100,85,5,5,3,9,,,,,,, ,
X,3,23,2022,384,93348,41.3498,-71.2548,234,315,1,-,,5, , ,4,1,C,,,,,,,, , ,,,,,,,,,,,,,,,,,387,,,,108.3,1000,100,85,5,5,3,9,,,,,,, ,
X,3,23,2022,385,93353,41.3484,-71.2572,227,314,1,-,,5, , ,4,1,C,,,,,,,, , ,,,,,,,,,,,,,,,,,388,,,,107.7,1000,100,85,5,5,3,9,,,,,,, ,
Z,3,23,2022,386,93354,41.3478,-71.258,222,314,1,-,,5, , ,4,1,C,,,,,,,, , ,,,,,,,,,,,,,,,,,389,,,,107.7,1000,100,85,5,5,3,9,,,,,,, ,
S,3,23,2022,387,93356,41.3478,-71.258,222,314,1,-,,5, , ,4,1,C,5,,,MV-L,1,,0,1,9,0,,,,,,,,,,,,,,,,390,,,,107.7,1000,100,85,5,5,3,9,,,,,"NO DEGREES, BANKING",, ,
X,3,23,2022,388,93358,41.3464,-71.2595,218,311,1,-,,5, , ,4,1,C,,,,,,,, , ,,,,,,,,,,,,,,,,,391,,,,108.1,1000,100,85,5,5,3,9,,,,,,, ,
X,3,23,2022,389,93403,41.3443,-71.2616,214,306,1,-,,5, , ,4,1,C,,,,,,,, , ,,,,,,,,,,,,,,,,,392,,,,107.2,1000,100,85,5,5,3,9,,,,,,, ,
X,3,23,2022,390,93408,41.3422,-71.2633,207,309,1,-,,5, , ,4,1,C,,,,,,,, , ,,,,,,,,,,,,,,,,,393,,,,105.2,1000,100,85,5,5,3,9,,,,,,, ,
X,3,23,2022,391,93413,41.34,-71.2645,196,313,1,-,,5, , ,4,1,C,,,,,,,, , ,,,,,,,,,,,,,,,,,394,,,,104.6,1000,100,85,5,5,3,9,,,,,,, ,
X,3,23,2022,392,93418,41.3376,-71.2651,188,306,1,-,,5, , ,4,1,C,,,,,,,, , ,,,,,,,,,,,,,,,,,395,,,,104.9,1000,100,85,5,5,3,9,,,,,,, ,
X,3,23,2022,393,93423,41.3353,-71.2656,189,300,1,-,,5, , ,4,1,C,,,,,,,, , ,,,,,,,,,,,,,,,,,396,,,,106.7,1000,100,85,5,5,3,9,,,,,,, ,
X,3,23,2022,394,93424,41.3353,-71.2656,189,300,1,-,,5, , ,4,1,C,,,,,,,, , ,,,,,,,,,,,,,,,,,397,,,,106.7,1000,100,85,5,5,3,9,,,,,,, ,
S,3,23,2022,395,93428,41.333,-71.2661,188,296,2,1,5,5,3,1,4,1,C,6,,,,,,, , ,,,,,,,,,,,,,,,,,398,,,,107.2,1000,100,85,5,5,3,9,,,,,BEGIN LINE,, ,
X,3,23,2022,396,93433,41.3303,-71.2665,185,300,2,2,5,5,3,1,4,1,C,,,,,,,, , ,,,,,,,,,,,,,,,,,399,,,,104.4,1000,100,85,5,5,3,9,,,,,,, ,
X,3,23,2022,397,93438,41.3279,-71.2667,181,301,2,2,5,5,3,1,4,1,C,,,,,,,, , ,,,,,,,,,,,,,,,,,400,,,,103,1000,100,85,5,5,3,9,,,,,,, ,
X,3,23,2022,398,93443,41.3255,-71.2668,180,298,2,2,5,5,3,1,4,1,C,,,,,,,, , ,,,,,,,,,,,,,,,,,401,,,,103.1,1000,100,85,5,5,3,9,,,,,,, ,
Z,3,23,2022,399,93444,41.3251,-71.2668,180,297,2,2,5,5,3,1,4,1,C,,,,,,,, , ,,,,,,,,,,,,,,,,,402,,,,102.7,1000,100,85,5,5,3,9,,,,,,, ,
X,3,23,2022,400,93448,41.3232,-71.2668,179,298,2,2,5,5,3,1,4,1,C,,,,,,,, , ,,,,,,,,,,,,,,,,,403,,,,101.6,1000,100,85,5,5,3,9,,,,,,, ,
X,3,23,2022,401,93453,41.3207,-71.2668,180,297,2,2,5,5,3,1,4,1,C,,,,,,,, , ,,,,,,,,,,,,,,,,,404,,,,101,1000,100,85,5,5,3,9,,,,,,, ,
S,3,23,2022,402,93458,41.3193,-71.2668,180,298,2,2,5,5,3,1,4,1,C,7,,8,MV-B,1,,13,1,9,0,,,,,,,,,,,,,,,,405,,,,101,1000,100,85,5,5,3,9,,,,,,, ,
X,3,23,2022,403,93458,41.3188,-71.2668,180,299,2,2,5,5,3,1,4,1,C,,,,,,,, , ,,,,,,,,,,,,,,,,,406,,,,100.6,1000,100,85,5,5,3,9,,,,,,, ,
X,3,23,2022,404,93503,41.3162,-71.2668,180,307,2,2,5,5,3,1,4,1,C,,,,,,,, , ,,,,,,,,,,,,,,,,,407,,,,98.8,1000,100,85,5,5,3,9,,,,,,, ,
X,3,23,2022,405,93508,41.3139,-71.2668,180,311,2,2,5,5,3,1,4,1,C,,,,,,,, , ,,,,,,,,,,,,,,,,,408,,,,98.6,1000,100,85,5,5,3,9,,,,,,, ,
X,3,23,2022,406,93513,41.3116,-71.2668,180,312,2,2,5,5,3,1,4,1,C,,,,,,,, , ,,,,,,,,,,,,,,,,,409,,,,99.3,1000,100,85,5,5,3,9,,,,,,, ,
X,3,23,2022,407,93518,41.3093,-71.2668,179,314,2,2,5,5,3,1,4,1,C,,,,,,,, , ,,,,,,,,,,,,,,,,,410,,,,101.9,1000,100,85,5,5,3,9,,,,,,, ,
X,3,23,2022,408,93523,41.3071,-71.2669,181,319,2,2,5,5,3,1,4,1,C,,,,,,,, , ,,,,,,,,,,,,,,,,,411,,,,102.9,1000,100,85,5,5,3,9,,,,,,, ,
X,3,23,2022,409,93528,41.3046,-71.2669,180,319,2,2,5,5,3,1,4,1,C,,,,,,,, , ,,,,,,,,,,,,,,,,,412,,,,102.9,1000,100,85,5,5,3,9,,,,,,, ,
X,3,23,2022,410,93533,41.3021,-71.267,181,325,2,2,5,5,3,1,4,1,C,,,,,,,, , ,,,,,,,,,,,,,,,,,413,,,,102.8,1000,100,85,5,5,3,9,,,,,,, ,
Z,3,23,2022,411,93534,41.3018,-71.267,180,326,2,2,5,5,3,1,4,1,C,,,,,,,, , ,,,,,,,,,,,,,,,,,414,,,,103.4,1000,100,85,5,5,3,9,,,,,,, ,
X,3,23,2022,412,93538,41.2997,-71.267,180,324,2,2,5,5,3,1,4,1,C,,,,,,,, , ,,,,,,,,,,,,,,,,,415,,,,104.8,1000,100,85,5,5,3,9,,,,,,, ,
X,3,23,2022,413,93543,41.2973,-71.2671,181,322,2,2,5,5,3,1,4,1,C,,,,,,,, , ,,,,,,,,,,,,,,,,,416,,,,107,1000,100,85,5,5,3,9,,,,,,, ,
X,3,23,2022,414,93548,41.2948,-71.2671,180,322,2,2,5,5,3,1,4,1,C,,,,,,,, , ,,,,,,,,,,,,,,,,,417,,,,106.7,1000,100,85,5,5,3,9,,,,,,, ,
X,3,23,2022,415,93553,41.2923,-71.2671,180,323,2,2,5,5,3,1,4,1,C,,,,,,,, , ,,,,,,,,,,,,,,,,,418,,,,105.9,1000,100,85,5,5,3,9,,,,,,, ,
X,3,23,2022,416,93558,41.2899,-71.2672,179,321,2,2,5,5,3,1,4,1,C,,,,,,,, , ,,,,,,,,,,,,,,,,,419,,,,105.2,1000,100,85,5,5,3,9,,,,,,, ,
X,3,23,2022,417,93603,41.2874,-71.2672,179,318,2,2,5,5,3,1,4,1,C,,,,,,,, , ,,,,,,,,,,,,,,,,,420,,,,104.9,1000,100,85,5,5,3,9,,,,,,, ,
X,3,23,2022,418,93608,41.285,-71.2671,179,315,2,2,5,5,3,1,4,1,C,,,,,,,, , ,,,,,,,,,,,,,,,,,421,,,,105.9,1000,100,85,5,5,3,9,,,,,,, ,
X,3,23,2022,419,93613,41.2826,-71.2671,179,311,2,2,5,5,3,1,4,1,C,,,,,,,, , ,,,,,,,,,,,,,,,,,422,,,,104.8,1000,100,85,5,5,3,9,,,,,,, ,
X,3,23,2022,420,93618,41.2802,-71.2671,179,314,2,2,5,5,3,1,4,1,C,,,,,,,, , ,,,,,,,,,,,,,,,,,423,,,,103,1000,100,85,5,5,3,9,,,,,,, ,
X,3,23,2022,421,93623,41.2779,-71.267,179,313,2,2,5,5,3,1,4,1,C,,,,,,,, , ,,,,,,,,,,,,,,,,,424,,,,102.1,1000,100,85,5,5,3,9,,,,,,, ,
Z,3,23,2022,422,93624,41.2776,-71.267,179,313,2,2,5,5,3,1,4,1,C,,,,,,,, , ,,,,,,,,,,,,,,,,,425,,,,102.3,1000,100,85,5,5,3,9,,,,,,, ,
X,3,23,2022,423,93628,41.2755,-71.2671,180,309,2,2,5,5,3,1,4,1,C,,,,,,,, , ,,,,,,,,,,,,,,,,,427,,,,103,1000,100,85,5,5,3,9,,,,,,, ,
X,3,23,2022,424,93633,41.273,-71.2671,181,308,2,2,5,5,3,1,4,1,C,,,,,,,, , ,,,,,,,,,,,,,,,,,428,,,,101.4,1000,100,85,5,5,3,9,,,,,,, ,
X,3,23,2022,425,93638,41.2707,-71.2672,181,310,2,2,5,5,3,1,4,1,C,,,,,,,, , ,,,,,,,,,,,,,,,,,429,,,,100.7,1000,100,85,5,5,3,9,,,,,,, ,
X,3,23,2022,426,93643,41.2684,-71.2673,181,313,2,2,5,5,3,1,4,1,C,,,,,,,, , ,,,,,,,,,,,,,,,,,430,,,,99.4,1000,100,85,5,5,3,9,,,,,,, ,
X,3,23,2022,427,93648,41.2662,-71.2673,180,312,2,2,5,5,3,1,4,1,C,,,,,,,, , ,,,,,,,,,,,,,,,,,431,,,,99.5,1000,100,85,5,5,3,9,,,,,,, ,
X,3,23,2022,428,93653,41.2638,-71.2673,180,311,2,2,5,5,3,1,4,1,C,,,,,,,, , ,,,,,,,,,,,,,,,,,432,,,,100.3,1000,100,85,5,5,3,9,,,,,,, ,
X,3,23,2022,429,93658,41.2616,-71.2673,179,309,2,2,5,5,3,1,4,1,C,,,,,,,, , ,,,,,,,,,,,,,,,,,433,,,,101,1000,100,85,5,5,3,9,,,,,,, ,
X,3,23,2022,430,93703,41.2592,-71.2673,179,310,2,2,5,5,3,1,4,1,C,,,,,,,, , ,,,,,,,,,,,,,,,,,434,,,,101.3,1000,100,85,5,5,3,9,,,,,,, ,
X,3,23,2022,431,93708,41.2568,-71.2673,179,308,2,2,5,5,3,1,4,1,C,,,,,,,, , ,,,,,,,,,,,,,,,,,435,,,,101.7,1000,100,85,5,5,3,9,,,,,,, ,
Z,3,23,2022,432,93709,41.2563,-71.2673,179,307,2,2,5,5,3,1,4,1,C,,,,,,,, , ,,,,,,,,,,,,,,,,,436,,,,101.8,1000,100,85,5,5,3,9,,,,,,, ,
X,3,23,2022,433,93713,41.2544,-71.2673,179,309,2,2,5,5,3,1,4,1,C,,,,,,,, , ,,,,,,,,,,,,,,,,,437,,,,102.2,1000,100,85,5,5,3,9,,,,,,, ,
X,3,23,2022,434,93718,41.252,-71.2672,180,308,2,2,5,5,3,1,4,1,C,,,,,,,, , ,,,,,,,,,,,,,,,,,438,,,,104.1,1000,100,85,5,5,3,9,,,,,,, ,
X,3,23,2022,435,93723,41.2497,-71.2672,180,306,2,2,5,5,3,1,4,1,C,,,,,,,, , ,,,,,,,,,,,,,,,,,439,,,,105.1,1000,100,85,5,5,3,9,,,,,,, ,
X,3,23,2022,436,93728,41.2472,-71.2673,180,305,2,2,5,5,3,1,4,1,C,,,,,,,, , ,,,,,,,,,,,,,,,,,440,,,,105.5,1000,100,85,5,5,3,9,,,,,,, ,
X,3,23,2022,437,93733,41.2447,-71.2673,180,309,2,2,5,5,3,1,4,1,C,,,,,,,, , ,,,,,,,,,,,,,,,,,441,,,,104.9,1000,100,85,5,5,3,9,,,,,,, ,
X,3,23,2022,438,93738,41.2423,-71.2673,179,317,2,2,5,5,3,1,4,1,C,,,,,,,, , ,,,,,,,,,,,,,,,,,442,,,,103.7,1000,100,85,5,5,3,9,,,,,,, ,
X,3,23,2022,439,93743,41.2399,-71.2673,179,319,2,2,5,5,3,1,4,1,C,,,,,,,, , ,,,,,,,,,,,,,,,,,443,,,,104.8,1000,100,85,5,5,3,9,,,,,,, ,
X,3,23,2022,440,93748,41.2377,-71.2672,178,315,2,2,5,5,3,1,4,1,C,,,,,,,, , ,,,,,,,,,,,,,,,,,444,,,,106.1,1000,100,85,5,5,3,9,,,,,,, ,
X,3,23,2022,441,93753,41.2352,-71.2672,179,312,2,2,5,5,3,1,4,1,C,,,,,,,, , ,,,,,,,,,,,,,,,,,445,,,,106.5,1000,100,85,5,5,3,9,,,,,,, ,
X,3,23,2022,442,93758,41.2325,-71.2672,179,313,2,2,5,5,3,1,4,1,C,,,,,,,, , ,,,,,,,,,,,,,,,,,446,,,,105.2,1000,100,85,5,5,3,9,,,,,,, ,
Z,3,23,2022,443,93759,41.2322,-71.2672,180,313,2,2,5,5,3,1,4,1,C,,,,,,,, , ,,,,,,,,,,,,,,,,,447,,,,104.5,1000,100,85,5,5,3,9,,,,,,, ,
X,3,23,2022,444,93803,41.2301,-71.2672,180,317,2,2,5,5,3,1,4,1,C,,,,,,,, , ,,,,,,,,,,,,,,,,,448,,,,102.7,1000,100,85,5,5,3,9,,,,,,, ,
X,3,23,2022,445,93808,41.2278,-71.2672,179,314,2,2,5,5,3,1,4,1,C,,,,,,,, , ,,,,,,,,,,,,,,,,,449,,,,103.3,1000,100,85,5,5,3,9,,,,,,, ,
X,3,23,2022,446,93813,41.2254,-71.2672,180,312,2,2,5,5,3,1,4,1,C,,,,,,,, , ,,,,,,,,,,,,,,,,,450,,,,103.3,1000,100,85,5,5,3,9,,,,,,, ,
X,3,23,2022,447,93818,41.2233,-71.2673,180,315,2,2,5,5,3,1,4,1,C,,,,,,,, , ,,,,,,,,,,,,,,,,,451,,,,102.5,1000,100,85,5,5,3,9,,,,,,, ,
X,3,23,2022,448,93823,41.2206,-71.2673,179,317,2,2,5,5,3,1,4,1,C,,,,,,,, , ,,,,,,,,,,,,,,,,,452,,,,102.7,1000,100,85,5,5,3,9,,,,,,, ,
X,3,23,2022,449,93828,41.2182,-71.2673,179,317,2,2,5,5,3,1,4,1,C,,,,,,,, , ,,,,,,,,,,,,,,,,,453,,,,103.8,1000,100,85,5,5,3,9,,,,,,, ,
X,3,23,2022,450,93833,41.2158,-71.2672,179,319,2,2,5,5,3,1,4,1,C,,,,,,,, , ,,,,,,,,,,,,,,,,,454,,,,102.3,1000,100,85,5,5,3,9,,,,,,, ,
X,3,23,2022,451,93838,41.2135,-71.2672,179,321,2,2,5,5,3,1,4,1,C,,,,,,,, , ,,,,,,,,,,,,,,,,,455,,,,100,1000,100,85,5,5,3,9,,,,,,, ,
X,3,23,2022,452,93843,41.2112,-71.2671,178,321,2,2,5,5,3,1,4,1,C,,,,,,,, , ,,,,,,,,,,,,,,,,,456,,,,99.9,1000,100,85,5,5,3,9,,,,,,, ,
X,3,23,2022,453,93848,41.2088,-71.2671,179,319,2,2,5,5,3,1,4,1,C,,,,,,,, , ,,,,,,,,,,,,,,,,,457,,,,100.2,1000,100,85,5,5,3,9,,,,,,, ,
Z,3,23,2022,454,93849,41.2085,-71.2671,179,318,2,2,5,5,3,1,4,1,C,,,,,,,, , ,,,,,,,,,,,,,,,,,458,,,,100.4,1000,100,85,5,5,3,9,,,,,,, ,
X,3,23,2022,455,93853,41.2065,-71.2671,179,315,2,2,5,5,3,1,4,1,C,,,,,,,, , ,,,,,,,,,,,,,,,,,459,,,,100.7,1000,100,85,5,5,3,9,,,,,,, ,
X,3,23,2022,456,93858,41.2042,-71.2671,180,311,2,2,5,5,3,1,4,1,C,,,,,,,, , ,,,,,,,,,,,,,,,,,460,,,,102.1,1000,100,85,5,5,3,9,,,,,,, ,
X,3,23,2022,457,93903,41.2018,-71.2671,180,310,2,2,5,5,3,1,4,1,C,,,,,,,, , ,,,,,,,,,,,,,,,,,461,,,,103.1,1000,100,85,5,5,3,9,,,,,,, ,
X,3,23,2022,458,93908,41.1994,-71.2671,180,309,2,2,5,5,3,1,4,1,C,,,,,,,, , ,,,,,,,,,,,,,,,,,462,,,,103.2,1000,100,85,5,5,3,9,,,,,,, ,
X,3,23,2022,459,93913,41.1971,-71.2671,180,310,2,2,5,5,3,1,4,1,C,,,,,,,, , ,,,,,,,,,,,,,,,,,463,,,,102.2,1000,100,85,5,5,3,9,,,,,,, ,
X,3,23,2022,460,93918,41.1948,-71.2672,180,310,2,2,5,5,3,1,4,1,C,,,,,,,, , ,,,,,,,,,,,,,,,,,464,,,,101.7,1000,100,85,5,5,3,9,,,,,,, ,
X,3,23,2022,461,93923,41.1924,-71.2672,180,310,2,2,5,5,3,1,4,1,C,,,,,,,, , ,,,,,,,,,,,,,,,,,465,,,,102.1,1000,100,85,5,5,3,9,,,,,,, ,
X,3,23,2022,462,93928,41.1899,-71.2672,180,312,2,2,5,5,3,1,4,1,C,,,,,,,, , ,,,,,,,,,,,,,,,,,466,,,,102.5,1000,100,85,5,5,3,9,,,,,,, ,
X,3,23,2022,463,93933,41.1875,-71.2672,180,307,2,2,5,5,3,1,4,1,C,,,,,,,, , ,,,,,,,,,,,,,,,,,467,,,,103.9,1000,100,85,5,5,3,9,,,,,,, ,
X,3,23,2022,464,93938,41.1851,-71.2672,180,304,2,2,5,5,3,1,4,1,C,,,,,,,, , ,,,,,,,,,,,,,,,,,468,,,,104.1,1000,100,85,5,5,3,9,,,,,,, ,
Z,3,23,2022,465,93939,41.1849,-71.2672,180,304,2,2,5,5,3,1,4,1,C,,,,,,,, , ,,,,,,,,,,,,,,,,,469,,,,103.4,1000,100,85,5,5,3,9,,,,,,, ,
X,3,23,2022,466,93943,41.1826,-71.2673,180,303,2,2,5,5,3,1,4,1,C,,,,,,,, , ,,,,,,,,,,,,,,,,,470,,,,102.8,1000,100,85,5,5,3,9,,,,,,, ,
X,3,23,2022,467,93948,41.1806,-71.2673,180,302,2,2,5,5,3,1,4,1,C,,,,,,,, , ,,,,,,,,,,,,,,,,,471,,,,104.1,1000,100,85,5,5,3,9,,,,,,, ,
X,3,23,2022,468,93953,41.1779,-71.2673,178,304,2,2,5,5,3,1,4,1,C,,,,,,,, , ,,,,,,,,,,,,,,,,,472,,,,104.4,1000,100,85,5,5,3,9,,,,,,, ,
X,3,23,2022,469,93958,41.1755,-71.2672,178,308,2,2,5,5,3,1,4,1,C,,,,,,,, , ,,,,,,,,,,,,,,,,,473,,,,103.2,1000,100,85,5,5,3,9,,,,,,, ,
X,3,23,2022,470,94003,41.1731,-71.2672,179,305,2,2,5,5,3,1,4,1,C,,,,,,,, , ,,,,,,,,,,,,,,,,,474,,,,103.8,1000,100,85,5,5,3,9,,,,,,, ,
X,3,23,2022,471,94008,41.1707,-71.2672,179,302,2,2,5,5,3,1,4,1,C,,,,,,,, , ,,,,,,,,,,,,,,,,,475,,,,103.6,1000,100,85,5,5,3,9,,,,,,, ,
X,3,23,2022,472,94013,41.1686,-71.2672,179,300,2,2,5,5,3,1,4,1,C,,,,,,,, , ,,,,,,,,,,,,,,,,,476,,,,103.1,1000,100,85,5,5,3,9,,,,,,, ,
X,3,23,2022,473,94018,41.1661,-71.2672,180,302,2,2,5,5,3,1,4,1,C,,,,,,,, , ,,,,,,,,,,,,,,,,,477,,,,101.2,1000,100,85,5,5,3,9,,,,,,, ,
X,3,23,2022,474,94023,41.1636,-71.2672,179,302,2,2,5,5,3,1,4,1,C,,,,,,,, , ,,,,,,,,,,,,,,,,,478,,,,100.6,1000,100,85,5,5,3,9,,,,,,, ,
Z,3,23,2022,475,94024,41.1632,-71.2672,179,302,2,2,5,5,3,1,4,1,C,,,,,,,, , ,,,,,,,,,,,,,,,,,479,,,,100.5,1000,100,85,5,5,3,9,,,,,,, ,
X,3,23,2022,476,94028,41.1613,-71.2672,179,302,2,2,5,5,3,1,4,1,C,,,,,,,, , ,,,,,,,,,,,,,,,,,480,,,,101.4,1000,100,85,5,5,3,9,,,,,,, ,
X,3,23,2022,477,94033,41.1589,-71.2671,179,302,2,2,5,5,3,1,4,1,C,,,,,,,, , ,,,,,,,,,,,,,,,,,481,,,,101.9,1000,100,85,5,5,3,9,,,,,,, ,
X,3,23,2022,478,94038,41.1566,-71.2671,180,304,2,2,5,5,3,1,4,1,C,,,,,,,, , ,,,,,,,,,,,,,,,,,482,,,,101,1000,100,85,5,5,3,9,,,,,,, ,
X,3,23,2022,479,94043,41.1544,-71.2671,180,305,2,2,5,5,3,1,4,1,C,,,,,,,, , ,,,,,,,,,,,,,,,,,483,,,,100.4,1000,100,85,5,5,3,9,,,,,,, ,
X,3,23,2022,480,94048,41.1519,-71.2672,181,305,2,2,5,5,3,1,4,1,C,,,,,,,, , ,,,,,,,,,,,,,,,,,484,,,,100.1,1000,100,85,5,5,3,9,,,,,,, ,
X,3,23,2022,481,94053,41.1496,-71.2672,180,301,2,2,5,5,3,1,4,1,C,,,,,,,, , ,,,,,,,,,,,,,,,,,485,,,,100,1000,100,85,5,5,3,9,,,,,,, ,
X,3,23,2022,482,94058,41.1473,-71.2673,181,299,2,2,5,5,3,1,4,1,C,,,,,,,, , ,,,,,,,,,,,,,,,,,486,,,,99.5,1000,100,85,5,5,3,9,,,,,,, ,
X,3,23,2022,483,94103,41.145,-71.2673,179,299,2,2,5,5,3,1,4,1,C,,,,,,,, , ,,,,,,,,,,,,,,,,,487,,,,99,1000,100,85,5,5,3,9,,,,,,, ,
X,3,23,2022,484,94108,41.1428,-71.2673,180,299,2,2,5,5,3,1,4,1,C,,,,,,,, , ,,,,,,,,,,,,,,,,,488,,,,98.1,1000,100,85,5,5,3,9,,,,,,, ,
X,3,23,2022,485,94113,41.1407,-71.2673,180,302,2,2,5,5,3,1,4,1,C,,,,,,,, , ,,,,,,,,,,,,,,,,,489,,,,98.9,1000,100,85,5,5,3,9,,,,,,, ,
Z,3,23,2022,486,94114,41.14,-71.2673,180,302,2,2,5,5,3,1,4,1,C,,,,,,,, , ,,,,,,,,,,,,,,,,,490,,,,98.8,1000,100,85,5,5,3,9,,,,,,, ,
X,3,23,2022,487,94118,41.1381,-71.2673,180,299,2,2,5,5,3,1,4,1,C,,,,,,,, , ,,,,,,,,,,,,,,,,,491,,,,99.4,1000,100,85,5,5,3,9,,,,,,, ,
X,3,23,2022,488,94123,41.1358,-71.2674,181,295,2,2,5,5,3,1,4,1,C,,,,,,,, , ,,,,,,,,,,,,,,,,,492,,,,100.6,1000,100,85,5,5,3,9,,,,,,, ,
X,3,23,2022,489,94128,41.1335,-71.2674,180,297,2,2,5,5,3,1,4,1,C,,,,,,,, , ,,,,,,,,,,,,,,,,,493,,,,101.4,1000,100,85,5,5,3,9,,,,,,, ,
X,3,23,2022,490,94133,41.1311,-71.2675,181,295,2,2,5,5,3,1,4,1,C,,,,,,,, , ,,,,,,,,,,,,,,,,,494,,,,100.8,1000,100,85,5,5,3,9,,,,,,, ,
X,3,23,2022,491,94138,41.1289,-71.2676,180,291,2,2,5,5,3,1,4,1,C,,,,,,,, , ,,,,,,,,,,,,,,,,,495,,,,101.9,1000,100,85,5,5,3,9,,,,,,, ,
X,3,23,2022,492,94143,41.1265,-71.2676,180,288,2,2,5,5,3,1,4,1,C,,,,,,,, , ,,,,,,,,,,,,,,,,,496,,,,102.2,1000,100,85,5,5,3,9,,,,,,, ,
X,3,23,2022,493,94148,41.1242,-71.2677,180,289,2,2,5,5,3,1,4,1,C,,,,,,,, , ,,,,,,,,,,,,,,,,,497,,,,101.4,1000,100,85,5,5,3,9,,,,,,, ,
X,3,23,2022,494,94153,41.1217,-71.2677,180,291,2,2,5,5,3,1,4,1,C,,,,,,,, , ,,,,,,,,,,,,,,,,,498,,,,100.8,1000,100,85,5,5,3,9,,,,,,, ,
X,3,23,2022,495,94158,41.1194,-71.2677,178,294,2,2,5,5,3,1,4,1,C,,,,,,,, , ,,,,,,,,,,,,,,,,,499,,,,99.6,1000,100,85,5,5,3,9,,,,,,, ,
X,3,23,2022,496,94203,41.1174,-71.2676,177,292,2,2,5,5,3,1,4,1,C,,,,,,,, , ,,,,,,,,,,,,,,,,,500,,,,100.8,1000,100,85,5,5,3,9,,,,,,, ,
Z,3,23,2022,497,94204,41.1167,-71.2676,177,291,2,2,5,5,3,1,4,1,C,,,,,,,, , ,,,,,,,,,,,,,,,,,501,,,,100.6,1000,100,85,5,5,3,9,,,,,,, ,
X,3,23,2022,498,94208,41.1148,-71.2674,176,296,2,2,5,5,3,1,4,1,C,,,,,,,, , ,,,,,,,,,,,,,,,,,502,,,,99.8,1000,100,85,5,5,3,9,,,,,,, ,
X,3,23,2022,499,94213,41.1125,-71.2672,176,297,2,2,5,5,3,1,4,1,C,,,,,,,, , ,,,,,,,,,,,,,,,,,503,,,,99.4,1000,100,85,5,5,3,9,,,,,,, ,
X,3,23,2022,500,94218,41.1102,-71.267,176,302,2,2,5,5,3,1,4,1,C,,,,,,,, , ,,,,,,,,,,,,,,,,,504,,,,98.5,1000,100,85,5,5,3,9,,,,,,, ,
X,3,23,2022,501,94223,41.1079,-71.2668,176,306,2,2,5,5,3,1,4,1,C,,,,,,,, , ,,,,,,,,,,,,,,,,,505,,,,99.4,1000,100,85,5,5,3,9,,,,,,, ,
S,3,23,2022,502,94227,41.1073,-71.2668,176,307,2,2,5,5,3,1,4,1,C,9,,5,MV-L,1,,4,1,9,0,,,,,,,,,,,,,,,,506,,,,100,1000,100,85,5,5,3,9,,,,,,, ,
X,3,23,2022,503,94228,41.1055,-71.2666,176,303,2,2,5,5,3,1,4,1,C,,,,,,,, , ,,,,,,,,,,,,,,,,,507,,,,102.1,1000,100,85,5,5,3,9,,,,,,, ,
X,3,23,2022,504,94233,41.1035,-71.2666,179,299,2,2,5,5,3,1,4,1,C,,,,,,,, , ,,,,,,,,,,,,,,,,,508,,,,103.5,1000,100,85,5,5,3,9,,,,,,, ,
X,3,23,2022,505,94238,41.1009,-71.2665,179,295,2,2,5,5,3,1,4,1,C,,,,,,,, , ,,,,,,,,,,,,,,,,,509,,,,104.6,1000,100,85,5,5,3,9,,,,,,, ,
X,3,23,2022,506,94243,41.0984,-71.2665,179,293,2,2,5,5,3,1,4,1,C,,,,,,,, , ,,,,,,,,,,,,,,,,,510,,,,105.7,1000,100,85,5,5,3,9,,,,,,, ,
X,3,23,2022,507,94248,41.0959,-71.2664,180,291,2,2,5,5,3,1,4,1,C,,,,,,,, , ,,,,,,,,,,,,,,,,,511,,,,105.4,1000,100,85,5,5,3,9,,,,,,, ,
Z,3,23,2022,508,94249,41.0952,-71.2665,180,291,2,2,5,5,3,1,4,1,C,,,,,,,, , ,,,,,,,,,,,,,,,,,512,,,,105.2,1000,100,85,5,5,3,9,,,,,,, ,
X,3,23,2022,509,94253,41.0934,-71.2665,180,289,2,2,5,5,3,1,4,1,C,,,,,,,, , ,,,,,,,,,,,,,,,,,513,,,,106.4,1000,100,85,5,5,3,9,,,,,,, ,
X,3,23,2022,510,94258,41.091,-71.2665,180,290,2,2,5,5,3,1,4,1,C,,,,,,,, , ,,,,,,,,,,,,,,,,,514,,,,105.1,1000,100,85,5,5,3,9,,,,,,, ,
X,3,23,2022,511,94303,41.0885,-71.2665,180,295,2,2,5,5,3,1,4,1,C,,,,,,,, , ,,,,,,,,,,,,,,,,,515,,,,104.6,1000,100,85,5,5,3,9,,,,,,, ,
X,3,23,2022,512,94308,41.0861,-71.2666,180,301,2,2,5,5,3,1,4,1,C,,,,,,,, , ,,,,,,,,,,,,,,,,,516,,,,103.7,1000,100,85,5,5,3,9,,,,,,, ,
X,3,23,2022,513,94313,41.0837,-71.2666,180,302,2,2,5,5,3,1,4,1,C,,,,,,,, , ,,,,,,,,,,,,,,,,,517,,,,106,1000,100,85,5,5,3,9,,,,,,, ,
X,3,23,2022,514,94318,41.0812,-71.2666,179,298,2,2,5,5,3,1,4,1,C,,,,,,,, , ,,,,,,,,,,,,,,,,,518,,,,108.8,1000,100,85,5,5,3,9,,,,,,, ,
S,3,23,2022,515,94320,41.0811,-71.2666,179,298,2,2,5,5,3,1,4,1,C,10,,47,SPFV,1,,22,1,9,0,71,,,,,,,,,,,,,,,519,,,,108.5,1000,100,85,5,5,3,9,,,,,FISHING WITH ROD AND REELS OFF STERN,, ,
X,3,23,2022,516,94323,41.0787,-71.2665,180,295,2,2,5,5,3,1,4,1,C,,,,,,,, , ,,,,,,,,,,,,,,,,,520,,,,109.9,1000,100,85,5,5,3,9,,,,,,, ,
X,3,23,2022,517,94328,41.0761,-71.2666,180,293,2,2,5,5,3,1,4,1,C,,,,,,,, , ,,,,,,,,,,,,,,,,,521,,,,110.3,1000,100,85,5,5,3,9,,,,,,, ,
X,3,23,2022,518,94333,41.074,-71.2665,179,293,2,2,5,5,3,1,4,1,C,,,,,,,, , ,,,,,,,,,,,,,,,,,522,,,,109.7,1000,100,85,5,5,3,9,,,,,,, ,
X,3,23,2022,519,94338,41.071,-71.2666,180,290,2,2,5,5,3,1,4,1,C,,,,,,,, , ,,,,,,,,,,,,,,,,,523,,,,108.2,1000,100,85,5,5,3,9,,,,,,, ,
Z,3,23,2022,520,94339,41.0704,-71.2666,180,289,2,2,5,5,3,1,4,1,C,,,,,,,, , ,,,,,,,,,,,,,,,,,524,,,,108.2,1000,100,85,5,5,3,9,,,,,,, ,
X,3,23,2022,521,94343,41.0685,-71.2667,180,291,2,2,5,5,3,1,4,1,C,,,,,,,, , ,,,,,,,,,,,,,,,,,525,,,,108.2,1000,100,85,5,5,3,9,,,,,,, ,
X,3,23,2022,522,94348,41.066,-71.2667,180,295,2,2,5,5,3,1,4,1,C,,,,,,,, , ,,,,,,,,,,,,,,,,,526,,,,106.9,1000,100,85,5,5,3,9,,,,,,, ,
X,3,23,2022,523,94353,41.0636,-71.2667,179,297,2,2,5,5,3,1,4,1,C,,,,,,,, , ,,,,,,,,,,,,,,,,,527,,,,104.2,1000,100,85,5,5,3,9,,,,,,, ,
X,3,23,2022,524,94358,41.0612,-71.2667,179,302,2,2,5,5,3,1,4,1,C,,,,,,,, , ,,,,,,,,,,,,,,,,,528,,,,102.9,1000,100,85,5,5,3,9,,,,,,, ,
X,3,23,2022,525,94403,41.0589,-71.2667,179,302,2,2,5,5,3,1,4,1,C,,,,,,,, , ,,,,,,,,,,,,,,,,,529,,,,103.1,1000,100,85,5,5,3,9,,,,,,, ,
X,3,23,2022,526,94408,41.0566,-71.2667,179,299,2,2,5,5,3,1,4,1,C,,,,,,,, , ,,,,,,,,,,,,,,,,,530,,,,102.7,1000,100,85,5,5,3,9,,,,,,, ,
X,3,23,2022,527,94413,41.054,-71.2666,179,297,2,2,5,5,3,1,4,1,C,,,,,,,, , ,,,,,,,,,,,,,,,,,531,,,,103.4,1000,100,85,5,5,3,9,,,,,,, ,
X,3,23,2022,528,94418,41.0516,-71.2666,179,294,2,2,5,5,3,1,4,1,C,,,,,,,, , ,,,,,,,,,,,,,,,,,532,,,,103,1000,100,85,5,5,3,9,,,,,,, ,
X,3,23,2022,529,94423,41.0493,-71.2666,180,294,2,2,5,5,3,1,4,1,C,,,,,,,, , ,,,,,,,,,,,,,,,,,533,,,,101.5,1000,100,85,5,5,3,9,,,,,,, ,
X,3,23,2022,530,94428,41.0472,-71.2667,180,295,2,2,5,5,3,1,4,1,C,,,,,,,, , ,,,,,,,,,,,,,,,,,534,,,,101.9,1000,100,85,5,5,3,9,,,,,,, ,
Z,3,23,2022,531,94429,41.0464,-71.2667,179,296,2,2,5,5,3,1,4,1,C,,,,,,,, , ,,,,,,,,,,,,,,,,,535,,,,102.5,1000,100,85,5,5,3,9,,,,,,, ,
X,3,23,2022,532,94433,41.0445,-71.2666,180,294,2,2,5,5,3,1,4,1,C,,,,,,,, , ,,,,,,,,,,,,,,,,,536,,,,103.5,1000,100,85,5,5,3,9,,,,,,, ,
X,3,23,2022,533,94438,41.0421,-71.2667,180,288,2,2,5,5,3,1,4,1,C,,,,,,,, , ,,,,,,,,,,,,,,,,,537,,,,103.9,1000,100,85,5,5,3,9,,,,,,, ,
X,3,23,2022,534,94443,41.0397,-71.2667,180,289,2,2,5,5,3,1,4,1,C,,,,,,,, , ,,,,,,,,,,,,,,,,,538,,,,104.1,1000,100,85,5,5,3,9,,,,,,, ,
X,3,23,2022,535,94448,41.0373,-71.2667,179,285,2,2,5,5,3,1,4,1,C,,,,,,,, , ,,,,,,,,,,,,,,,,,539,,,,105.9,1000,100,85,5,5,3,9,,,,,,, ,
X,3,23,2022,536,94453,41.0358,-71.2667,180,284,2,2,5,5,3,1,4,1,C,,,,,,,, , ,,,,,,,,,,,,,,,,,540,,,,105.8,1000,100,85,5,5,3,9,,,,,,, ,
X,3,23,2022,537,94458,41.0328,-71.2667,179,283,2,2,5,5,3,1,4,1,C,,,,,,,, , ,,,,,,,,,,,,,,,,,541,,,,104.3,1000,100,85,5,5,3,9,,,,,,, ,
X,3,23,2022,538,94503,41.0301,-71.2667,179,283,2,2,5,5,3,1,4,1,C,,,,,,,, , ,,,,,,,,,,,,,,,,,542,,,,102,1000,100,85,5,5,3,9,,,,,,, ,
X,3,23,2022,539,94508,41.0278,-71.2667,179,283,2,2,5,5,3,1,4,1,C,,,,,,,, , ,,,,,,,,,,,,,,,,,543,,,,101,1000,100,85,5,5,3,9,,,,,,, ,
X,3,23,2022,540,94513,41.0255,-71.2667,180,281,2,2,5,5,3,1,4,1,C,,,,,,,, , ,,,,,,,,,,,,,,,,,544,,,,99.8,1000,100,85,5,5,3,9,,,,,,, ,
X,3,23,2022,541,94518,41.023,-71.2667,179,280,2,2,5,5,3,1,4,1,C,,,,,,,, , ,,,,,,,,,,,,,,,,,545,,,,99,1000,100,85,5,5,3,9,,,,,,, ,
Z,3,23,2022,542,94519,41.0227,-71.2667,179,279,2,2,5,5,3,1,4,1,C,,,,,,,, , ,,,,,,,,,,,,,,,,,546,,,,99,1000,100,85,5,5,3,9,,,,,,, ,
X,3,23,2022,543,94523,41.0207,-71.2667,179,275,2,2,5,5,3,1,4,1,C,,,,,,,, , ,,,,,,,,,,,,,,,,,547,,,,100.1,1000,100,85,5,5,3,9,,,,,,, ,
X,3,23,2022,544,94528,41.0189,-71.2667,179,273,2,2,5,5,3,1,4,1,C,,,,,,,, , ,,,,,,,,,,,,,,,,,548,,,,99.9,1000,100,85,5,5,3,9,,,,,,, ,
X,3,23,2022,545,94533,41.0161,-71.2667,179,272,2,2,5,5,3,1,4,1,C,,,,,,,, , ,,,,,,,,,,,,,,,,,549,,,,100.2,1000,100,85,5,5,3,9,,,,,,, ,
X,3,23,2022,546,94538,41.0138,-71.2666,178,270,2,2,5,5,3,1,4,1,C,,,,,,,, , ,,,,,,,,,,,,,,,,,550,,,,100.3,1000,100,85,5,5,3,9,,,,,,, ,
X,3,23,2022,547,94543,41.0114,-71.2666,178,269,2,2,5,5,3,1,4,1,C,,,,,,,, , ,,,,,,,,,,,,,,,,,551,,,,100.4,1000,100,85,5,5,3,9,,,,,,, ,
X,3,23,2022,548,94548,41.0091,-71.2665,179,272,2,2,5,5,3,1,4,1,C,,,,,,,, , ,,,,,,,,,,,,,,,,,552,,,,100.6,1000,100,85,5,5,3,9,,,,,,, ,
X,3,23,2022,549,94553,41.0068,-71.2665,180,278,2,2,5,5,3,1,4,1,C,,,,,,,, , ,,,,,,,,,,,,,,,,,553,,,,98.9,1000,100,85,5,5,3,9,,,,,,, ,
X,3,23,2022,550,94558,41.0046,-71.2665,180,286,2,2,5,5,3,1,4,1,C,,,,,,,, , ,,,,,,,,,,,,,,,,,554,,,,96.7,1000,100,85,5,5,3,9,,,,,,, ,
X,3,23,2022,551,94603,41.0023,-71.2666,180,286,2,2,5,5,3,1,4,1,C,,,,,,,, , ,,,,,,,,,,,,,,,,,555,,,,98.2,1000,100,85,5,5,3,9,,,,,,, ,
Z,3,23,2022,552,94604,41.0017,-71.2666,179,285,2,2,5,5,3,1,4,1,C,,,,,,,, , ,,,,,,,,,,,,,,,,,556,,,,98.6,1000,100,85,5,5,3,9,,,,,,, ,
X,3,23,2022,553,94608,41,-71.2666,180,281,2,2,5,5,3,1,4,1,C,,,,,,,, , ,,,,,,,,,,,,,,,,,557,,,,100.3,1000,100,85,5,5,3,8,,,,,,, ,
X,3,23,2022,554,94613,40.9977,-71.2666,181,281,2,2,5,5,3,1,4,1,C,,,,,,,, , ,,,,,,,,,,,,,,,,,558,,,,99.7,1000,100,85,5,5,3,9,,,,,,, ,
X,3,23,2022,555,94618,40.9954,-71.2667,181,283,2,2,5,5,3,1,4,1,C,,,,,,,, , ,,,,,,,,,,,,,,,,,559,,,,98.8,1000,100,85,5,5,3,9,,,,,,, ,
X,3,23,2022,556,94623,40.9932,-71.2667,180,284,2,2,5,5,3,1,4,1,C,,,,,,,, , ,,,,,,,,,,,,,,,,,560,,,,99.8,1000,100,85,5,5,3,9,,,,,,, ,
X,3,23,2022,557,94628,40.9907,-71.2668,180,284,2,2,5,5,3,1,4,1,C,,,,,,,, , ,,,,,,,,,,,,,,,,,561,,,,100.7,1000,100,85,5,5,3,9,,,,,,, ,
X,3,23,2022,558,94633,40.9884,-71.2668,179,285,2,2,5,5,3,1,4,1,C,,,,,,,, , ,,,,,,,,,,,,,,,,,562,,,,100.1,1000,100,85,5,5,3,9,,,,,,, ,
X,3,23,2022,559,94638,40.9861,-71.2668,179,287,2,2,5,5,3,1,4,1,C,,,,,,,, , ,,,,,,,,,,,,,,,,,563,,,,99.5,1000,100,85,5,5,3,9,,,,,,, ,
X,3,23,2022,560,94643,40.9838,-71.2668,180,286,2,2,5,5,3,1,4,1,C,,,,,,,, , ,,,,,,,,,,,,,,,,,564,,,,100.2,1000,100,85,5,5,3,9,,,,,,, ,
X,3,23,2022,561,94648,40.9816,-71.2668,180,292,2,2,5,5,3,1,4,1,C,,,,,,,, , ,,,,,,,,,,,,,,,,,565,,,,99,1000,100,85,5,5,3,9,,,,,,, ,
X,3,23,2022,562,94653,40.9793,-71.2668,179,295,2,2,5,5,3,1,4,1,C,,,,,,,, , ,,,,,,,,,,,,,,,,,566,,,,98.9,1000,100,85,5,5,3,9,,,,,,, ,
Z,3,23,2022,563,94654,40.9786,-71.2668,179,294,2,2,5,5,3,1,4,1,C,,,,,,,, , ,,,,,,,,,,,,,,,,,567,,,,99.6,1000,100,85,5,5,3,9,,,,,,, ,
X,3,23,2022,564,94658,40.9769,-71.2668,179,294,2,2,5,5,3,1,4,1,C,,,,,,,, , ,,,,,,,,,,,,,,,,,568,,,,100.4,1000,100,85,5,5,3,9,,,,,,, ,
X,3,23,2022,565,94703,40.9745,-71.2668,179,295,2,2,5,5,3,1,4,1,C,,,,,,,, , ,,,,,,,,,,,,,,,,,569,,,,101,1000,100,85,5,5,3,9,,,,,,, ,
X,3,23,2022,566,94708,40.9722,-71.2668,180,300,2,2,5,5,3,1,4,1,C,,,,,,,, , ,,,,,,,,,,,,,,,,,570,,,,100.9,1000,100,85,5,5,3,9,,,,,,, ,
X,3,23,2022,567,94713,40.9698,-71.2668,180,301,2,2,5,5,3,1,4,1,C,,,,,,,, , ,,,,,,,,,,,,,,,,,571,,,,102.9,1000,100,85,5,5,3,9,,,,,,, ,
X,3,23,2022,568,94718,40.9677,-71.2668,178,298,2,2,5,5,3,1,4,1,C,,,,,,,, , ,,,,,,,,,,,,,,,,,572,,,,104,1000,100,85,5,5,3,9,,,,,,, ,
X,3,23,2022,569,94723,40.9651,-71.2667,179,297,2,2,5,5,3,1,4,1,C,,,,,,,, , ,,,,,,,,,,,,,,,,,573,,,,105.4,1000,100,85,5,5,3,9,,,,,,, ,
X,3,23,2022,570,94728,40.9627,-71.2667,179,300,2,2,5,5,3,1,4,1,C,,,,,,,, , ,,,,,,,,,,,,,,,,,574,,,,105.8,1000,100,85,5,5,3,9,,,,,,, ,
S,3,23,2022,571,94730,40.9627,-71.2667,179,300,2,2,5,5,3,1,4,2,C,11,,,,,,, , ,,,,,,,,,,,,,,,,,575,,,,105.8,1000,100,85,5,5,3,9,,,,,,, ,
X,3,23,2022,572,94733,40.9601,-71.2667,180,302,2,2,5,5,3,1,4,2,C,,,,,,,, , ,,,,,,,,,,,,,,,,,576,,,,107.6,1000,100,85,5,5,3,9,,,,,,, ,
X,3,23,2022,573,94738,40.9575,-71.2668,182,299,2,2,5,5,3,1,4,2,C,,,,,,,, , ,,,,,,,,,,,,,,,,,577,,,,109.9,1000,100,85,5,5,3,8,,,,,,, ,
X,3,23,2022,574,94743,40.9551,-71.267,182,301,2,2,5,5,3,1,4,2,C,,,,,,,, , ,,,,,,,,,,,,,,,,,578,,,,109,1000,100,85,5,5,3,9,,,,,,, ,
Z,3,23,2022,575,94744,40.9545,-71.267,182,301,2,2,5,5,3,1,4,2,C,,,,,,,, , ,,,,,,,,,,,,,,,,,579,,,,109.2,1000,100,85,5,5,3,9,,,,,,, ,
X,3,23,2022,576,94748,40.9525,-71.2671,181,306,2,2,5,5,3,1,4,2,C,,,,,,,, , ,,,,,,,,,,,,,,,,,580,,,,109.1,1000,100,85,5,5,3,8,,,,,,, ,
X,3,23,2022,577,94753,40.9501,-71.2672,180,311,2,2,5,5,3,1,4,2,C,,,,,,,, , ,,,,,,,,,,,,,,,,,581,,,,108.9,1000,100,85,5,5,3,9,,,,,,, ,
X,3,23,2022,578,94758,40.9474,-71.2671,179,306,2,2,5,5,3,1,4,2,C,,,,,,,, , ,,,,,,,,,,,,,,,,,582,,,,110.5,1000,100,85,5,5,3,9,,,,,,, ,
X,3,23,2022,579,94803,40.9449,-71.2671,179,305,2,2,5,5,3,1,4,2,C,,,,,,,, , ,,,,,,,,,,,,,,,,,583,,,,110.4,1000,100,85,5,5,3,9,,,,,,, ,
X,3,23,2022,580,94808,40.9423,-71.2671,179,308,2,2,5,5,3,1,4,2,C,,,,,,,, , ,,,,,,,,,,,,,,,,,584,,,,110.2,1000,100,85,5,5,3,9,,,,,,, ,
X,3,23,2022,581,94813,40.94,-71.267,179,314,2,2,5,5,3,1,4,2,C,,,,,,,, , ,,,,,,,,,,,,,,,,,585,,,,107.9,1000,100,85,5,5,3,8,,,,,,, ,
X,3,23,2022,582,94818,40.9374,-71.267,179,316,2,2,5,5,3,1,4,2,C,,,,,,,, , ,,,,,,,,,,,,,,,,,586,,,,107.3,1000,100,85,5,5,3,9,,,,,,, ,
X,3,23,2022,583,94823,40.935,-71.2669,179,311,2,2,5,5,3,1,4,2,C,,,,,,,, , ,,,,,,,,,,,,,,,,,587,,,,109.1,1000,100,85,5,5,3,9,,,,,,, ,
X,3,23,2022,584,94828,40.9324,-71.2668,178,310,2,2,5,5,3,1,4,2,C,,,,,,,, , ,,,,,,,,,,,,,,,,,588,,,,108.8,1000,100,85,5,5,3,9,,,,,,, ,
X,3,23,2022,585,94833,40.9297,-71.2668,178,307,2,2,5,5,3,1,4,2,C,,,,,,,, , ,,,,,,,,,,,,,,,,,589,,,,108.8,1000,100,85,5,5,3,9,,,,,,, ,
Z,3,23,2022,586,94834,40.9294,-71.2668,178,307,2,2,5,5,3,1,4,2,C,,,,,,,, , ,,,,,,,,,,,,,,,,,590,,,,108.5,1000,100,85,5,5,3,9,,,,,,, ,
X,3,23,2022,587,94838,40.9272,-71.2667,179,307,2,2,5,5,3,1,4,2,C,,,,,,,, , ,,,,,,,,,,,,,,,,,591,,,,109.5,1000,100,85,5,5,3,8,,,,,,, ,
X,3,23,2022,588,94843,40.9247,-71.2667,180,308,2,2,5,5,3,1,4,2,C,,,,,,,, , ,,,,,,,,,,,,,,,,,592,,,,110.2,1000,100,85,5,5,3,9,,,,,,, ,
X,3,23,2022,589,94848,40.9222,-71.2667,180,309,2,2,5,5,3,1,4,2,C,,,,,,,, , ,,,,,,,,,,,,,,,,,593,,,,109.7,1000,100,85,5,5,3,9,,,,,,, ,
X,3,23,2022,590,94853,40.9197,-71.2668,181,311,2,2,5,5,3,1,4,2,C,,,,,,,, , ,,,,,,,,,,,,,,,,,594,,,,109,1000,100,85,5,5,3,9,,,,,,, ,
S,3,23,2022,591,94858,40.9171,-71.2669,181,310,2,5,5,5,3,1,4,2,C,12,,,,,,, , ,,,,,,,,,,,,,,,,,595,,,,109,1000,100,85,5,5,3,9,,,,,END LINE,, ,
X,3,23,2022,592,94903,40.9145,-71.267,182,309,3,-,,5, , ,4,2,C,,,,,,,, , ,,,,,,,,,,,,,,,,,596,,,,110.6,1000,100,85,5,5,3,7,,,,,,, ,
X,3,23,2022,593,94908,40.9119,-71.2672,182,309,3,-,,5, , ,4,2,C,,,,,,,, , ,,,,,,,,,,,,,,,,,597,,,,112.8,1000,100,85,5,5,3,8,,,,,,, ,
X,3,23,2022,594,94911,40.9119,-71.2672,182,309,3,-,,5, , ,4,2,C,,,,,,,, , ,,,,,,,,,,,,,,,,,598,,,,112.8,1000,100,85,5,5,N,8,,,,,,, ,
X,3,23,2022,595,94913,40.9093,-71.2671,172,313,3,-,,5, , ,4,2,C,,,,,,,, , ,,,,,,,,,,,,,,,,,599,,,,112.3,1000,100,85,5,5,3,9,,,,,,, ,
X,3,23,2022,596,94918,40.9071,-71.2662,151,315,3,-,,5, , ,4,2,C,,,,,,,, , ,,,,,,,,,,,,,,,,,600,,,,108.3,1000,100,85,5,5,3,9,,,,,,, ,
Z,3,23,2022,597,94919,40.9064,-71.2656,141,315,3,-,,5, , ,4,2,C,,,,,,,, , ,,,,,,,,,,,,,,,,,601,,,,106.5,1000,100,85,5,5,3,9,,,,,,, ,
X,3,23,2022,598,94923,40.9052,-71.2638,121,315,3,-,,5, , ,4,2,C,,,,,,,, , ,,,,,,,,,,,,,,,,,602,,,,103.2,1000,100,85,5,5,3,9,,,,,,, ,
X,3,23,2022,599,94928,40.9045,-71.2609,94,305,3,-,,5, , ,4,2,C,,,,,,,, , ,,,,,,,,,,,,,,,,,603,,,,99.9,1000,100,85,5,5,3,9,,,,,,, ,
X,3,23,2022,600,94933,40.9046,-71.2578,83,298,3,-,,5, , ,4,2,C,,,,,,,, , ,,,,,,,,,,,,,,,,,604,,,,99,1000,100,85,5,5,3,8,,,,,,, ,
X,3,23,2022,601,94938,40.9048,-71.2548,87,300,3,-,,5, , ,4,2,C,,,,,,,, , ,,,,,,,,,,,,,,,,,605,,,,98,1000,100,85,5,5,3,9,,,,,,, ,
X,3,23,2022,602,94943,40.9049,-71.252,88,302,3,-,,5, , ,4,2,C,,,,,,,, , ,,,,,,,,,,,,,,,,,606,,,,97.3,1000,100,85,5,5,3,9,,,,,,, ,
X,3,23,2022,603,94948,40.9049,-71.249,88,299,3,-,,5, , ,4,2,C,,,,,,,, , ,,,,,,,,,,,,,,,,,607,,,,97.2,1000,100,85,5,5,3,9,,,,,,, ,
X,3,23,2022,604,94953,40.905,-71.2461,89,294,3,-,,5, , ,4,2,C,,,,,,,, , ,,,,,,,,,,,,,,,,,608,,,,98.6,1000,100,85,5,5,3,9,,,,,,, ,
X,3,23,2022,605,94958,40.9049,-71.2431,90,293,3,-,,5, , ,4,2,C,,,,,,,, , ,,,,,,,,,,,,,,,,,609,,,,97.3,1000,100,85,5,5,3,9,,,,,,, ,
X,3,23,2022,606,95003,40.9049,-71.2399,90,295,3,-,,5, , ,4,2,C,,,,,,,, , ,,,,,,,,,,,,,,,,,610,,,,96.8,1000,100,85,5,5,3,9,,,,,,, ,
X,3,23,2022,607,95008,40.9049,-71.237,90,298,3,-,,5, , ,4,2,C,,,,,,,, , ,,,,,,,,,,,,,,,,,611,,,,95.3,1000,100,85,5,5,3,9,,,,,,, ,
Z,3,23,2022,608,95009,40.9049,-71.2364,90,297,3,-,,5, , ,4,2,C,,,,,,,, , ,,,,,,,,,,,,,,,,,612,,,,95.3,1000,100,85,5,5,3,9,,,,,,, ,
X,3,23,2022,609,95013,40.9049,-71.2343,91,293,3,-,,5, , ,4,2,C,,,,,,,, , ,,,,,,,,,,,,,,,,,613,,,,95.4,1000,100,85,5,5,3,9,,,,,,, ,
X,3,23,2022,610,95018,40.9048,-71.2315,91,290,3,-,,5, , ,4,2,C,,,,,,,, , ,,,,,,,,,,,,,,,,,614,,,,95.4,1000,100,85,5,5,3,9,,,,,,, ,
X,3,23,2022,611,95023,40.9047,-71.2283,91,288,3,-,,5, , ,4,2,C,,,,,,,, , ,,,,,,,,,,,,,,,,,615,,,,95.3,1000,100,85,5,5,3,9,,,,,,, ,
X,3,23,2022,612,95028,40.9047,-71.2253,90,285,3,-,,5, , ,4,2,C,,,,,,,, , ,,,,,,,,,,,,,,,,,616,,,,96.2,1000,100,85,5,5,3,9,,,,,,, ,
X,3,23,2022,613,95033,40.9047,-71.2224,90,284,3,-,,5, , ,4,2,C,,,,,,,, , ,,,,,,,,,,,,,,,,,617,,,,94.5,1000,100,85,5,5,3,9,,,,,,, ,
X,3,23,2022,614,95038,40.9046,-71.2197,91,286,3,-,,5, , ,4,2,C,,,,,,,, , ,,,,,,,,,,,,,,,,,618,,,,94.4,1000,100,85,5,5,3,9,,,,,,, ,
X,3,23,2022,615,95043,40.9046,-71.2168,90,291,3,-,,5, , ,4,2,C,,,,,,,, , ,,,,,,,,,,,,,,,,,619,,,,93.8,1000,100,85,5,5,3,9,,,,,,, ,
X,3,23,2022,616,95048,40.9045,-71.2141,91,298,3,-,,5, , ,4,2,C,,,,,,,, , ,,,,,,,,,,,,,,,,,620,,,,92.7,1000,100,85,5,5,3,9,,,,,,, ,
X,3,23,2022,617,95053,40.9045,-71.2112,91,296,3,-,,5, , ,4,2,C,,,,,,,, , ,,,,,,,,,,,,,,,,,621,,,,92.7,1000,100,85,5,5,3,9,,,,,,, ,
X,3,23,2022,618,95058,40.9044,-71.2082,90,291,3,-,,5, , ,4,2,C,,,,,,,, , ,,,,,,,,,,,,,,,,,622,,,,93.9,1000,100,85,5,5,3,9,,,,,,, ,
Z,3,23,2022,619,95059,40.9044,-71.2077,91,290,3,-,,5, , ,4,2,C,,,,,,,, , ,,,,,,,,,,,,,,,,,623,,,,93.6,1000,100,85,5,5,3,9,,,,,,, ,
X,3,23,2022,620,95103,40.9044,-71.2053,91,292,3,-,,5, , ,4,2,C,,,,,,,, , ,,,,,,,,,,,,,,,,,624,,,,93.8,1000,100,85,5,5,3,8,,,,,,, ,
X,3,23,2022,621,95108,40.9043,-71.2025,91,297,3,-,,5, , ,4,2,C,,,,,,,, , ,,,,,,,,,,,,,,,,,625,,,,93.4,1000,100,85,5,5,3,8,,,,,,, ,
X,3,23,2022,622,95113,40.9042,-71.1997,92,300,3,-,,5, , ,4,2,C,,,,,,,, , ,,,,,,,,,,,,,,,,,626,,,,94.7,1000,100,85,5,5,3,8,,,,,,, ,
X,3,23,2022,623,95118,40.9041,-71.1967,91,294,3,-,,5, , ,4,2,C,,,,,,,, , ,,,,,,,,,,,,,,,,,627,,,,98.3,1000,100,85,5,5,3,8,,,,,,, ,
X,3,23,2022,624,95123,40.904,-71.1936,92,294,3,-,,5, , ,4,2,C,,,,,,,, , ,,,,,,,,,,,,,,,,,628,,,,99.7,1000,100,85,5,5,3,9,,,,,,, ,
X,3,23,2022,625,95128,40.9039,-71.1906,91,296,3,-,,5, , ,4,2,C,,,,,,,, , ,,,,,,,,,,,,,,,,,629,,,,99.2,1000,100,85,5,5,3,9,,,,,,, ,
X,3,23,2022,626,95133,40.9039,-71.1876,91,300,3,-,,5, , ,4,2,C,,,,,,,, , ,,,,,,,,,,,,,,,,,630,,,,98.2,1000,100,85,5,5,3,9,,,,,,, ,
X,3,23,2022,627,95138,40.9038,-71.1849,91,299,3,-,,5, , ,4,2,C,,,,,,,, , ,,,,,,,,,,,,,,,,,631,,,,97.8,1000,100,85,5,5,3,9,,,,,,, ,
X,3,23,2022,628,95143,40.9038,-71.1819,91,297,3,-,,5, , ,4,2,C,,,,,,,, , ,,,,,,,,,,,,,,,,,632,,,,97.4,1000,100,85,5,5,3,9,,,,,,, ,
X,3,23,2022,629,95148,40.9038,-71.1787,89,299,3,-,,5, , ,4,2,C,,,,,,,, , ,,,,,,,,,,,,,,,,,633,,,,97.1,1000,100,85,5,5,3,9,,,,,,, ,
Z,3,23,2022,630,95149,40.9038,-71.1784,89,299,3,-,,5, , ,4,2,C,,,,,,,, , ,,,,,,,,,,,,,,,,,634,,,,97.1,1000,100,85,5,5,3,9,,,,,,, ,
X,3,23,2022,631,95153,40.9038,-71.1757,88,298,3,-,,5, , ,4,2,C,,,,,,,, , ,,,,,,,,,,,,,,,,,635,,,,96.7,1000,100,85,5,5,3,9,,,,,,, ,
X,3,23,2022,632,95158,40.9039,-71.1728,87,298,3,-,,5, , ,4,2,C,,,,,,,, , ,,,,,,,,,,,,,,,,,636,,,,96.2,1000,100,85,5,5,3,9,,,,,,, ,
X,3,23,2022,633,95203,40.9039,-71.1698,88,295,3,-,,5, , ,4,2,C,,,,,,,, , ,,,,,,,,,,,,,,,,,637,,,,98.1,1000,100,85,5,5,3,9,,,,,,, ,
X,3,23,2022,634,95208,40.904,-71.1673,88,293,3,-,,5, , ,4,2,C,,,,,,,, , ,,,,,,,,,,,,,,,,,638,,,,98.7,1000,100,85,5,5,3,9,,,,,,, ,
X,3,23,2022,635,95213,40.904,-71.1639,89,295,3,-,,5, , ,4,2,C,,,,,,,, , ,,,,,,,,,,,,,,,,,639,,,,98,1000,100,85,5,5,3,9,,,,,,, ,
X,3,23,2022,636,95218,40.904,-71.1609,90,294,3,-,,5, , ,4,2,C,,,,,,,, , ,,,,,,,,,,,,,,,,,640,,,,99.1,1000,100,85,5,5,3,9,,,,,,, ,
X,3,23,2022,637,95223,40.904,-71.1578,90,290,3,-,,5, , ,4,2,C,,,,,,,, , ,,,,,,,,,,,,,,,,,641,,,,99.1,1000,100,85,5,5,3,9,,,,,,, ,
X,3,23,2022,638,95228,40.9039,-71.1547,91,286,3,-,,5, , ,4,2,C,,,,,,,, , ,,,,,,,,,,,,,,,,,642,,,,100.3,1000,100,85,5,5,3,9,,,,,,, ,
X,3,23,2022,639,95233,40.9039,-71.1516,91,281,3,-,,5, , ,4,2,C,,,,,,,, , ,,,,,,,,,,,,,,,,,643,,,,101.1,1000,100,85,5,5,3,9,,,,,,, ,
Z,3,23,2022,640,95234,40.9039,-71.1509,90,281,3,-,,5, , ,4,2,C,,,,,,,, , ,,,,,,,,,,,,,,,,,644,,,,101.6,1000,100,85,5,5,3,9,,,,,,, ,
X,3,23,2022,641,95238,40.9038,-71.1486,89,281,3,-,,5, , ,4,2,C,,,,,,,, , ,,,,,,,,,,,,,,,,,645,,,,101.2,1000,100,85,5,5,3,9,,,,,,, ,
X,3,23,2022,642,95243,40.904,-71.1455,80,288,3,-,,5, , ,4,2,C,,,,,,,, , ,,,,,,,,,,,,,,,,,646,,,,98.6,1000,100,85,5,5,3,9,,,,,,, ,
X,3,23,2022,643,95248,40.9047,-71.1427,64,286,3,-,,5, , ,4,2,C,,,,,,,, , ,,,,,,,,,,,,,,,,,647,,,,96.2,1000,100,85,5,5,3,9,,,,,,, ,
X,3,23,2022,644,95253,40.9058,-71.1402,53,281,3,-,,5, , ,4,2,C,,,,,,,, , ,,,,,,,,,,,,,,,,,648,,,,96.1,1000,100,85,5,5,3,9,,,,,,, ,
X,3,23,2022,645,95258,40.9072,-71.1383,42,285,3,-,,5, , ,4,2,C,,,,,,,, , ,,,,,,,,,,,,,,,,,649,,,,94.8,1000,100,85,5,5,3,9,,,,,,, ,
X,3,23,2022,646,95303,40.9089,-71.1365,33,286,3,-,,5, , ,4,2,C,,,,,,,, , ,,,,,,,,,,,,,,,,,650,,,,95.1,1000,100,85,5,5,3,9,,,,,,, ,
X,3,23,2022,647,95308,40.9108,-71.1352,22,288,3,-,,5, , ,4,2,C,,,,,,,, , ,,,,,,,,,,,,,,,,,651,,,,92.9,1000,100,85,5,5,3,9,,,,,,, ,
X,3,23,2022,648,95313,40.913,-71.1342,13,283,3,-,,5, , ,4,2,C,,,,,,,, , ,,,,,,,,,,,,,,,,,652,,,,93.7,1000,100,85,5,5,3,9,,,,,,, ,
X,3,23,2022,649,95318,40.9151,-71.1337,7,285,3,-,,5, , ,4,2,C,,,,,,,, , ,,,,,,,,,,,,,,,,,653,,,,93.4,1000,100,85,5,5,3,9,,,,,,, ,
S,3,23,2022,650,95323,40.9174,-71.1333,6,284,2,1,13,5,1,3,4,2,C,13,,,,,,, , ,,,,,,,,,,,,,,,,,654,,,,93.9,1000,100,85,5,5,3,9,,,,,BEGIN LINE,, ,
Z,3,23,2022,651,95324,40.9178,-71.1333,5,284,2,2,13,5,1,3,4,2,C,,,,,,,, , ,,,,,,,,,,,,,,,,,655,,,,93.9,1000,100,85,5,5,3,9,,,,,,, ,
X,3,23,2022,652,95326,40.9178,-71.1333,5,284,2,2,13,5,1,3,4,2,C,,,,,,,, , ,,,,,,,,,,,,,,,,,656,,,,93.9,1000,100,85,5,5,3,9,,,,,,, ,
X,3,23,2022,653,95328,40.9192,-71.1332,359,285,2,2,13,5,1,3,4,2,C,,,,,,,, , ,,,,,,,,,,,,,,,,,657,,,,94.3,1000,100,85,5,5,3,9,,,,,,, ,
X,3,23,2022,654,95333,40.9217,-71.1333,358,278,2,2,13,5,1,3,4,2,C,,,,,,,, , ,,,,,,,,,,,,,,,,,658,,,,96.3,1000,100,85,5,5,3,9,,,,,,, ,
X,3,23,2022,655,95338,40.9238,-71.1333,0,275,2,2,13,5,1,3,4,2,C,,,,,,,, , ,,,,,,,,,,,,,,,,,659,,,,96.9,1000,100,85,5,5,3,9,,,,,,, ,
X,3,23,2022,656,95343,40.9262,-71.1333,0,270,2,2,13,5,1,3,4,2,C,,,,,,,, , ,,,,,,,,,,,,,,,,,660,,,,97.4,1000,100,85,5,5,3,9,,,,,,, ,
X,3,23,2022,657,95348,40.9285,-71.1333,0,273,2,2,13,5,1,3,4,2,C,,,,,,,, , ,,,,,,,,,,,,,,,,,661,,,,96.9,1000,100,85,5,5,3,9,,,,,,, ,
X,3,23,2022,658,95353,40.9307,-71.1332,1,275,2,2,13,5,1,3,4,2,C,,,,,,,, , ,,,,,,,,,,,,,,,,,662,,,,95.3,1000,100,85,5,5,3,9,,,,,,, ,
X,3,23,2022,659,95358,40.9329,-71.1332,0,278,2,2,13,5,1,3,4,2,C,,,,,,,, , ,,,,,,,,,,,,,,,,,663,,,,94.1,1000,100,85,5,5,3,8,,,,,,, ,
X,3,23,2022,660,95403,40.9347,-71.1332,0,278,2,2,13,5,1,3,4,2,C,,,,,,,, , ,,,,,,,,,,,,,,,,,664,,,,94.3,1000,100,85,5,5,3,9,,,,,,, ,
X,3,23,2022,661,95408,40.9372,-71.1331,0,288,2,2,13,5,1,3,4,2,C,,,,,,,, , ,,,,,,,,,,,,,,,,,665,,,,91.7,1000,100,85,5,5,3,9,,,,,,, ,
Z,3,23,2022,662,95410,40.9379,-71.1331,0,291,2,2,13,5,1,3,4,2,C,,,,,,,, , ,,,,,,,,,,,,,,,,,666,,,,90.2,1000,100,85,5,5,3,9,,,,,,, ,
X,3,23,2022,663,95413,40.9393,-71.1331,359,294,2,2,13,5,1,3,4,2,C,,,,,,,, , ,,,,,,,,,,,,,,,,,667,,,,90.1,1000,100,85,5,5,3,9,,,,,,, ,
X,3,23,2022,664,95418,40.9414,-71.1331,0,295,2,2,13,5,1,3,4,2,C,,,,,,,, , ,,,,,,,,,,,,,,,,,668,,,,91.8,1000,100,85,5,5,3,9,,,,,,, ,
X,3,23,2022,665,95423,40.9436,-71.1331,1,297,2,2,13,5,1,3,4,2,C,,,,,,,, , ,,,,,,,,,,,,,,,,,669,,,,94.1,1000,100,85,5,5,3,9,,,,,,, ,
X,3,23,2022,666,95428,40.9458,-71.133,0,303,2,2,13,5,1,3,4,2,C,,,,,,,, , ,,,,,,,,,,,,,,,,,670,,,,94.7,1000,100,85,5,5,3,9,,,,,,, ,
X,3,23,2022,667,95433,40.9479,-71.1331,359,302,2,2,13,5,1,3,4,2,C,,,,,,,, , ,,,,,,,,,,,,,,,,,671,,,,96.3,1000,100,85,5,5,3,9,,,,,,, ,
X,3,23,2022,668,95438,40.9501,-71.1331,359,302,2,2,13,5,1,3,4,2,C,,,,,,,, , ,,,,,,,,,,,,,,,,,672,,,,97.1,1000,100,85,5,5,3,9,,,,,,, ,
X,3,23,2022,669,95443,40.9524,-71.1331,0,302,2,2,13,5,1,3,4,2,C,,,,,,,, , ,,,,,,,,,,,,,,,,,673,,,,99,1000,100,85,5,5,3,9,,,,,,, ,
P,3,23,2022,670,95448,40.9548,-71.1331,359,299,2,2,13,5,1,3,4,2,C,14,,,DE-W,1,,,1,9,0,,,,,,,,,,,,,,,,674,,,,101.2,1000,100,85,5,5,3,10,,,,,SIGHTING CUE WATER DISTURBANCE; NO ANGLE,, ,
S,3,23,2022,671,95448,40.9548,-71.1331,359,299,2,3,13,5,1,3,4,2,C,15,,,,,,, , ,,,,,,,,,,,,,,,,,675,,,,101.2,1000,100,85,5,5,3,10,,,,,999 FOR SIGHTING CUE ON L IN EVENT 670,, ,
X,3,23,2022,672,95453,40.9572,-71.1337,339,303,4,-,13,5, , ,4,2,C,,,,,,,, , ,,,,,,,,,,,,,,,,,676,,,,101.7,1000,100,85,5,5,3,10,,,,,,, ,
X,3,23,2022,673,95456,40.9581,-71.1343,327,306,4,-,13,5, , ,4,2,C,,,,,,,,,,,,,,,,,,,,,,,,,,677,,,,102.3,1000,100,85,5,5,3,10,,,,,,, ,
X,3,23,2022,674,95458,40.959,-71.1353,315,307,4,-,13,5, , ,4,2,C,,,,,,,, , ,,,,,,,,,,,,,,,,,678,,,,103.3,1000,100,85,5,5,3,10,,,,,,, ,
Z,3,23,2022,675,95459,40.9596,-71.1361,306,307,4,-,13,5, , ,4,2,C,,,,,,,, , ,,,,,,,,,,,,,,,,,679,,,,105.5,1000,100,85,5,5,3,10,,,,,,, ,
X,3,23,2022,676,95503,40.9604,-71.1382,288,304,4,-,13,5, , ,4,2,C,,,,,,,, , ,,,,,,,,,,,,,,,,,680,,,,110.3,1000,100,85,5,5,3,10,,,,,,, ,
X,3,23,2022,677,95508,40.9607,-71.1416,268,296,4,-,13,5, , ,4,2,C,,,,,,,, , ,,,,,,,,,,,,,,,,,681,,,,115.8,1000,100,85,5,5,3,9,,,,,,, ,
X,3,23,2022,678,95513,40.9604,-71.1452,256,286,4,-,13,5, , ,4,2,C,,,,,,,, , ,,,,,,,,,,,,,,,,,682,,,,120.5,1000,100,85,5,5,3,10,,,,,,, ,
X,3,23,2022,679,95518,40.9593,-71.1486,239,286,4,-,13,5, , ,4,2,C,,,,,,,, , ,,,,,,,,,,,,,,,,,683,,,,123.9,1000,100,85,5,5,3,9,,,,,,, ,
X,3,23,2022,680,95523,40.9575,-71.1515,222,290,4,-,13,5, , ,4,2,C,,,,,,,, , ,,,,,,,,,,,,,,,,,684,,,,124.5,1000,100,85,5,5,3,10,,,,,,, ,
X,3,23,2022,681,95528,40.9554,-71.1537,213,289,4,-,13,5, , ,4,2,C,,,,,,,, , ,,,,,,,,,,,,,,,,,685,,,,125.9,1000,100,85,5,5,3,10,,,,,,, ,
X,3,23,2022,682,95533,40.9526,-71.1553,192,289,4,-,13,5, , ,4,2,C,,,,,,,, , ,,,,,,,,,,,,,,,,,686,,,,125.2,1000,100,85,5,5,3,10,,,,,,, ,
X,3,23,2022,683,95538,40.9498,-71.1552,163,297,4,-,13,5, , ,4,2,C,,,,,,,, , ,,,,,,,,,,,,,,,,,687,,,,119,1000,100,85,5,5,3,9,,,,,,, ,
X,3,23,2022,684,95543,40.9476,-71.1533,130,294,4,-,13,5, , ,4,2,C,,,,,,,, , ,,,,,,,,,,,,,,,,,688,,,,114,1000,100,85,5,5,3,10,,,,,,, ,
X,3,23,2022,685,95548,40.9465,-71.15,100,281,4,-,13,5, , ,4,2,C,,,,,,,, , ,,,,,,,,,,,,,,,,,689,,,,111.1,1000,100,85,5,5,3,10,,,,,,, ,
Z,3,23,2022,686,95549,40.9465,-71.1492,96,280,4,-,13,5, , ,4,2,C,,,,,,,, , ,,,,,,,,,,,,,,,,,690,,,,110.5,1000,100,85,5,5,3,10,,,,,,, ,
Z,3,23,2022,687,95553,40.9464,-71.1482,93,277,4,-,13,5, , ,4,2,C,,,,,,,, , ,,,,,,,,,,,,,,,,,691,,,,110.5,1000,100,85,5,5,3,10,,,,,,, ,
X,3,23,2022,688,95558,40.9466,-71.1436,80,276,4,-,13,5, , ,4,2,C,,,,,,,, , ,,,,,,,,,,,,,,,,,692,,,,105.9,1000,100,85,5,5,3,10,,,,,,, ,
X,3,23,2022,689,95603,40.9472,-71.1407,66,279,4,-,13,5, , ,4,2,C,,,,,,,, , ,,,,,,,,,,,,,,,,,693,,,,98.5,1000,100,85,5,5,3,10,,,,,,, ,
X,3,23,2022,690,95608,40.9487,-71.1382,36,280,4,-,13,5, , ,4,2,C,,,,,,,, , ,,,,,,,,,,,,,,,,,694,,,,91.7,1000,100,85,5,5,3,10,,,,,,, ,
X,3,23,2022,691,95613,40.9507,-71.1373,3,270,4,-,13,5, , ,4,2,C,,,,,,,, , ,,,,,,,,,,,,,,,,,695,,,,91.7,1000,100,85,5,5,3,10,,,,,,, ,
X,3,23,2022,692,95618,40.9528,-71.1379,333,257,4,-,13,5, , ,4,2,C,,,,,,,, , ,,,,,,,,,,,,,,,,,696,,,,95.8,1000,100,85,5,5,3,10,,,,,,, ,
X,3,23,2022,693,95623,40.9543,-71.1395,313,248,4,-,13,5, , ,4,2,C,,,,,,,, , ,,,,,,,,,,,,,,,,,697,,,,98.1,1000,100,85,5,5,3,10,,,,,,, ,
X,3,23,2022,694,95628,40.9556,-71.1419,303,240,4,-,13,5, , ,4,2,C,,,,,,,, , ,,,,,,,,,,,,,,,,,698,,,,98.4,1000,100,85,5,5,3,9,,,,,,, ,
X,3,23,2022,695,95633,40.9569,-71.1446,298,236,4,-,13,5, , ,4,2,C,,,,,,,, , ,,,,,,,,,,,,,,,,,699,,,,96.6,1000,100,85,5,5,3,10,,,,,,, ,
X,3,23,2022,696,95638,40.9578,-71.1475,282,247,4,-,13,5, , ,4,2,C,,,,,,,, , ,,,,,,,,,,,,,,,,,700,,,,94.4,1000,100,85,5,5,3,10,,,,,,, ,
Z,3,23,2022,697,95639,40.9579,-71.148,276,250,4,-,13,5, , ,4,2,C,,,,,,,, , ,,,,,,,,,,,,,,,,,701,,,,94.4,1000,100,85,5,5,3,10,,,,,,, ,
X,3,23,2022,698,95643,40.9577,-71.1503,254,259,4,-,13,5, , ,4,2,C,,,,,,,, , ,,,,,,,,,,,,,,,,,702,,,,97.4,1000,100,85,5,5,3,10,,,,,,, ,
X,3,23,2022,699,95648,40.9566,-71.153,226,261,4,-,13,5, , ,4,2,C,,,,,,,, , ,,,,,,,,,,,,,,,,,703,,,,102.9,1000,100,85,5,5,3,10,,,,,,, ,
X,3,23,2022,700,95653,40.9547,-71.1546,198,260,4,-,13,5, , ,4,2,C,,,,,,,, , ,,,,,,,,,,,,,,,,,704,,,,105.6,1000,100,85,5,5,3,10,,,,,,, ,
X,3,23,2022,701,95658,40.9522,-71.1547,165,256,4,-,13,5, , ,4,2,C,,,,,,,, , ,,,,,,,,,,,,,,,,,705,,,,106.3,1000,100,85,5,5,3,10,,,,,,, ,
X,3,23,2022,702,95703,40.9502,-71.1529,126,252,4,-,13,5, , ,4,2,C,,,,,,,, , ,,,,,,,,,,,,,,,,,706,,,,100.9,1000,100,85,5,5,3,9,,,,,,, ,
X,3,23,2022,703,95708,40.9495,-71.1501,88,248,4,-,13,5, , ,4,2,C,,,,,,,, , ,,,,,,,,,,,,,,,,,707,,,,96.2,1000,100,85,5,5,3,10,,,,,,, ,
X,3,23,2022,704,95713,40.9501,-71.1473,65,251,4,-,13,5, , ,4,2,C,,,,,,,, , ,,,,,,,,,,,,,,,,,708,,,,93.1,1000,100,85,5,5,3,10,,,,,,, ,
S,3,23,2022,705,95715,40.9501,-71.1473,65,251,4,-,13,5, , ,4,2,C,16,,,,,,, , ,,,,,,,,,,,,,,,,,709,,,,93.1,1000,100,85,5,5,3,10,,,,,EXACT POINT OF LARGE DE-W,, ,
X,3,23,2022,706,95718,40.9511,-71.1453,48,258,4,-,13,5, , ,4,2,C,,,,,,,, , ,,,,,,,,,,,,,,,,,710,,,,90.3,1000,100,85,5,5,3,10,,,,,,, ,
X,3,23,2022,707,95723,40.9529,-71.1436,22,270,4,-,13,5, , ,4,2,C,,,,,,,, , ,,,,,,,,,,,,,,,,,711,,,,85.5,1000,100,85,5,5,3,10,,,,,,, ,
Z,3,23,2022,708,95725,40.9536,-71.1433,11,272,4,-,13,5, , ,4,2,C,,,,,,,, , ,,,,,,,,,,,,,,,,,712,,,,84.7,1000,100,85,5,5,3,10,,,,,,, ,
X,3,23,2022,709,95728,40.9549,-71.1433,351,273,4,-,13,5, , ,4,2,C,,,,,,,, , ,,,,,,,,,,,,,,,,,713,,,,85.8,1000,100,85,5,5,3,9,,,,,,, ,
X,3,23,2022,710,95733,40.9567,-71.1443,321,280,4,-,13,5, , ,4,2,C,,,,,,,, , ,,,,,,,,,,,,,,,,,714,,,,86.5,1000,100,85,5,5,3,10,,,,,,, ,
X,3,23,2022,711,95738,40.9579,-71.1464,294,290,4,-,13,5, , ,4,2,C,,,,,,,, , ,,,,,,,,,,,,,,,,,715,,,,88.9,1000,100,85,5,5,3,10,,,,,,, ,
X,3,23,2022,712,95743,40.9583,-71.1492,269,292,4,-,13,5, , ,4,2,C,,,,,,,, , ,,,,,,,,,,,,,,,,,716,,,,94.8,1000,100,85,5,5,3,10,,,,,,, ,
X,3,23,2022,713,95748,40.9579,-71.1518,247,291,4,-,13,5, , ,4,2,C,,,,,,,, , ,,,,,,,,,,,,,,,,,717,,,,101.2,1000,100,85,5,5,3,10,,,,,,, ,
X,3,23,2022,714,95753,40.9565,-71.1546,223,287,4,-,13,5, , ,4,2,C,,,,,,,, , ,,,,,,,,,,,,,,,,,718,,,,109.5,1000,100,85,5,5,3,10,,,,,,, ,
X,3,23,2022,715,95758,40.9543,-71.1564,201,288,4,-,13,5, , ,4,2,C,,,,,,,, , ,,,,,,,,,,,,,,,,,719,,,,110.7,1000,100,85,5,5,3,10,,,,,,, ,
X,3,23,2022,716,95803,40.9518,-71.1569,179,295,4,-,13,5, , ,4,2,C,,,,,,,, , ,,,,,,,,,,,,,,,,,720,,,,109.6,1000,100,85,5,5,3,9,,,,,,, ,
X,3,23,2022,717,95808,40.9493,-71.1562,158,302,4,-,13,5, , ,4,2,C,,,,,,,, , ,,,,,,,,,,,,,,,,,721,,,,106.3,1000,100,85,5,5,3,10,,,,,,, ,
X,3,23,2022,718,95813,40.9471,-71.1545,141,298,4,-,13,5, , ,4,2,C,,,,,,,, , ,,,,,,,,,,,,,,,,,722,,,,108.2,1000,100,85,5,5,3,10,,,,,,, ,
Z,3,23,2022,719,95814,40.9466,-71.1539,137,296,4,-,13,5, , ,4,2,C,,,,,,,, , ,,,,,,,,,,,,,,,,,723,,,,108.8,1000,100,85,5,5,3,10,,,,,,, ,
X,3,23,2022,720,95818,40.9454,-71.1522,125,297,4,-,13,5, , ,4,2,C,,,,,,,, , ,,,,,,,,,,,,,,,,,724,,,,107.3,1000,100,85,5,5,3,9,,,,,,, ,
X,3,23,2022,721,95823,40.9443,-71.1493,109,306,4,-,13,5, , ,4,2,C,,,,,,,, , ,,,,,,,,,,,,,,,,,725,,,,103.5,1000,100,85,5,5,3,10,,,,,,, ,
X,3,23,2022,722,95828,40.9438,-71.1462,96,300,4,-,13,5, , ,4,2,C,,,,,,,, , ,,,,,,,,,,,,,,,,,726,,,,105.6,1000,100,85,5,5,3,10,,,,,,, ,
X,3,23,2022,723,95833,40.9436,-71.143,92,295,4,-,13,5, , ,4,2,C,,,,,,,, , ,,,,,,,,,,,,,,,,,727,,,,108.5,1000,100,85,5,5,3,9,,,,,,, ,
X,3,23,2022,724,95838,40.9436,-71.1397,81,295,4,-,13,5, , ,4,2,C,,,,,,,, , ,,,,,,,,,,,,,,,,,728,,,,106.6,1000,100,85,5,5,3,9,,,,,,, ,
X,3,23,2022,725,95843,40.9444,-71.137,55,297,4,-,13,5, , ,4,2,C,,,,,,,, , ,,,,,,,,,,,,,,,,,730,,,,100.4,1000,100,85,5,5,3,10,,,,,,, ,
X,3,23,2022,726,95848,40.9461,-71.1348,35,289,4,-,13,5, , ,4,2,C,,,,,,,, , ,,,,,,,,,,,,,,,,,731,,,,99,1000,100,85,5,5,3,10,,,,,,, ,
X,3,23,2022,727,95853,40.9481,-71.1336,14,294,4,-,13,5, , ,4,2,C,,,,,,,, , ,,,,,,,,,,,,,,,,,732,,,,94.8,1000,100,85,5,5,3,9,,,,,,, ,
X,3,23,2022,728,95858,40.9503,-71.1332,2,300,4,-,13,5, , ,4,2,C,,,,,,,, , ,,,,,,,,,,,,,,,,,733,,,,94.4,1000,100,85,5,5,3,10,,,,,,, ,
X,3,23,2022,729,95903,40.9526,-71.1332,359,295,4,-,13,5, , ,4,2,C,,,,,,,, , ,,,,,,,,,,,,,,,,,734,,,,97.1,1000,100,85,5,5,3,10,,,,,,, ,
Z,3,23,2022,730,95904,40.9532,-71.1332,0,294,4,-,13,5, , ,4,2,C,,,,,,,, , ,,,,,,,,,,,,,,,,,735,,,,96.7,1000,100,85,5,5,3,10,,,,,,, ,
X,3,23,2022,731,95908,40.9543,-71.1332,1,297,4,-,13,5, , ,4,2,C,,,,,,,, , ,,,,,,,,,,,,,,,,,736,,,,96.3,1000,100,85,5,5,3,10,,,,,,, ,
S,3,23,2022,732,95912,40.9551,-71.1332,2,300,2,4,13,5,1,3,4,2,C,18,,,,,,, , ,,,,,,,,,,,,,,,,,737,,,,95.2,1000,100,85,5,5,N,10,,,,,RESUME TRACK,, ,
X,3,23,2022,733,95913,40.957,-71.1331,0,304,2,2,13,5,1,3,4,2,C,,,,,,,, , ,,,,,,,,,,,,,,,,,738,,,,94.7,1000,100,85,5,5,3,10,,,,,,, ,
X,3,23,2022,734,95918,40.9589,-71.1331,359,306,2,2,13,5,1,3,4,2,C,,,,,,,, , ,,,,,,,,,,,,,,,,,739,,,,95.6,1000,100,85,5,5,3,10,,,,,,, ,
X,3,23,2022,735,95923,40.9615,-71.1331,359,309,2,2,13,5,1,3,4,2,C,,,,,,,, , ,,,,,,,,,,,,,,,,,740,,,,98,1000,100,85,5,5,3,10,,,,,,, ,
X,3,23,2022,736,95928,40.9638,-71.1331,359,313,2,2,13,5,1,3,4,2,C,,,,,,,, , ,,,,,,,,,,,,,,,,,741,,,,98.4,1000,100,85,5,5,3,10,,,,,,, ,
X,3,23,2022,737,95933,40.966,-71.1331,0,314,2,2,13,5,1,3,4,2,C,,,,,,,, , ,,,,,,,,,,,,,,,,,742,,,,98.4,1000,100,85,5,5,3,10,,,,,,, ,
X,3,23,2022,738,95938,40.9684,-71.1331,0,310,2,2,13,5,1,3,4,2,C,,,,,,,, , ,,,,,,,,,,,,,,,,,743,,,,101.8,1000,100,85,5,5,3,10,,,,,,, ,
X,3,23,2022,739,95943,40.9704,-71.1331,359,308,2,2,13,5,1,3,4,2,C,,,,,,,, , ,,,,,,,,,,,,,,,,,744,,,,102.3,1000,100,85,5,5,3,10,,,,,,, ,
X,3,23,2022,740,95948,40.9731,-71.1331,0,307,2,2,13,5,1,3,4,2,C,,,,,,,, , ,,,,,,,,,,,,,,,,,745,,,,103.1,1000,100,85,5,5,3,10,,,,,,, ,
Z,3,23,2022,741,95950,40.9737,-71.133,0,306,2,2,13,5,1,3,4,2,C,,,,,,,, , ,,,,,,,,,,,,,,,,,746,,,,103.7,1000,100,85,5,5,3,10,,,,,,, ,
X,3,23,2022,742,95953,40.9755,-71.133,359,306,2,2,13,5,1,3,4,2,C,,,,,,,, , ,,,,,,,,,,,,,,,,,747,,,,105.2,1000,100,85,5,5,3,10,,,,,,, ,
X,3,23,2022,743,95958,40.978,-71.1331,359,307,2,2,13,5,1,3,4,2,C,,,,,,,, , ,,,,,,,,,,,,,,,,,748,,,,106.8,1000,100,85,5,5,3,10,,,,,,, ,
X,3,23,2022,744,100003,40.9805,-71.1331,0,305,2,2,13,5,1,3,4,2,C,,,,,,,, , ,,,,,,,,,,,,,,,,,749,,,,107.8,1000,100,85,5,5,3,9,,,,,,, ,
X,3,23,2022,745,100008,40.9828,-71.133,0,308,2,2,13,5,1,3,4,2,C,,,,,,,, , ,,,,,,,,,,,,,,,,,750,,,,107.3,1000,100,85,5,5,3,10,,,,,,, ,
X,3,23,2022,746,100013,40.9853,-71.1331,358,309,2,2,13,5,1,3,4,2,C,,,,,,,, , ,,,,,,,,,,,,,,,,,751,,,,107.3,1000,100,85,5,5,3,10,,,,,,, ,
X,3,23,2022,747,100018,40.9878,-71.1331,359,312,2,2,13,5,1,3,4,2,C,,,,,,,, , ,,,,,,,,,,,,,,,,,752,,,,107.8,1000,100,85,5,5,3,10,,,,,,, ,
X,3,23,2022,748,100023,40.9903,-71.1331,359,316,2,2,13,5,1,3,4,2,C,,,,,,,, , ,,,,,,,,,,,,,,,,,753,,,,108.3,1000,100,85,5,5,3,10,,,,,,, ,
X,3,23,2022,749,100028,40.9929,-71.1331,0,316,2,2,13,5,1,3,4,2,C,,,,,,,, , ,,,,,,,,,,,,,,,,,754,,,,108.3,1000,100,85,5,5,3,10,,,,,,, ,
X,3,23,2022,750,100033,40.9954,-71.133,0,317,2,2,13,5,1,3,4,2,C,,,,,,,, , ,,,,,,,,,,,,,,,,,755,,,,106.8,1000,100,85,5,5,3,10,,,,,,, ,
X,3,23,2022,751,100038,40.9977,-71.133,359,314,2,2,13,5,1,3,4,2,C,,,,,,,, , ,,,,,,,,,,,,,,,,,756,,,,106.7,1000,100,85,5,5,3,10,,,,,,, ,
Z,3,23,2022,752,100040,40.9988,-71.133,359,311,2,2,13,5,1,3,4,2,C,,,,,,,, , ,,,,,,,,,,,,,,,,,757,,,,107,1000,100,85,5,5,3,10,,,,,,, ,
X,3,23,2022,753,100043,41.0004,-71.133,0,306,2,2,13,5,1,3,4,2,C,,,,,,,, , ,,,,,,,,,,,,,,,,,758,,,,107.4,1000,100,85,5,5,3,10,,,,,,, ,
X,3,23,2022,754,100048,41.0029,-71.133,0,301,2,2,13,5,1,3,4,2,C,,,,,,,, , ,,,,,,,,,,,,,,,,,759,,,,107.3,1000,100,85,5,5,3,10,,,,,,, ,
X,3,23,2022,755,100053,41.0053,-71.133,0,302,2,2,13,5,1,3,4,2,C,,,,,,,, , ,,,,,,,,,,,,,,,,,760,,,,106.3,1000,100,85,5,5,3,10,,,,,,, ,
X,3,23,2022,756,100058,41.0078,-71.133,358,305,2,2,13,5,1,3,4,2,C,,,,,,,, , ,,,,,,,,,,,,,,,,,761,,,,104.5,1000,100,85,5,5,3,10,,,,,,, ,
X,3,23,2022,757,100103,41.0102,-71.133,359,302,2,2,13,5,1,3,4,2,C,,,,,,,, , ,,,,,,,,,,,,,,,,,762,,,,104.5,1000,100,85,5,5,3,10,,,,,,, ,
X,3,23,2022,758,100108,41.0124,-71.133,0,297,2,2,13,5,1,3,4,2,C,,,,,,,, , ,,,,,,,,,,,,,,,,,763,,,,105,1000,100,85,5,5,3,10,,,,,,, ,
X,3,23,2022,759,100113,41.0149,-71.133,0,300,2,2,13,5,1,3,4,2,C,,,,,,,, , ,,,,,,,,,,,,,,,,,764,,,,102.9,1000,100,85,5,5,3,10,,,,,,, ,
X,3,23,2022,760,100118,41.0173,-71.133,359,303,2,2,13,5,1,3,4,2,C,,,,,,,, , ,,,,,,,,,,,,,,,,,765,,,,101.6,1000,100,85,5,5,3,10,,,,,,, ,
X,3,23,2022,761,100123,41.0197,-71.133,0,302,2,2,13,5,1,3,4,2,C,,,,,,,, , ,,,,,,,,,,,,,,,,,766,,,,102.9,1000,100,85,5,5,3,9,,,,,,, ,
X,3,23,2022,762,100128,41.0222,-71.1329,359,297,2,2,13,5,1,3,4,2,C,,,,,,,, , ,,,,,,,,,,,,,,,,,767,,,,104.7,1000,100,85,5,5,3,9,,,,,,, ,
Z,3,23,2022,763,100129,41.0229,-71.1329,359,296,2,2,13,5,1,3,4,2,C,,,,,,,, , ,,,,,,,,,,,,,,,,,768,,,,105.2,1000,100,85,5,5,3,9,,,,,,, ,
X,3,23,2022,764,100133,41.0244,-71.133,359,295,2,2,13,5,1,3,4,2,C,,,,,,,, , ,,,,,,,,,,,,,,,,,769,,,,105.7,1000,100,85,5,5,3,9,,,,,,, ,
X,3,23,2022,765,100138,41.0269,-71.133,358,295,2,2,13,5,1,3,4,2,C,,,,,,,, , ,,,,,,,,,,,,,,,,,770,,,,104.3,1000,100,85,5,5,3,9,,,,,,, ,
X,3,23,2022,766,100143,41.0294,-71.133,359,300,2,2,13,5,1,3,4,2,C,,,,,,,, , ,,,,,,,,,,,,,,,,,771,,,,101.1,1000,100,85,5,5,3,9,,,,,,, ,
X,3,23,2022,767,100148,41.0318,-71.1331,359,302,2,2,13,5,1,3,4,2,C,,,,,,,, , ,,,,,,,,,,,,,,,,,772,,,,99.5,1000,100,85,5,5,3,9,,,,,,, ,
X,3,23,2022,768,100153,41.034,-71.1331,0,304,2,2,13,5,1,3,4,2,C,,,,,,,, , ,,,,,,,,,,,,,,,,,773,,,,97.9,1000,100,85,5,5,3,9,,,,,,, ,
X,3,23,2022,769,100158,41.0363,-71.1331,358,303,2,2,13,5,1,3,4,2,C,,,,,,,, , ,,,,,,,,,,,,,,,,,774,,,,97.7,1000,100,85,5,5,3,10,,,,,,, ,
X,3,23,2022,770,100203,41.0383,-71.1331,359,300,2,2,13,5,1,3,4,2,C,,,,,,,, , ,,,,,,,,,,,,,,,,,775,,,,98.2,1000,100,85,5,5,3,10,,,,,,, ,
X,3,23,2022,771,100208,41.0405,-71.1331,0,299,2,2,13,5,1,3,4,2,C,,,,,,,, , ,,,,,,,,,,,,,,,,,776,,,,98.9,1000,100,85,5,5,3,10,,,,,,, ,
X,3,23,2022,772,100213,41.0431,-71.1331,0,304,2,2,13,5,1,3,4,2,C,,,,,,,, , ,,,,,,,,,,,,,,,,,777,,,,96.8,1000,100,85,5,5,3,10,,,,,,, ,
Z,3,23,2022,773,100215,41.0437,-71.1331,0,306,2,2,13,5,1,3,4,2,C,,,,,,,, , ,,,,,,,,,,,,,,,,,778,,,,96.1,1000,100,85,5,5,3,10,,,,,,, ,
X,3,23,2022,774,100218,41.0453,-71.133,1,308,2,2,13,5,1,3,4,2,C,,,,,,,, , ,,,,,,,,,,,,,,,,,779,,,,94.5,1000,100,85,5,5,3,10,,,,,,, ,
X,3,23,2022,775,100223,41.0475,-71.1329,1,309,2,2,13,5,1,3,4,2,C,,,,,,,, , ,,,,,,,,,,,,,,,,,780,,,,94.2,1000,100,85,5,5,3,10,,,,,,, ,
X,3,23,2022,776,100228,41.0497,-71.133,359,305,2,2,13,5,1,3,4,2,C,,,,,,,, , ,,,,,,,,,,,,,,,,,781,,,,96.1,1000,100,85,5,5,3,10,,,,,,, ,
X,3,23,2022,777,100233,41.0518,-71.133,359,298,2,2,13,5,1,3,4,2,C,,,,,,,, , ,,,,,,,,,,,,,,,,,782,,,,97.8,1000,100,85,5,5,3,10,,,,,,, ,
X,3,23,2022,778,100238,41.0542,-71.133,359,295,2,2,13,5,1,3,4,2,C,,,,,,,, , ,,,,,,,,,,,,,,,,,783,,,,99.2,1000,100,85,5,5,3,10,,,,,,, ,
X,3,23,2022,779,100243,41.0564,-71.133,359,296,2,2,13,5,1,3,4,2,C,,,,,,,, , ,,,,,,,,,,,,,,,,,784,,,,97.3,1000,100,85,5,5,3,10,,,,,,, ,
X,3,23,2022,780,100248,41.0587,-71.133,359,295,2,2,13,5,1,3,4,2,C,,,,,,,, , ,,,,,,,,,,,,,,,,,785,,,,96.2,1000,100,85,5,5,3,10,,,,,,, ,
X,3,23,2022,781,100253,41.0609,-71.1331,359,296,2,2,13,5,1,3,4,2,C,,,,,,,, , ,,,,,,,,,,,,,,,,,786,,,,94.8,1000,100,85,5,5,3,10,,,,,,, ,
X,3,23,2022,782,100258,41.0631,-71.1331,358,297,2,2,13,5,1,3,4,2,C,,,,,,,, , ,,,,,,,,,,,,,,,,,787,,,,93.9,1000,100,85,5,5,3,10,,,,,,, ,
X,3,23,2022,783,100303,41.0651,-71.1332,0,299,2,2,13,5,1,3,4,2,C,,,,,,,, , ,,,,,,,,,,,,,,,,,788,,,,94.5,1000,100,85,5,5,3,10,,,,,,, ,
Z,3,23,2022,784,100305,41.0662,-71.1331,0,301,2,2,13,5,1,3,4,2,C,,,,,,,, , ,,,,,,,,,,,,,,,,,789,,,,94,1000,100,85,5,5,3,10,,,,,,, ,
X,3,23,2022,785,100308,41.0675,-71.1331,0,302,2,2,13,5,1,3,4,2,C,,,,,,,, , ,,,,,,,,,,,,,,,,,790,,,,93.6,1000,100,85,5,5,3,10,,,,,,, ,
X,3,23,2022,786,100313,41.0697,-71.1331,358,300,2,2,13,5,1,3,4,2,C,,,,,,,, , ,,,,,,,,,,,,,,,,,791,,,,95.1,1000,100,85,5,5,3,10,,,,,,, ,
X,3,23,2022,787,100318,41.0719,-71.1333,358,298,2,2,13,5,1,3,4,2,C,,,,,,,, , ,,,,,,,,,,,,,,,,,792,,,,96.3,1000,100,85,5,5,3,10,,,,,,, ,
X,3,23,2022,788,100323,41.0742,-71.1333,359,298,2,2,13,5,1,3,4,2,C,,,,,,,, , ,,,,,,,,,,,,,,,,,793,,,,97.1,1000,100,85,5,5,3,10,,,,,,, ,
X,3,23,2022,789,100328,41.0764,-71.1333,0,301,2,2,13,5,1,3,4,2,C,,,,,,,, , ,,,,,,,,,,,,,,,,,794,,,,95.2,1000,100,85,5,5,3,10,,,,,,, ,
