rectype,month,day,year,eventno,time,lat,long,heading,alt,legtype,legstage,legno,visiblty,glarel,glarer,beaufort,cloud,wx,sightno,strip,speccode,number,numcalf,anhead,photos,idrel,confidnc,behav1,behav2,behav3,behav4,behav5,behav6,behav7,behav8,behav9,behav10,behav11,behav12,behav13,behav14,behav15,psightings,ssightings,pnum,snum,legflag,view,refno,stratum,utc,radalt,gpsspeed,setalt,setvel,lensfl,ggf,int,gpsq,gpssats,roll,pitch,yaw,maghead,notes,edits,glarev,ph_qual
S,4,24,2022,15,132815,41.6731,-70.9598,75,16,1,-,,5, , ,4,3,C,2,,,,,, , ,,,,,,,,,,,,,,,,,1,1,,,1/-VBW,T,15,,,,0.7,1000,100,85,5,5,N,9,,,,,,ON WATCH, ,
Z,4,24,2022,16,132820,41.6731,-70.9598,107,16,1,-,,5, , ,4,3,C,,,,,,, , ,,,,,,,,,,,,,,,,,1,1,,,1/-,T,16,,,,0.4,1000,100,85,5,5,3,9,,,,,,, ,
Z,4,24,2022,17,132824,41.6731,-70.9598,105,16,1,-,,5, , ,4,3,C,,,,,,, , ,,,,,,,,,,,,,,,,,1,1,,,/,F,17,,,,0.7,1000,100,85,5,5,3,9,,,,,,, ,
Z,4,24,2022,18,132828,41.6731,-70.9598,102,16,1,-,,5, , ,4,3,C,,,,,,, , ,,,,,,,,,,,,,,,,,1,1,,,/,F,18,,,,0.7,1000,100,85,5,5,3,9,,,,,,, ,
Z,4,24,2022,19,132832,41.6731,-70.9598,123,16,1,-,,5, , ,4,3,C,,,,,,, , ,,,,,,,,,,,,,,,,,1,1,,,/,F,19,,,,0.4,1000,100,85,5,5,3,9,,,,,,, ,
Z,4,24,2022,20,132836,41.6731,-70.9598,120,16,1,-,,5, , ,4,3,C,,,,,,, , ,,,,,,,,,,,,,,,,,1,1,,,/,F,20,,,,0.2,1000,100,85,5,5,3,10,,,,,,, ,
Z,4,24,2022,21,132845,41.6731,-70.9598,106,16,1,-,,5, , ,4,3,C,,,,,,, , ,,,,,,,,,,,,,,,,,1,1,,,/,F,21,,,,0.2,1000,100,85,5,5,3,9,,,,,,, ,
Z,4,24,2022,22,132849,41.6731,-70.9598,123,16,1,-,,5, , ,4,3,C,,,,,,, , ,,,,,,,,,,,,,,,,,1,1,,,/,F,22,,,,0.6,1000,100,85,5,5,3,9,,,,,,, ,
Z,4,24,2022,23,132853,41.6731,-70.9598,103,15,1,-,,5, , ,4,3,C,,,,,,, , ,,,,,,,,,,,,,,,,,1,1,,,/,F,23,,,,0.7,1000,100,85,5,5,3,9,,,,,,, ,
Z,4,24,2022,24,132857,41.6731,-70.9598,113,17,1,-,,5, , ,4,3,C,,,,,,, , ,,,,,,,,,,,,,,,,,1,1,,,/,F,24,,,,0,1000,100,85,5,5,3,10,,,,,,, ,
Z,4,24,2022,25,132905,41.673,-70.9598,124,22,1,-,,5, , ,4,3,C,,,,,,, , ,,,,,,,,,,,,,,,,,1,1,,,/,F,25,,,,0.3,1000,100,85,5,5,3,10,,,,,,, ,
Z,4,24,2022,26,132909,41.673,-70.9598,142,22,1,-,,5, , ,4,3,C,,,,,,, , ,,,,,,,,,,,,,,,,,1,1,,,/,F,26,,,,0.4,1000,100,85,5,5,3,9,,,,,,, ,
Z,4,24,2022,27,132913,41.673,-70.9598,169,23,1,-,,5, , ,4,3,C,,,,,,, , ,,,,,,,,,,,,,,,,,1,1,,,/,F,27,,,,1.5,1000,100,85,5,5,3,9,,,,,,, ,
Z,4,24,2022,28,132918,41.673,-70.9599,217,23,1,-,,5, , ,4,3,C,,,,,,, , ,,,,,,,,,,,,,,,,,1,1,,,/,F,28,,,,1.4,1000,100,85,5,5,3,9,,,,,,, ,
Z,4,24,2022,29,132922,41.673,-70.9599,215,23,1,-,,5, , ,4,3,C,,,,,,, , ,,,,,,,,,,,,,,,,,1,1,,,/,F,29,,,,2.6,1000,100,85,5,5,3,9,,,,,,, ,
Z,4,24,2022,30,132930,41.6729,-70.96,235,22,1,-,,5, , ,4,3,C,,,,,,, , ,,,,,,,,,,,,,,,,,1,1,,,/,F,30,,,,4.4,1000,100,85,5,5,3,9,,,,,,, ,
Z,4,24,2022,31,132934,41.6728,-70.9601,246,23,1,-,,5, , ,4,3,C,,,,,,, , ,,,,,,,,,,,,,,,,,1,1,,,/,F,31,,,,4,1000,100,85,5,5,3,9,,,,,,, ,
Z,4,24,2022,32,132938,41.6728,-70.9602,268,22,1,-,,5, , ,4,3,C,,,,,,, , ,,,,,,,,,,,,,,,,,1,1,,,/,F,32,,,,3.7,1000,100,85,5,5,3,9,,,,,,, ,
Z,4,24,2022,33,132942,41.6728,-70.9603,286,22,1,-,,5, , ,4,3,C,,,,,,, , ,,,,,,,,,,,,,,,,,1,1,,,/,F,33,,,,4.4,1000,100,85,5,5,3,9,,,,,,, ,
Z,4,24,2022,34,132950,41.6729,-70.9605,298,24,1,-,,5, , ,4,3,C,,,,,,, , ,,,,,,,,,,,,,,,,,1,1,,,/,F,34,,,,5.4,1000,100,85,5,5,3,10,,,,,,, ,
Z,4,24,2022,35,132954,41.6729,-70.9606,292,24,1,-,,5, , ,4,3,C,,,,,,, , ,,,,,,,,,,,,,,,,,1,1,,,/,F,35,,,,5.2,1000,100,85,5,5,3,10,,,,,,, ,
Z,4,24,2022,36,132959,41.6729,-70.9608,252,23,1,-,,5, , ,4,3,C,,,,,,, , ,,,,,,,,,,,,,,,,,1,1,,,/,F,36,,,,3.9,1000,100,85,5,5,3,10,,,,,,, ,
Z,4,24,2022,37,133003,41.6728,-70.9609,222,22,1,-,,5, , ,4,3,C,,,,,,, , ,,,,,,,,,,,,,,,,,1,1,,,/,F,37,,,,5.6,1000,100,85,5,5,3,10,,,,,,, ,
Z,4,24,2022,38,133007,41.6728,-70.961,218,21,1,-,,5, , ,4,3,C,,,,,,, , ,,,,,,,,,,,,,,,,,1,1,,,/,F,38,,,,7.1,1000,100,85,5,5,3,10,,,,,,, ,
Z,4,24,2022,39,133015,41.6725,-70.9612,218,21,1,-,,5, , ,4,3,C,,,,,,, , ,,,,,,,,,,,,,,,,,1,1,,,/,F,39,,,,9,1000,100,85,5,5,3,10,,,,,,, ,
Z,4,24,2022,40,133019,41.6724,-70.9614,217,21,1,-,,5, , ,4,3,C,,,,,,, , ,,,,,,,,,,,,,,,,,1,1,,,/,F,40,,,,10.5,1000,100,85,5,5,3,10,,,,,,, ,
Z,4,24,2022,41,133023,41.6722,-70.9616,218,21,1,-,,5, , ,4,3,C,,,,,,, , ,,,,,,,,,,,,,,,,,1,1,,,/,F,41,,,,11.8,1000,100,85,5,5,3,10,,,,,,, ,
Z,4,24,2022,42,133027,41.672,-70.9617,219,21,1,-,,5, , ,4,3,C,,,,,,, , ,,,,,,,,,,,,,,,,,1,1,,,/,F,42,,,,13.5,1000,100,85,5,5,3,10,,,,,,, ,
Z,4,24,2022,43,133035,41.6716,-70.9622,218,20,1,-,,5, , ,4,3,C,,,,,,, , ,,,,,,,,,,,,,,,,,1,1,,,/,F,43,,,,13.6,1000,100,85,5,5,3,10,,,,,,, ,
Z,4,24,2022,44,133040,41.6714,-70.9624,220,20,1,-,,5, , ,4,3,C,,,,,,, , ,,,,,,,,,,,,,,,,,1,1,,,/,F,44,,,,12.8,1000,100,85,5,5,3,10,,,,,,, ,
Z,4,24,2022,45,133044,41.6713,-70.9626,247,20,1,-,,5, , ,4,3,C,,,,,,, , ,,,,,,,,,,,,,,,,,1,1,,,/,F,45,,,,11.1,1000,100,85,5,5,3,10,,,,,,, ,
Z,4,24,2022,46,133048,41.6712,-70.9629,249,20,1,-,,5, , ,4,3,C,,,,,,, , ,,,,,,,,,,,,,,,,,1,1,,,/,F,46,,,,12,1000,100,85,5,5,3,10,,,,,,, ,
Z,4,24,2022,47,133052,41.6711,-70.9632,249,20,1,-,,5, , ,4,3,C,,,,,,, , ,,,,,,,,,,,,,,,,,1,1,,,/,F,47,,,,12.7,1000,100,85,5,5,3,10,,,,,,, ,
Z,4,24,2022,48,133100,41.671,-70.9637,241,19,1,-,,5, , ,4,3,C,,,,,,, , ,,,,,,,,,,,,,,,,,1,1,,,/,F,48,,,,9,1000,100,85,5,5,3,10,,,,,,, ,
Z,4,24,2022,49,133104,41.6709,-70.9639,254,19,1,-,,5, , ,4,3,C,,,,,,, , ,,,,,,,,,,,,,,,,,1,1,,,/,F,49,,,,5.5,1000,100,85,5,5,3,10,,,,,,, ,
Z,4,24,2022,50,133108,41.6709,-70.964,267,19,1,-,,5, , ,4,3,C,,,,,,, , ,,,,,,,,,,,,,,,,,1,1,,,/,F,50,,,,3.9,1000,100,85,5,5,3,10,,,,,,, ,
Z,4,24,2022,51,133112,41.6709,-70.9641,312,20,1,-,,5, , ,4,3,C,,,,,,, , ,,,,,,,,,,,,,,,,,1,1,,,/,F,51,,,,1.7,1000,100,85,5,5,3,10,,,,,,, ,
Z,4,24,2022,52,133121,41.6709,-70.9641,311,21,1,-,,5, , ,4,3,C,,,,,,, , ,,,,,,,,,,,,,,,,,1,1,,,/,F,52,,,,0,1000,100,85,5,5,3,9,,,,,,, ,
Z,4,24,2022,53,133125,41.6709,-70.9641,289,22,1,-,,5, , ,4,3,C,,,,,,, , ,,,,,,,,,,,,,,,,,1,1,,,/,F,53,,,,0.1,1000,100,85,5,5,3,10,,,,,,, ,
Z,4,24,2022,54,133129,41.6709,-70.9641,250,22,1,-,,5, , ,4,3,C,,,,,,, , ,,,,,,,,,,,,,,,,,1,1,,,/,F,54,,,,0.2,1000,100,85,5,5,3,10,,,,,,, ,
Z,4,24,2022,55,133133,41.6709,-70.9641,262,22,1,-,,5, , ,4,3,C,,,,,,, , ,,,,,,,,,,,,,,,,,1,1,,,/,F,55,,,,0.2,1000,100,85,5,5,3,9,,,,,,, ,
Z,4,24,2022,56,133137,41.6709,-70.9641,258,21,1,-,,5, , ,4,3,C,,,,,,, , ,,,,,,,,,,,,,,,,,1,1,,,/,F,56,,,,0.2,1000,100,85,5,5,3,9,,,,,,, ,
Z,4,24,2022,57,133145,41.6709,-70.9641,295,21,1,-,,5, , ,4,3,C,,,,,,, , ,,,,,,,,,,,,,,,,,1,1,,,/,F,57,,,,0,1000,100,85,5,5,3,9,,,,,,, ,
Z,4,24,2022,58,133149,41.6709,-70.9641,286,22,1,-,,5, , ,4,3,C,,,,,,, , ,,,,,,,,,,,,,,,,,1,1,,,/,F,58,,,,0.1,1000,100,85,5,5,3,9,,,,,,, ,
Z,4,24,2022,59,133153,41.6709,-70.9641,273,21,1,-,,5, , ,4,3,C,,,,,,, , ,,,,,,,,,,,,,,,,,1,1,,,/,F,59,,,,0.1,1000,100,85,5,5,3,9,,,,,,, ,
Z,4,24,2022,60,133157,41.6709,-70.9641,265,21,1,-,,5, , ,4,3,C,,,,,,, , ,,,,,,,,,,,,,,,,,1,1,,,/,F,60,,,,0,1000,100,85,5,5,3,9,,,,,,, ,
Z,4,24,2022,61,133206,41.6709,-70.9641,247,22,1,-,,5, , ,4,3,C,,,,,,, , ,,,,,,,,,,,,,,,,,1,1,,,/,F,61,,,,0.2,1000,100,85,5,5,3,9,,,,,,, ,
Z,4,24,2022,62,133210,41.6709,-70.9641,259,22,1,-,,5, , ,4,3,C,,,,,,, , ,,,,,,,,,,,,,,,,,1,1,,,/,F,62,,,,0.3,1000,100,85,5,5,3,9,,,,,,, ,
Z,4,24,2022,63,133214,41.6709,-70.9641,247,22,1,-,,5, , ,4,3,C,,,,,,, , ,,,,,,,,,,,,,,,,,1,1,,,/,F,63,,,,0,1000,100,85,5,5,3,9,,,,,,, ,
Z,4,24,2022,64,133218,41.6709,-70.9641,255,21,1,-,,5, , ,4,3,C,,,,,,, , ,,,,,,,,,,,,,,,,,1,1,,,/,F,64,,,,0,1000,100,85,5,5,3,9,,,,,,, ,
Z,4,24,2022,65,133222,41.6709,-70.9641,250,21,1,-,,5, , ,4,3,C,,,,,,, , ,,,,,,,,,,,,,,,,,1,1,,,/,F,65,,,,0,1000,100,85,5,5,3,9,,,,,,, ,
Z,4,24,2022,66,133230,41.6709,-70.9641,251,21,1,-,,5, , ,4,3,C,,,,,,, , ,,,,,,,,,,,,,,,,,1,1,,,/,F,66,,,,0.2,1000,100,85,5,5,3,9,,,,,,, ,
Z,4,24,2022,67,133234,41.6709,-70.9641,242,21,1,-,,5, , ,4,3,C,,,,,,, , ,,,,,,,,,,,,,,,,,1,1,,,/,F,67,,,,0.2,1000,100,85,5,5,3,10,,,,,,, ,
Z,4,24,2022,68,133238,41.6709,-70.9641,245,21,1,-,,5, , ,4,3,C,,,,,,, , ,,,,,,,,,,,,,,,,,1,1,,,/,F,68,,,,0,1000,100,85,5,5,3,10,,,,,,, ,
Z,4,24,2022,69,133243,41.6709,-70.9641,233,21,1,-,,5, , ,4,3,C,,,,,,, , ,,,,,,,,,,,,,,,,,1,1,,,/,F,69,,,,0,1000,100,85,5,5,3,10,,,,,,, ,
Z,4,24,2022,70,133251,41.6709,-70.9641,238,21,1,-,,5, , ,4,3,C,,,,,,, , ,,,,,,,,,,,,,,,,,1,1,,,/,F,70,,,,0.2,1000,100,85,5,5,3,10,,,,,,, ,
Z,4,24,2022,71,133255,41.6709,-70.9641,239,21,1,-,,5, , ,4,3,C,,,,,,, , ,,,,,,,,,,,,,,,,,1,1,,,/,F,71,,,,0.3,1000,100,85,5,5,3,10,,,,,,, ,
Z,4,24,2022,72,133259,41.6709,-70.9641,232,21,1,-,,5, , ,4,3,C,,,,,,, , ,,,,,,,,,,,,,,,,,1,1,,,/,F,72,,,,0.1,1000,100,85,5,5,3,10,,,,,,, ,
Z,4,24,2022,73,133303,41.6709,-70.9641,259,21,1,-,,5, , ,4,3,C,,,,,,, , ,,,,,,,,,,,,,,,,,1,1,,,/,F,73,,,,0.2,1000,100,85,5,5,3,10,,,,,,, ,
Z,4,24,2022,74,133307,41.6709,-70.9641,270,21,1,-,,5, , ,4,3,C,,,,,,, , ,,,,,,,,,,,,,,,,,1,1,,,/,F,74,,,,0.1,1000,100,85,5,5,3,10,,,,,,, ,
Z,4,24,2022,75,133315,41.6709,-70.9641,270,20,1,-,,5, , ,4,3,C,,,,,,, , ,,,,,,,,,,,,,,,,,1,1,,,/,F,75,,,,0.2,1000,100,85,5,5,3,10,,,,,,, ,
Z,4,24,2022,76,133319,41.6709,-70.9641,246,19,1,-,,5, , ,4,3,C,,,,,,, , ,,,,,,,,,,,,,,,,,1,1,,,/,F,76,,,,0.1,1000,100,85,5,5,3,10,,,,,,, ,
Z,4,24,2022,77,133324,41.6709,-70.9641,228,19,1,-,,5, , ,4,3,C,,,,,,, , ,,,,,,,,,,,,,,,,,1,1,,,/,F,77,,,,0,1000,100,85,5,5,3,10,,,,,,, ,
Z,4,24,2022,78,133328,41.6709,-70.9641,216,19,1,-,,5, , ,4,3,C,,,,,,, , ,,,,,,,,,,,,,,,,,1,1,,,/,F,78,,,,0,1000,100,85,5,5,3,10,,,,,,, ,
Z,4,24,2022,79,133336,41.6709,-70.9641,244,20,1,-,,5, , ,4,3,C,,,,,,, , ,,,,,,,,,,,,,,,,,1,1,,,/,F,79,,,,0.1,1000,100,85,5,5,3,10,,,,,,, ,
Z,4,24,2022,80,133340,41.6709,-70.9641,247,20,1,-,,5, , ,4,3,C,,,,,,, , ,,,,,,,,,,,,,,,,,1,1,,,/,F,80,,,,0.1,1000,100,85,5,5,3,10,,,,,,, ,
Z,4,24,2022,81,133344,41.6709,-70.9641,250,20,1,-,,5, , ,4,3,C,,,,,,, , ,,,,,,,,,,,,,,,,,1,1,,,/,F,81,,,,0,1000,100,85,5,5,3,10,,,,,,, ,
Z,4,24,2022,82,133348,41.6709,-70.9641,243,20,1,-,,5, , ,4,3,C,,,,,,, , ,,,,,,,,,,,,,,,,,1,1,,,/,F,82,,,,0.1,1000,100,85,5,5,3,10,,,,,,, ,
Z,4,24,2022,83,133352,41.6709,-70.9641,270,20,1,-,,5, , ,4,3,C,,,,,,, , ,,,,,,,,,,,,,,,,,1,1,,,/,F,83,,,,0.1,1000,100,85,5,5,3,10,,,,,,, ,
Z,4,24,2022,84,133401,41.6709,-70.9641,252,20,1,-,,5, , ,4,3,C,,,,,,, , ,,,,,,,,,,,,,,,,,1,1,,,/,F,84,,,,0.1,1000,100,85,5,5,3,10,,,,,,, ,
Z,4,24,2022,85,133405,41.6709,-70.9641,270,20,1,-,,5, , ,4,3,C,,,,,,, , ,,,,,,,,,,,,,,,,,1,1,,,/,F,85,,,,0,1000,100,85,5,5,3,10,,,,,,, ,
Z,4,24,2022,86,133409,41.6709,-70.9641,278,21,1,-,,5, , ,4,3,C,,,,,,, , ,,,,,,,,,,,,,,,,,1,1,,,/,F,86,,,,0,1000,100,85,5,5,3,10,,,,,,, ,
Z,4,24,2022,87,133413,41.6709,-70.9641,276,22,1,-,,5, , ,4,3,C,,,,,,, , ,,,,,,,,,,,,,,,,,1,1,,,/,F,87,,,,0.1,1000,100,85,5,5,3,10,,,,,,, ,
Z,4,24,2022,88,133421,41.6709,-70.9641,283,22,1,-,,5, , ,4,3,C,,,,,,, , ,,,,,,,,,,,,,,,,,1,1,,,/,F,88,,,,0.1,1000,100,85,5,5,3,10,,,,,,, ,
Z,4,24,2022,89,133425,41.6709,-70.9641,256,22,1,-,,5, , ,4,3,C,,,,,,, , ,,,,,,,,,,,,,,,,,1,1,,,/,F,89,,,,0,1000,100,85,5,5,3,10,,,,,,, ,
Z,4,24,2022,90,133429,41.6709,-70.9641,255,21,1,-,,5, , ,4,3,C,,,,,,, , ,,,,,,,,,,,,,,,,,1,1,,,/,F,90,,,,0.1,1000,100,85,5,5,3,10,,,,,,, ,
Z,4,24,2022,91,133433,41.6709,-70.9641,245,21,1,-,,5, , ,4,3,C,,,,,,, , ,,,,,,,,,,,,,,,,,1,1,,,/,F,91,,,,0.2,1000,100,85,5,5,3,10,,,,,,, ,
Z,4,24,2022,92,133437,41.6709,-70.9641,238,21,1,-,,5, , ,4,3,C,,,,,,, , ,,,,,,,,,,,,,,,,,1,1,,,/,F,92,,,,0,1000,100,85,5,5,3,10,,,,,,, ,
Z,4,24,2022,93,133446,41.6709,-70.9641,264,22,1,-,,5, , ,4,3,C,,,,,,, , ,,,,,,,,,,,,,,,,,1,1,,,/,F,93,,,,0,1000,100,85,5,5,3,9,,,,,,, ,
Z,4,24,2022,94,133450,41.6709,-70.9641,237,22,1,-,,5, , ,4,3,C,,,,,,, , ,,,,,,,,,,,,,,,,,1,1,,,/,F,94,,,,0,1000,100,85,5,5,3,9,,,,,,, ,
Z,4,24,2022,95,133454,41.6709,-70.9641,248,22,1,-,,5, , ,4,3,C,,,,,,, , ,,,,,,,,,,,,,,,,,1,1,,,/,F,95,,,,0.1,1000,100,85,5,5,3,9,,,,,,, ,
Z,4,24,2022,96,133458,41.6709,-70.9641,251,22,1,-,,5, , ,4,3,C,,,,,,, , ,,,,,,,,,,,,,,,,,1,1,,,/,F,96,,,,0.1,1000,100,85,5,5,3,9,,,,,,, ,
Z,4,24,2022,97,133506,41.6709,-70.9641,253,22,1,-,,5, , ,4,3,C,,,,,,, , ,,,,,,,,,,,,,,,,,1,1,,,/,F,97,,,,0.1,1000,100,85,5,5,3,9,,,,,,, ,
Z,4,24,2022,98,133510,41.6709,-70.9641,251,21,1,-,,5, , ,4,3,C,,,,,,, , ,,,,,,,,,,,,,,,,,1,1,,,/,F,98,,,,0,1000,100,85,5,5,3,9,,,,,,, ,
Z,4,24,2022,99,133514,41.6709,-70.9641,264,20,1,-,,5, , ,4,3,C,,,,,,, , ,,,,,,,,,,,,,,,,,1,1,,,/,F,99,,,,0.4,1000,100,85,5,5,3,9,,,,,,, ,
Z,4,24,2022,100,133518,41.6709,-70.9641,264,20,1,-,,5, , ,4,3,C,,,,,,, , ,,,,,,,,,,,,,,,,,1,1,,,/,F,100,,,,0,1000,100,85,5,5,3,9,,,,,,, ,
Z,4,24,2022,101,133523,41.6709,-70.9641,228,20,1,-,,5, , ,4,3,C,,,,,,, , ,,,,,,,,,,,,,,,,,1,1,,,/,F,101,,,,0.1,1000,100,85,5,5,3,9,,,,,,, ,
Z,4,24,2022,102,133531,41.6709,-70.9641,216,22,1,-,,5, , ,4,3,C,,,,,,, , ,,,,,,,,,,,,,,,,,1,1,,,/,F,102,,,,0,1000,100,85,5,5,3,9,,,,,,, ,
Z,4,24,2022,103,133535,41.6709,-70.9641,212,22,1,-,,5, , ,4,3,C,,,,,,, , ,,,,,,,,,,,,,,,,,1,1,,,/,F,103,,,,0.1,1000,100,85,5,5,3,9,,,,,,, ,
Z,4,24,2022,104,133539,41.6709,-70.9641,221,22,1,-,,5, , ,4,3,C,,,,,,, , ,,,,,,,,,,,,,,,,,1,1,,,/,F,104,,,,0,1000,100,85,5,5,3,9,,,,,,, ,
Z,4,24,2022,105,133543,41.6709,-70.9641,219,22,1,-,,5, , ,4,3,C,,,,,,, , ,,,,,,,,,,,,,,,,,1,1,,,/,F,105,,,,0.1,1000,100,85,5,5,3,9,,,,,,, ,
Z,4,24,2022,106,133551,41.6709,-70.9641,203,21,1,-,,5, , ,4,3,C,,,,,,, , ,,,,,,,,,,,,,,,,,1,1,,,/,F,106,,,,0.2,1000,100,85,5,5,3,9,,,,,,, ,
Z,4,24,2022,107,133555,41.6709,-70.9641,191,20,1,-,,5, , ,4,3,C,,,,,,, , ,,,,,,,,,,,,,,,,,1,1,,,/,F,107,,,,0.1,1000,100,85,5,5,3,9,,,,,,, ,
Z,4,24,2022,108,133559,41.6709,-70.9641,209,20,1,-,,5, , ,4,3,C,,,,,,, , ,,,,,,,,,,,,,,,,,1,1,,,/,F,108,,,,0,1000,100,85,5,5,3,9,,,,,,, ,
Z,4,24,2022,109,133604,41.6709,-70.9641,214,20,1,-,,5, , ,4,3,C,,,,,,, , ,,,,,,,,,,,,,,,,,1,1,,,/,F,109,,,,0,1000,100,85,5,5,3,9,,,,,,, ,
Z,4,24,2022,110,133608,41.6709,-70.9641,214,20,1,-,,5, , ,4,3,C,,,,,,, , ,,,,,,,,,,,,,,,,,1,1,,,/,F,110,,,,0.1,1000,100,85,5,5,3,9,,,,,,, ,
Z,4,24,2022,111,133616,41.6709,-70.9641,247,21,1,-,,5, , ,4,3,C,,,,,,, , ,,,,,,,,,,,,,,,,,1,1,,,/,F,111,,,,0,1000,100,85,5,5,3,9,,,,,,, ,
Z,4,24,2022,112,133620,41.6709,-70.9641,234,21,1,-,,5, , ,4,3,C,,,,,,, , ,,,,,,,,,,,,,,,,,1,1,,,/,F,112,,,,0.1,1000,100,85,5,5,3,9,,,,,,, ,
Z,4,24,2022,113,133624,41.6709,-70.9641,249,21,1,-,,5, , ,4,3,C,,,,,,, , ,,,,,,,,,,,,,,,,,1,1,,,/,F,113,,,,0.2,1000,100,85,5,5,3,9,,,,,,, ,
Z,4,24,2022,114,133628,41.6709,-70.9641,268,21,1,-,,5, , ,4,3,C,,,,,,, , ,,,,,,,,,,,,,,,,,1,1,,,/,F,114,,,,0.1,1000,100,85,5,5,3,9,,,,,,, ,
Z,4,24,2022,115,133636,41.6709,-70.9641,250,21,1,-,,5, , ,4,3,C,,,,,,, , ,,,,,,,,,,,,,,,,,1,1,,,/,F,115,,,,0,1000,100,85,5,5,3,9,,,,,,, ,
Z,4,24,2022,116,133640,41.6709,-70.9641,250,21,1,-,,5, , ,4,3,C,,,,,,, , ,,,,,,,,,,,,,,,,,1,1,,,/,F,116,,,,0,1000,100,85,5,5,3,9,,,,,,, ,
Z,4,24,2022,117,133645,41.6709,-70.9641,253,21,1,-,,5, , ,4,3,C,,,,,,, , ,,,,,,,,,,,,,,,,,1,1,,,/,F,117,,,,0,1000,100,85,5,5,3,9,,,,,,, ,
Z,4,24,2022,118,133649,41.6709,-70.9641,268,21,1,-,,5, , ,4,3,C,,,,,,, , ,,,,,,,,,,,,,,,,,1,1,,,/,F,118,,,,0,1000,100,85,5,5,3,9,,,,,,, ,
Z,4,24,2022,119,133653,41.6709,-70.9641,255,21,1,-,,5, , ,4,3,C,,,,,,, , ,,,,,,,,,,,,,,,,,1,1,,,/,F,119,,,,0.1,1000,100,85,5,5,3,9,,,,,,, ,
Z,4,24,2022,120,133701,41.6709,-70.9641,257,21,1,-,,5, , ,4,3,C,,,,,,, , ,,,,,,,,,,,,,,,,,1,1,,,/,F,120,,,,0,1000,100,85,5,5,3,9,,,,,,, ,
Z,4,24,2022,121,133705,41.6709,-70.9641,249,21,1,-,,5, , ,4,3,C,,,,,,, , ,,,,,,,,,,,,,,,,,1,1,,,/,F,121,,,,0,1000,100,85,5,5,3,9,,,,,,, ,
Z,4,24,2022,122,133709,41.6709,-70.9641,264,20,1,-,,5, , ,4,3,C,,,,,,, , ,,,,,,,,,,,,,,,,,1,1,,,/,F,122,,,,0.1,1000,100,85,5,5,3,9,,,,,,, ,
Z,4,24,2022,123,133713,41.6709,-70.9641,267,20,1,-,,5, , ,4,3,C,,,,,,, , ,,,,,,,,,,,,,,,,,1,1,,,/,F,123,,,,0.1,1000,100,85,5,5,3,9,,,,,,, ,
Z,4,24,2022,124,133721,41.6709,-70.9641,274,20,1,-,,5, , ,4,3,C,,,,,,, , ,,,,,,,,,,,,,,,,,1,1,,,/,F,124,,,,0.5,1000,100,85,5,5,3,9,,,,,,, ,
Z,4,24,2022,125,133726,41.6709,-70.9641,303,20,1,-,,5, , ,4,3,C,,,,,,, , ,,,,,,,,,,,,,,,,,1,1,,,/,F,125,,,,3,1000,100,85,5,5,3,9,,,,,,, ,
Z,4,24,2022,126,133730,41.671,-70.9642,295,20,1,-,,5, , ,4,3,C,,,,,,, , ,,,,,,,,,,,,,,,,,1,1,,,/,F,126,,,,5.6,1000,100,85,5,5,3,9,,,,,,, ,
Z,4,24,2022,127,133734,41.671,-70.9644,303,22,1,-,,5, , ,4,3,C,,,,,,, , ,,,,,,,,,,,,,,,,,1,1,,,/,F,127,,,,8.5,1000,100,85,5,5,3,9,,,,,,, ,
Z,4,24,2022,128,133738,41.6711,-70.9646,304,22,1,-,,5, , ,4,3,C,,,,,,, , ,,,,,,,,,,,,,,,,,1,1,,,/,F,128,,,,9.7,1000,100,85,5,5,3,9,,,,,,, ,
Z,4,24,2022,129,133746,41.6714,-70.9648,5,22,1,-,,5, , ,4,3,C,,,,,,, , ,,,,,,,,,,,,,,,,,1,1,,,/,F,129,,,,8.1,1000,100,85,5,5,3,9,,,,,,, ,
Z,4,24,2022,130,133750,41.6715,-70.9647,42,22,1,-,,5, , ,4,3,C,,,,,,, , ,,,,,,,,,,,,,,,,,1,1,,,/,F,130,,,,8.5,1000,100,85,5,5,3,9,,,,,,, ,
Z,4,24,2022,131,133754,41.6717,-70.9645,38,21,1,-,,5, , ,4,3,C,,,,,,, , ,,,,,,,,,,,,,,,,,1,1,,,/,F,131,,,,15.3,1000,100,85,5,5,3,9,,,,,,, ,
Z,4,24,2022,132,133758,41.672,-70.9642,37,21,1,-,,5, , ,4,3,C,,,,,,, , ,,,,,,,,,,,,,,,,,1,1,,,/,F,132,,,,29.1,1000,100,85,5,5,3,9,,,,,,, ,
Z,4,24,2022,133,133807,41.6735,-70.9626,38,20,1,-,,5, , ,4,3,C,,,,,,, , ,,,,,,,,,,,,,,,,,1,1,,,/,F,133,,,,61.7,1000,100,85,5,5,3,9,,,,,,, ,
Z,4,24,2022,134,133811,41.6745,-70.9615,38,20,1,-,,5, , ,4,3,C,,,,,,, , ,,,,,,,,,,,,,,,,,1,1,,,/,F,134,,,,74.4,1000,100,85,5,5,3,9,,,,,,, ,
Z,4,24,2022,135,133815,41.6757,-70.9603,38,21,1,-,,5, , ,4,3,C,,,,,,, , ,,,,,,,,,,,,,,,,,1,1,,,/,F,135,,,,84.3,1000,100,85,5,5,3,9,,,,,,, ,
Z,4,24,2022,136,133819,41.677,-70.959,38,25,1,-,,5, , ,4,3,C,,,,,,, , ,,,,,,,,,,,,,,,,,1,1,,,/,F,136,,,,90.7,1000,100,85,5,5,3,9,,,,,,, ,
Z,4,24,2022,137,133823,41.6783,-70.9575,39,38,1,-,,5, , ,4,3,C,,,,,,, , ,,,,,,,,,,,,,,,,,1,1,,,/,F,137,,,,93.5,1000,100,85,5,5,3,9,,,,,,, ,
Z,4,24,2022,138,133831,41.6811,-70.9545,38,75,1,-,,5, , ,4,3,C,,,,,,, , ,,,,,,,,,,,,,,,,,1,1,,,/,F,138,,,,93.3,1000,100,85,5,5,3,8,,,,,,, ,
Z,4,24,2022,139,133835,41.6825,-70.9531,38,95,1,-,,5, , ,4,3,C,,,,,,, , ,,,,,,,,,,,,,,,,,1,1,,,/,F,139,,,,93,1000,100,85,5,5,3,9,,,,,,, ,
Z,4,24,2022,140,133839,41.6839,-70.9516,38,110,1,-,,5, , ,4,3,C,,,,,,, , ,,,,,,,,,,,,,,,,,1,1,,,/,F,140,,,,95.6,1000,100,85,5,5,3,9,,,,,,, ,
Z,4,24,2022,141,133844,41.6853,-70.9501,37,112,1,-,,5, , ,4,3,C,,,,,,, , ,,,,,,,,,,,,,,,,,1,1,,,/,F,141,,,,101,1000,100,85,5,5,3,9,,,,,,, ,
Z,4,24,2022,142,133852,41.6884,-70.947,38,142,1,-,,5, , ,4,3,C,,,,,,, , ,,,,,,,,,,,,,,,,,1,1,,,/,F,142,,,,103.6,1000,100,85,5,5,3,9,,,,,,, ,
Z,4,24,2022,143,133856,41.6901,-70.9452,36,172,1,-,,5, , ,4,3,C,,,,,,, , ,,,,,,,,,,,,,,,,,1,1,,,/,F,143,,,,102.8,1000,100,85,5,5,3,9,,,,,,, ,
Z,4,24,2022,144,133900,41.6916,-70.9437,37,199,1,-,,5, , ,4,3,C,,,,,,, , ,,,,,,,,,,,,,,,,,1,1,,,/,F,144,,,,101.4,1000,100,85,5,5,3,9,,,,,,, ,
Z,4,24,2022,145,133904,41.693,-70.9419,48,229,1,-,,5, , ,4,3,C,,,,,,, , ,,,,,,,,,,,,,,,,,1,1,,,/,F,145,,,,97.3,1000,100,85,5,5,3,9,,,,,,, ,
Z,4,24,2022,146,133908,41.694,-70.9399,64,248,1,-,,5, , ,4,3,C,,,,,,, , ,,,,,,,,,,,,,,,,,1,1,,,/,F,146,,,,97.1,1000,100,85,5,5,3,9,,,,,,, ,
Z,4,24,2022,147,133916,41.6943,-70.9349,100,269,1,-,,5, , ,4,3,C,,,,,,, , ,,,,,,,,,,,,,,,,,1,1,,,/,F,147,,,,105.6,1000,100,85,5,5,3,9,,,,,,, ,
Z,4,24,2022,148,133920,41.6938,-70.9323,112,269,1,-,,5, , ,4,3,C,,,,,,, , ,,,,,,,,,,,,,,,,,1,1,,,/,F,148,,,,111.1,1000,100,85,5,5,3,9,,,,,,, ,
Z,4,24,2022,149,133925,41.6928,-70.9296,118,272,1,-,,5, , ,4,3,C,,,,,,, , ,,,,,,,,,,,,,,,,,1,1,,,/,F,149,,,,115.8,1000,100,85,5,5,3,9,,,,,,, ,
Z,4,24,2022,150,133929,41.6918,-70.9277,124,278,1,-,,5, , ,4,3,C,,,,,,, , ,,,,,,,,,,,,,,,,,1,1,,,/,F,150,,,,117.8,1000,100,85,5,5,3,9,,,,,,, ,
Z,4,24,2022,151,133937,41.6884,-70.9228,141,297,1,-,,5, , ,4,3,C,,,,,,, , ,,,,,,,,,,,,,,,,,1,1,,,/,F,151,,,,122.5,1000,100,85,5,5,3,9,,,,,,, ,
Z,4,24,2022,152,133941,41.6863,-70.9211,154,310,1,-,,5, , ,4,3,C,,,,,,, , ,,,,,,,,,,,,,,,,,1,1,,,/,F,152,,,,124.8,1000,100,85,5,5,3,9,,,,,,, ,
Z,4,24,2022,153,133945,41.6841,-70.9201,166,314,1,-,,5, , ,4,3,C,,,,,,, , ,,,,,,,,,,,,,,,,,1,1,,,/,F,153,,,,128,1000,100,85,5,5,3,9,,,,,,, ,
Z,4,24,2022,154,133949,41.6818,-70.9196,172,321,1,-,,5, , ,4,3,C,,,,,,, , ,,,,,,,,,,,,,,,,,1,1,,,/,F,154,,,,129.5,1000,100,85,5,5,3,9,,,,,,, ,
Z,4,24,2022,155,133953,41.6794,-70.9192,173,318,1,-,,5, , ,4,3,C,,,,,,, , ,,,,,,,,,,,,,,,,,1,1,,,/,F,155,,,,132.8,1000,100,85,5,5,3,9,,,,,,, ,
Z,4,24,2022,156,134001,41.6742,-70.9183,169,293,1,-,,5, , ,4,3,C,,,,,,, , ,,,,,,,,,,,,,,,,,1,1,,,/,F,156,,,,138.1,1000,100,85,5,5,3,9,,,,,,, ,
Z,4,24,2022,157,134006,41.6717,-70.9176,166,288,1,-,,5, , ,4,3,C,,,,,,, , ,,,,,,,,,,,,,,,,,1,1,,,/,F,157,,,,140.4,1000,100,85,5,5,3,9,,,,,,, ,
Z,4,24,2022,158,134010,41.669,-70.9166,162,285,1,-,,5, , ,4,3,C,,,,,,, , ,,,,,,,,,,,,,,,,,1,1,,,/,F,158,,,,141,1000,100,85,5,5,3,9,,,,,,, ,
Z,4,24,2022,159,134014,41.6665,-70.9155,159,289,1,-,,5, , ,4,3,C,,,,,,, , ,,,,,,,,,,,,,,,,,1,1,,,/,F,159,,,,141.7,1000,100,85,5,5,3,9,,,,,,, ,
Z,4,24,2022,160,134022,41.6615,-70.9129,157,293,1,-,,5, , ,4,3,C,,,,,,, , ,,,,,,,,,,,,,,,,,1,1,,,/,F,160,,,,139.3,1000,100,85,5,5,3,9,,,,,,, ,
Z,4,24,2022,161,134026,41.6596,-70.9119,157,291,1,-,,5, , ,4,3,C,,,,,,, , ,,,,,,,,,,,,,,,,,1,1,,,/,F,161,,,,138.1,1000,100,85,5,5,3,9,,,,,,, ,
Z,4,24,2022,162,134030,41.6567,-70.9102,156,287,1,-,,5, , ,4,3,C,,,,,,, , ,,,,,,,,,,,,,,,,,1,1,,,/,F,162,,,,137.1,1000,100,85,5,5,3,9,,,,,,, ,
Z,4,24,2022,163,134034,41.6544,-70.9089,156,293,1,-,,5, , ,4,3,C,,,,,,, , ,,,,,,,,,,,,,,,,,1,1,,,/,F,163,,,,133.5,1000,100,85,5,5,3,9,,,,,,, ,
Z,4,24,2022,164,134038,41.652,-70.9075,157,298,1,-,,5, , ,4,3,C,,,,,,, , ,,,,,,,,,,,,,,,,,1,1,,,/,F,164,,,,131.1,1000,100,85,5,5,3,9,,,,,,, ,
Z,4,24,2022,165,134047,41.6474,-70.905,157,310,1,-,,5, , ,4,3,C,,,,,,, , ,,,,,,,,,,,,,,,,,1,1,,,/,F,165,,,,127.2,1000,100,85,5,5,3,9,,,,,,, ,
Z,4,24,2022,166,134051,41.6452,-70.9038,154,311,1,-,,5, , ,4,3,C,,,,,,, , ,,,,,,,,,,,,,,,,,1,1,,,/,F,166,,,,126.6,1000,100,85,5,5,3,9,,,,,,, ,
Z,4,24,2022,167,134055,41.6432,-70.9024,152,309,1,-,,5, , ,4,3,C,,,,,,, , ,,,,,,,,,,,,,,,,,1,1,,,/,F,167,,,,125.2,1000,100,85,5,5,3,9,,,,,,, ,
Z,4,24,2022,168,134059,41.641,-70.9008,149,307,1,-,,5, , ,4,3,C,,,,,,, , ,,,,,,,,,,,,,,,,,1,1,,,/,F,168,,,,123.2,1000,100,85,5,5,3,9,,,,,,, ,
Z,4,24,2022,169,134107,41.6371,-70.8974,145,307,1,-,,5, , ,4,3,C,,,,,,, , ,,,,,,,,,,,,,,,,,1,1,,,/,F,169,,,,122.3,1000,100,85,5,5,3,9,,,,,,, ,
Z,4,24,2022,170,134111,41.6354,-70.8957,141,304,1,-,,5, , ,4,3,C,,,,,,, , ,,,,,,,,,,,,,,,,,1,1,,,/,F,170,,,,121.8,1000,100,85,5,5,3,9,,,,,,, ,
Z,4,24,2022,171,134115,41.6334,-70.8936,138,302,1,-,,5, , ,4,3,C,,,,,,, , ,,,,,,,,,,,,,,,,,1,1,,,/,F,171,,,,121.6,1000,100,85,5,5,3,9,,,,,,, ,
Z,4,24,2022,172,134119,41.6317,-70.8916,138,304,1,-,,5, , ,4,3,C,,,,,,, , ,,,,,,,,,,,,,,,,,1,1,,,/,F,172,,,,121,1000,100,85,5,5,3,9,,,,,,, ,
Z,4,24,2022,173,134123,41.63,-70.8895,139,310,1,-,,5, , ,4,3,C,,,,,,, , ,,,,,,,,,,,,,,,,,1,1,,,/,F,173,,,,119.3,1000,100,85,5,5,3,9,,,,,,, ,
Z,4,24,2022,174,134132,41.6267,-70.8858,139,313,1,-,,5, , ,4,3,C,,,,,,, , ,,,,,,,,,,,,,,,,,1,1,,,/,F,174,,,,117.7,1000,100,85,5,5,3,9,,,,,,, ,
Z,4,24,2022,175,134136,41.6249,-70.8837,138,302,1,-,,5, , ,4,3,C,,,,,,, , ,,,,,,,,,,,,,,,,,1,1,,,/,F,175,,,,120.3,1000,100,85,5,5,3,9,,,,,,, ,
Z,4,24,2022,176,134140,41.6233,-70.8818,138,292,1,-,,5, , ,4,3,C,,,,,,, , ,,,,,,,,,,,,,,,,,1,1,,,/,F,176,,,,121.9,1000,100,85,5,5,3,9,,,,,,, ,
Z,4,24,2022,177,134144,41.6215,-70.8796,137,286,1,-,,5, , ,4,3,C,,,,,,, , ,,,,,,,,,,,,,,,,,1,1,,,/,F,177,,,,121.9,1000,100,85,5,5,3,9,,,,,,, ,
Z,4,24,2022,178,134152,41.6181,-70.8754,135,276,1,-,,5, , ,4,3,C,,,,,,, , ,,,,,,,,,,,,,,,,,1,1,,,/,F,178,,,,121.8,1000,100,85,5,5,3,9,,,,,,, ,
Z,4,24,2022,179,134156,41.6165,-70.8733,135,280,1,-,,5, , ,4,3,C,,,,,,, , ,,,,,,,,,,,,,,,,,1,1,,,/,F,179,,,,119.9,1000,100,85,5,5,3,9,,,,,,, ,
Z,4,24,2022,180,134200,41.6148,-70.8711,135,280,1,-,,5, , ,4,3,C,,,,,,, , ,,,,,,,,,,,,,,,,,1,1,,,/,F,180,,,,120.2,1000,100,85,5,5,3,9,,,,,,, ,
Z,4,24,2022,181,134204,41.6133,-70.869,135,283,1,-,,5, , ,4,3,C,,,,,,, , ,,,,,,,,,,,,,,,,,1,1,,,/,F,181,,,,118.8,1000,100,85,5,5,3,9,,,,,,, ,
Z,4,24,2022,182,134209,41.6116,-70.8668,135,284,1,-,,5, , ,4,3,C,,,,,,, , ,,,,,,,,,,,,,,,,,1,1,,,/,F,182,,,,118.4,1000,100,85,5,5,3,9,,,,,,, ,
Z,4,24,2022,183,134217,41.6088,-70.8633,135,281,1,-,,5, , ,4,3,C,,,,,,, , ,,,,,,,,,,,,,,,,,1,1,,,/,F,183,,,,118.4,1000,100,85,5,5,3,9,,,,,,, ,
Z,4,24,2022,184,134221,41.6068,-70.8606,135,279,1,-,,5, , ,4,3,C,,,,,,, , ,,,,,,,,,,,,,,,,,1,1,,,/,F,184,,,,120.4,1000,100,85,5,5,3,9,,,,,,, ,
Z,4,24,2022,185,134225,41.6057,-70.8591,135,280,1,-,,5, , ,4,3,C,,,,,,, , ,,,,,,,,,,,,,,,,,1,1,,,/,F,185,,,,120.9,1000,100,85,5,5,3,9,,,,,,, ,
Z,4,24,2022,186,134229,41.6035,-70.8562,135,286,1,-,,5, , ,4,3,C,,,,,,, , ,,,,,,,,,,,,,,,,,1,1,,,/,F,186,,,,120.5,1000,100,85,5,5,3,9,,,,,,, ,
Z,4,24,2022,187,134237,41.6002,-70.8519,135,295,1,-,,5, , ,4,3,C,,,,,,, , ,,,,,,,,,,,,,,,,,1,1,,,/,F,187,,,,120.3,1000,100,85,5,5,3,9,,,,,,, ,
Z,4,24,2022,188,134241,41.5986,-70.8498,135,299,1,-,,5, , ,4,3,C,,,,,,, , ,,,,,,,,,,,,,,,,,1,1,,,/,F,188,,,,119.9,1000,100,85,5,5,3,9,,,,,,, ,
Z,4,24,2022,189,134245,41.5971,-70.8479,136,302,1,-,,5, , ,4,3,C,,,,,,, , ,,,,,,,,,,,,,,,,,1,1,,,/,F,189,,,,119.6,1000,100,85,5,5,3,9,,,,,,, ,
Z,4,24,2022,190,134250,41.5953,-70.8456,135,304,1,-,,5, , ,4,3,C,,,,,,, , ,,,,,,,,,,,,,,,,,1,1,,,/,F,190,,,,119.4,1000,100,85,5,5,3,9,,,,,,, ,
Z,4,24,2022,191,134254,41.5938,-70.8435,134,303,1,-,,5, , ,4,3,C,,,,,,, , ,,,,,,,,,,,,,,,,,1,1,,,/,F,191,,,,119.8,1000,100,85,5,5,3,9,,,,,,, ,
Z,4,24,2022,192,134302,41.5907,-70.8394,134,305,1,-,,5, , ,4,3,C,,,,,,, , ,,,,,,,,,,,,,,,,,1,1,,,/,F,192,,,,121,1000,100,85,5,5,3,9,,,,,,, ,
Z,4,24,2022,193,134306,41.5889,-70.8369,134,310,1,-,,5, , ,4,3,C,,,,,,, , ,,,,,,,,,,,,,,,,,1,1,,,/,F,193,,,,121,1000,100,85,5,5,3,9,,,,,,, ,
Z,4,24,2022,194,134310,41.5873,-70.8347,134,310,1,-,,5, , ,4,3,C,,,,,,, , ,,,,,,,,,,,,,,,,,1,1,,,/,F,194,,,,121.5,1000,100,85,5,5,3,8,,,,,,, ,
Z,4,24,2022,195,134314,41.5858,-70.8325,133,309,1,-,,5, , ,4,3,C,,,,,,, , ,,,,,,,,,,,,,,,,,1,1,,,/,F,195,,,,122.6,1000,100,85,5,5,3,9,,,,,,, ,
Z,4,24,2022,196,134322,41.5826,-70.8281,133,306,1,-,,5, , ,4,3,C,,,,,,, , ,,,,,,,,,,,,,,,,,1,1,,,/,F,196,,,,123.8,1000,100,85,5,5,3,9,,,,,,, ,
Z,4,24,2022,197,134326,41.5809,-70.8257,133,307,1,-,,5, , ,4,3,C,,,,,,, , ,,,,,,,,,,,,,,,,,1,1,,,/,F,197,,,,123.8,1000,100,85,5,5,3,9,,,,,,, ,
Z,4,24,2022,198,134331,41.5793,-70.8236,134,308,1,-,,5, , ,4,3,C,,,,,,, , ,,,,,,,,,,,,,,,,,1,1,,,/,F,198,,,,123.9,1000,100,85,5,5,3,9,,,,,,, ,
Z,4,24,2022,199,134335,41.5776,-70.8212,134,308,1,-,,5, , ,4,3,C,,,,,,, , ,,,,,,,,,,,,,,,,,1,1,,,/,F,199,,,,123.9,1000,100,85,5,5,3,10,,,,,,, ,
Z,4,24,2022,200,134339,41.5761,-70.8192,135,309,1,-,,5, , ,4,3,C,,,,,,, , ,,,,,,,,,,,,,,,,,1,1,,,/,F,200,,,,123.6,1000,100,85,5,5,3,9,,,,,,, ,
Z,4,24,2022,201,134347,41.5727,-70.8146,135,310,1,-,,5, , ,4,3,C,,,,,,, , ,,,,,,,,,,,,,,,,,1,1,,,/,F,201,,,,123.9,1000,100,85,5,5,3,9,,,,,,, ,
Z,4,24,2022,202,134351,41.5709,-70.8123,135,308,1,-,,5, , ,4,3,C,,,,,,, , ,,,,,,,,,,,,,,,,,1,1,,,/,F,202,,,,124.7,1000,100,85,5,5,3,9,,,,,,, ,
Z,4,24,2022,203,134355,41.5693,-70.8102,134,307,1,-,,5, , ,4,3,C,,,,,,, , ,,,,,,,,,,,,,,,,,1,1,,,/,F,203,,,,125.1,1000,100,85,5,5,3,9,,,,,,, ,
Z,4,24,2022,204,134359,41.5676,-70.8078,133,308,1,-,,5, , ,4,3,C,,,,,,, , ,,,,,,,,,,,,,,,,,1,1,,,/,F,204,,,,125.5,1000,100,85,5,5,3,10,,,,,,, ,
Z,4,24,2022,205,134407,41.5645,-70.8035,133,311,1,-,,5, , ,4,3,C,,,,,,, , ,,,,,,,,,,,,,,,,,1,1,,,/,F,205,,,,125.8,1000,100,85,5,5,3,10,,,,,,, ,
Z,4,24,2022,206,134412,41.5626,-70.801,134,312,1,-,,5, , ,4,3,C,,,,,,, , ,,,,,,,,,,,,,,,,,1,1,,,/,F,206,,,,125.9,1000,100,85,5,5,3,9,,,,,,, ,
Z,4,24,2022,207,134416,41.5612,-70.799,133,312,1,-,,5, , ,4,3,C,,,,,,, , ,,,,,,,,,,,,,,,,,1,1,,,/,F,207,,,,126,1000,100,85,5,5,3,9,,,,,,, ,
Z,4,24,2022,208,134420,41.5593,-70.7964,134,315,1,-,,5, , ,4,3,C,,,,,,, , ,,,,,,,,,,,,,,,,,1,1,,,/,F,208,,,,125.3,1000,100,85,5,5,3,9,,,,,,, ,
Z,4,24,2022,209,134424,41.5577,-70.7942,134,318,1,-,,5, , ,4,3,C,,,,,,, , ,,,,,,,,,,,,,,,,,1,1,,,/,F,209,,,,124.7,1000,100,85,5,5,3,9,,,,,,, ,
Z,4,24,2022,210,134432,41.5543,-70.7897,134,321,1,-,,5, , ,4,3,C,,,,,,, , ,,,,,,,,,,,,,,,,,1,1,,,/,F,210,,,,125.2,1000,100,85,5,5,3,9,,,,,,, ,
Z,4,24,2022,211,134436,41.5527,-70.7875,134,316,1,-,,5, , ,4,3,C,,,,,,, , ,,,,,,,,,,,,,,,,,1,1,,,/,F,211,,,,126.9,1000,100,85,5,5,3,9,,,,,,, ,
Z,4,24,2022,212,134440,41.5509,-70.785,134,310,1,-,,5, , ,4,3,C,,,,,,, , ,,,,,,,,,,,,,,,,,1,1,,,/,F,212,,,,128.8,1000,100,85,5,5,3,10,,,,,,, ,
Z,4,24,2022,213,134444,41.5495,-70.783,133,304,1,-,,5, , ,4,3,C,,,,,,, , ,,,,,,,,,,,,,,,,,1,1,,,/,F,213,,,,130.1,1000,100,85,5,5,3,9,,,,,,, ,
Z,4,24,2022,214,134453,41.5458,-70.7779,134,299,1,-,,5, , ,4,3,C,,,,,,, , ,,,,,,,,,,,,,,,,,1,1,,,/,F,214,,,,131.2,1000,100,85,5,5,3,10,,,,,,, ,
Z,4,24,2022,215,134457,41.5441,-70.7756,134,299,1,-,,5, , ,4,3,C,,,,,,, , ,,,,,,,,,,,,,,,,,1,1,,,/,F,215,,,,131.4,1000,100,85,5,5,3,10,,,,,,, ,
Z,4,24,2022,216,134501,41.5424,-70.7733,135,298,1,-,,5, , ,4,3,C,,,,,,, , ,,,,,,,,,,,,,,,,,1,1,,,/,F,216,,,,131.6,1000,100,85,5,5,3,10,,,,,,, ,
Z,4,24,2022,217,134505,41.5405,-70.7709,134,295,1,-,,5, , ,4,3,C,,,,,,, , ,,,,,,,,,,,,,,,,,1,1,,,/,F,217,,,,131.7,1000,100,85,5,5,3,9,,,,,,, ,
Z,4,24,2022,218,134509,41.5388,-70.7686,134,293,1,-,,5, , ,4,3,C,,,,,,, , ,,,,,,,,,,,,,,,,,1,1,,,/,F,218,,,,131.9,1000,100,85,5,5,3,10,,,,,,, ,
Z,4,24,2022,219,134517,41.5354,-70.7637,133,297,1,-,,5, , ,4,3,C,,,,,,, , ,,,,,,,,,,,,,,,,,1,1,,,/,F,219,,,,130.3,1000,100,85,5,5,3,9,,,,,,, ,
Z,4,24,2022,220,134521,41.5337,-70.7614,132,301,1,-,,5, , ,4,3,C,,,,,,, , ,,,,,,,,,,,,,,,,,1,1,,,/,F,220,,,,128.3,1000,100,85,5,5,3,9,,,,,,, ,
Z,4,24,2022,221,134525,41.532,-70.7589,132,303,1,-,,5, , ,4,3,C,,,,,,, , ,,,,,,,,,,,,,,,,,1,1,,,/,F,221,,,,127.8,1000,100,85,5,5,3,9,,,,,,, ,
Z,4,24,2022,222,134529,41.5305,-70.7568,133,304,1,-,,5, , ,4,3,C,,,,,,, , ,,,,,,,,,,,,,,,,,1,1,,,/,F,222,,,,128,1000,100,85,5,5,3,9,,,,,,, ,
Z,4,24,2022,223,134538,41.5271,-70.7519,132,303,1,-,,5, , ,4,3,C,,,,,,, , ,,,,,,,,,,,,,,,,,1,1,,,/,F,223,,,,128,1000,100,85,5,5,3,9,,,,,,, ,
Z,4,24,2022,224,134542,41.5254,-70.7494,132,301,1,-,,5, , ,4,3,C,,,,,,, , ,,,,,,,,,,,,,,,,,1,1,,,/,F,224,,,,128.8,1000,100,85,5,5,3,9,,,,,,, ,
Z,4,24,2022,225,134546,41.5237,-70.747,132,299,1,-,,5, , ,4,3,C,,,,,,, , ,,,,,,,,,,,,,,,,,1,1,,,/,F,225,,,,129.6,1000,100,85,5,5,3,10,,,,,,, ,
Z,4,24,2022,226,134550,41.522,-70.7445,132,299,1,-,,5, , ,4,3,C,,,,,,, , ,,,,,,,,,,,,,,,,,1,1,,,/,F,226,,,,129.8,1000,100,85,5,5,3,10,,,,,,, ,
Z,4,24,2022,227,134554,41.5204,-70.7422,132,300,1,-,,5, , ,4,3,C,,,,,,, , ,,,,,,,,,,,,,,,,,1,1,,,/,F,227,,,,129.6,1000,100,85,5,5,3,10,,,,,,, ,
Z,4,24,2022,228,134602,41.517,-70.7373,133,297,1,-,,5, , ,4,3,C,,,,,,, , ,,,,,,,,,,,,,,,,,1,1,,,/,F,228,,,,130.4,1000,100,85,5,5,3,10,,,,,,, ,
Z,4,24,2022,229,134606,41.5153,-70.735,133,295,1,-,,5, , ,4,3,C,,,,,,, , ,,,,,,,,,,,,,,,,,1,1,,,/,F,229,,,,131.2,1000,100,85,5,5,3,10,,,,,,, ,
Z,4,24,2022,230,134610,41.5135,-70.7325,134,296,1,-,,5, , ,4,3,C,,,,,,, , ,,,,,,,,,,,,,,,,,1,1,,,/,F,230,,,,131.7,1000,100,85,5,5,3,10,,,,,,, ,
Z,4,24,2022,231,134615,41.5118,-70.7302,133,299,1,-,,5, , ,4,3,C,,,,,,, , ,,,,,,,,,,,,,,,,,1,1,,,/,F,231,,,,131.8,1000,100,85,5,5,3,10,,,,,,, ,
Z,4,24,2022,232,134623,41.5084,-70.7253,133,300,1,-,,5, , ,4,3,C,,,,,,, , ,,,,,,,,,,,,,,,,,1,1,,,/,F,232,,,,131.6,1000,100,85,5,5,3,10,,,,,,, ,
Z,4,24,2022,233,134627,41.5067,-70.723,131,302,1,-,,5, , ,4,3,C,,,,,,, , ,,,,,,,,,,,,,,,,,1,1,,,/,F,233,,,,130.5,1000,100,85,5,5,3,10,,,,,,, ,
Z,4,24,2022,234,134631,41.5051,-70.7206,131,307,1,-,,5, , ,4,3,C,,,,,,, , ,,,,,,,,,,,,,,,,,1,1,,,/,F,234,,,,129.1,1000,100,85,5,5,3,10,,,,,,, ,
Z,4,24,2022,235,134635,41.5035,-70.7182,132,308,1,-,,5, , ,4,3,C,,,,,,, , ,,,,,,,,,,,,,,,,,1,1,,,/,F,235,,,,128.9,1000,100,85,5,5,3,10,,,,,,, ,
Z,4,24,2022,236,134639,41.5018,-70.7157,131,304,1,-,,5, , ,4,3,C,,,,,,, , ,,,,,,,,,,,,,,,,,1,1,,,/,F,236,,,,130.2,1000,100,85,5,5,3,10,,,,,,, ,
Z,4,24,2022,237,134647,41.4984,-70.7106,132,303,1,-,,5, , ,4,3,C,,,,,,, , ,,,,,,,,,,,,,,,,,1,1,,,/,F,237,,,,133.9,1000,100,85,5,5,3,10,,,,,,, ,
Z,4,24,2022,238,134651,41.4968,-70.7084,133,315,1,-,,5, , ,4,3,C,,,,,,, , ,,,,,,,,,,,,,,,,,1,1,,,/,F,238,,,,131.4,1000,100,85,5,5,3,9,,,,,,, ,
Z,4,24,2022,239,134656,41.495,-70.7058,133,321,1,-,,5, , ,4,3,C,,,,,,, , ,,,,,,,,,,,,,,,,,1,1,,,/,F,239,,,,130.9,1000,100,85,5,5,3,8,,,,,,, ,
Z,4,24,2022,240,134700,41.4933,-70.7035,134,317,1,-,,5, , ,4,3,C,,,,,,, , ,,,,,,,,,,,,,,,,,1,1,,,/,F,240,,,,131.5,1000,100,85,5,5,3,9,,,,,,, ,
Z,4,24,2022,241,134708,41.4897,-70.6988,135,314,1,-,,5, , ,4,3,C,,,,,,, , ,,,,,,,,,,,,,,,,,1,1,,,/,F,241,,,,130.8,1000,100,85,5,5,3,10,,,,,,, ,
Z,4,24,2022,242,134712,41.4882,-70.6968,134,314,1,-,,5, , ,4,3,C,,,,,,, , ,,,,,,,,,,,,,,,,,1,1,,,/,F,242,,,,130.1,1000,100,85,5,5,3,10,,,,,,, ,
Z,4,24,2022,243,134716,41.4862,-70.694,133,309,1,-,,5, , ,4,3,C,,,,,,, , ,,,,,,,,,,,,,,,,,1,1,,,/,F,243,,,,130.3,1000,100,85,5,5,3,9,,,,,,, ,
Z,4,24,2022,244,134720,41.4846,-70.6917,131,303,1,-,,5, , ,4,3,C,,,,,,, , ,,,,,,,,,,,,,,,,,1,1,,,/,F,244,,,,130.8,1000,100,85,5,5,3,9,,,,,,, ,
Z,4,24,2022,245,134724,41.4829,-70.6891,131,297,1,-,,5, , ,4,3,C,,,,,,, , ,,,,,,,,,,,,,,,,,1,1,,,/,F,245,,,,131.2,1000,100,85,5,5,3,9,,,,,,, ,
Z,4,24,2022,246,134733,41.4795,-70.6842,133,296,1,-,,5, , ,4,3,C,,,,,,, , ,,,,,,,,,,,,,,,,,1,1,,,/,F,246,,,,130.4,1000,100,85,5,5,3,9,,,,,,, ,
Z,4,24,2022,247,134737,41.4779,-70.6818,133,298,1,-,,5, , ,4,3,C,,,,,,, , ,,,,,,,,,,,,,,,,,1,1,,,/,F,247,,,,129.4,1000,100,85,5,5,3,9,,,,,,, ,
Z,4,24,2022,248,134741,41.4761,-70.6794,132,298,1,-,,5, , ,4,3,C,,,,,,, , ,,,,,,,,,,,,,,,,,1,1,,,/,F,248,,,,128.1,1000,100,85,5,5,3,10,,,,,,, ,
Z,4,24,2022,249,134745,41.4745,-70.6771,132,298,1,-,,5, , ,4,3,C,,,,,,, , ,,,,,,,,,,,,,,,,,1,1,,,/,F,249,,,,128.4,1000,100,85,5,5,3,9,,,,,,, ,
Z,4,24,2022,250,134753,41.4712,-70.6723,132,301,1,-,,5, , ,4,3,C,,,,,,, , ,,,,,,,,,,,,,,,,,1,1,,,/,F,250,,,,128.4,1000,100,85,5,5,3,10,,,,,,, ,
Z,4,24,2022,251,134757,41.4695,-70.6699,132,302,1,-,,5, , ,4,3,C,,,,,,, , ,,,,,,,,,,,,,,,,,1,1,,,/,F,251,,,,127.9,1000,100,85,5,5,3,9,,,,,,, ,
Z,4,24,2022,252,134801,41.4679,-70.6675,131,304,1,-,,5, , ,4,3,C,,,,,,, , ,,,,,,,,,,,,,,,,,1,1,,,/,F,252,,,,126.6,1000,100,85,5,5,3,10,,,,,,, ,
Z,4,24,2022,253,134805,41.4663,-70.6651,131,305,1,-,,5, , ,4,3,C,,,,,,, , ,,,,,,,,,,,,,,,,,1,1,,,/,F,253,,,,126.1,1000,100,85,5,5,3,10,,,,,,, ,
Z,4,24,2022,254,134809,41.4648,-70.6628,131,308,1,-,,5, , ,4,3,C,,,,,,, , ,,,,,,,,,,,,,,,,,1,1,,,/,F,254,,,,125.7,1000,100,85,5,5,3,10,,,,,,, ,
Z,4,24,2022,255,134818,41.4615,-70.6581,132,309,1,-,,5, , ,4,3,C,,,,,,, , ,,,,,,,,,,,,,,,,,1,1,,,/,F,255,,,,125.3,1000,100,85,5,5,3,9,,,,,,, ,
Z,4,24,2022,256,134822,41.46,-70.6558,132,307,1,-,,5, , ,4,3,C,,,,,,, , ,,,,,,,,,,,,,,,,,1,1,,,/,F,256,,,,125.8,1000,100,85,5,5,3,9,,,,,,, ,
Z,4,24,2022,257,134826,41.4583,-70.6534,132,303,1,-,,5, , ,4,3,C,,,,,,, , ,,,,,,,,,,,,,,,,,1,1,,,/,F,257,,,,126.3,1000,100,85,5,5,3,10,,,,,,, ,
Z,4,24,2022,258,134830,41.4567,-70.6511,132,300,1,-,,5, , ,4,3,C,,,,,,, , ,,,,,,,,,,,,,,,,,1,1,,,/,F,258,,,,126.5,1000,100,85,5,5,3,10,,,,,,, ,
Z,4,24,2022,259,134838,41.4534,-70.6463,133,307,1,-,,5, , ,4,3,C,,,,,,, , ,,,,,,,,,,,,,,,,,1,1,,,/,F,259,,,,126.6,1000,100,85,5,5,3,10,,,,,,, ,
Z,4,24,2022,260,134846,41.4501,-70.6417,133,305,1,-,,5, , ,4,3,C,,,,,,, , ,,,,,,,,,,,,,,,,,1,1,,,/,F,260,,,,128.1,1000,100,85,5,5,3,10,,,,,,, ,
Z,4,24,2022,261,134850,41.4485,-70.6393,131,301,1,-,,5, , ,4,3,C,,,,,,, , ,,,,,,,,,,,,,,,,,1,1,,,/,F,261,,,,129.4,1000,100,85,5,5,3,10,,,,,,, ,
Z,4,24,2022,262,134855,41.4468,-70.6368,132,302,1,-,,5, , ,4,3,C,,,,,,, , ,,,,,,,,,,,,,,,,,1,1,,,/,F,262,,,,128.4,1000,100,85,5,5,3,10,,,,,,, ,
Z,4,24,2022,263,134903,41.4434,-70.632,133,304,1,-,,5, , ,4,3,C,,,,,,, , ,,,,,,,,,,,,,,,,,1,1,,,/,F,263,,,,129.2,1000,100,85,5,5,3,9,,,,,,, ,
Z,4,24,2022,264,134907,41.4418,-70.6297,133,300,1,-,,5, , ,4,3,C,,,,,,, , ,,,,,,,,,,,,,,,,,1,1,,,/,F,264,,,,129.1,1000,100,85,5,5,3,10,,,,,,, ,
Z,4,24,2022,265,134911,41.44,-70.6273,133,296,1,-,,5, , ,4,3,C,,,,,,, , ,,,,,,,,,,,,,,,,,1,1,,,/,F,265,,,,129.4,1000,100,85,5,5,3,9,,,,,,, ,
Z,4,24,2022,266,134915,41.4384,-70.6249,132,294,1,-,,5, , ,4,3,C,,,,,,, , ,,,,,,,,,,,,,,,,,1,1,,,/,F,266,,,,129.4,1000,100,85,5,5,3,9,,,,,,, ,
Z,4,24,2022,267,134923,41.435,-70.6201,133,295,1,-,,5, , ,4,3,C,,,,,,, , ,,,,,,,,,,,,,,,,,1,1,,,/,F,267,,,,129.3,1000,100,85,5,5,3,10,,,,,,, ,
Z,4,24,2022,268,134927,41.4334,-70.6178,133,299,1,-,,5, , ,4,3,C,,,,,,, , ,,,,,,,,,,,,,,,,,1,1,,,/,F,268,,,,129.5,1000,100,85,5,5,3,10,,,,,,, ,
Z,4,24,2022,269,134931,41.4318,-70.6154,133,293,1,-,,5, , ,4,3,C,,,,,,, , ,,,,,,,,,,,,,,,,,1,1,,,/,F,269,,,,130.1,1000,100,85,5,5,3,10,,,,,,, ,
Z,4,24,2022,270,134936,41.43,-70.613,133,287,1,-,,5, , ,4,3,C,,,,,,, , ,,,,,,,,,,,,,,,,,1,1,,,/,F,270,,,,130.3,1000,100,85,5,5,3,9,,,,,,, ,
Z,4,24,2022,271,134940,41.4284,-70.6106,131,287,1,-,,5, , ,4,3,C,,,,,,, , ,,,,,,,,,,,,,,,,,1,1,,,/,F,271,,,,129.6,1000,100,85,5,5,3,9,,,,,,, ,
Z,4,24,2022,272,134948,41.4251,-70.6058,132,297,1,-,,5, , ,4,3,C,,,,,,, , ,,,,,,,,,,,,,,,,,1,1,,,/,F,272,,,,125.7,1000,100,85,5,5,3,10,,,,,,, ,
Z,4,24,2022,273,134952,41.4236,-70.6035,131,311,1,-,,5, , ,4,3,C,,,,,,, , ,,,,,,,,,,,,,,,,,1,1,,,/,F,273,,,,125.8,1000,100,85,5,5,3,9,,,,,,, ,
Z,4,24,2022,274,134956,41.4219,-70.601,132,308,1,-,,5, , ,4,3,C,,,,,,, , ,,,,,,,,,,,,,,,,,1,1,,,/,F,274,,,,125.2,1000,100,85,5,5,3,10,,,,,,, ,
Z,4,24,2022,275,135000,41.4203,-70.5988,133,309,1,-,,5, , ,4,3,C,,,,,,, , ,,,,,,,,,,,,,,,,,1,1,,,/,F,275,,,,125.5,1000,100,85,5,5,3,10,,,,,,, ,
Z,4,24,2022,276,135008,41.417,-70.5941,132,312,1,-,,5, , ,4,3,C,,,,,,, , ,,,,,,,,,,,,,,,,,1,1,,,/,F,276,,,,126.1,1000,100,85,5,5,3,10,,,,,,, ,
Z,4,24,2022,277,135012,41.4156,-70.5921,131,303,1,-,,5, , ,4,3,C,,,,,,, , ,,,,,,,,,,,,,,,,,1,1,,,/,F,277,,,,127.6,1000,100,85,5,5,3,10,,,,,,, ,
Z,4,24,2022,278,135017,41.4137,-70.5893,132,292,1,-,,5, , ,4,3,C,,,,,,, , ,,,,,,,,,,,,,,,,,1,1,,,/,F,278,,,,128.8,1000,100,85,5,5,3,10,,,,,,, ,
Z,4,24,2022,279,135021,41.4123,-70.5873,133,293,1,-,,5, , ,4,3,C,,,,,,, , ,,,,,,,,,,,,,,,,,1,1,,,/,F,279,,,,128.6,1000,100,85,5,5,3,9,,,,,,, ,
Z,4,24,2022,280,135025,41.4104,-70.5846,133,295,1,-,,5, , ,4,3,C,,,,,,, , ,,,,,,,,,,,,,,,,,1,1,,,/,F,280,,,,128,1000,100,85,5,5,3,10,,,,,,, ,
Z,4,24,2022,281,135033,41.407,-70.5798,132,291,1,-,,5, , ,4,3,C,,,,,,, , ,,,,,,,,,,,,,,,,,1,1,,,/,F,281,,,,128.8,1000,100,85,5,5,3,10,,,,,,, ,
Z,4,24,2022,282,135037,41.4054,-70.5775,132,291,1,-,,5, , ,4,3,C,,,,,,, , ,,,,,,,,,,,,,,,,,1,1,,,/,F,282,,,,128.9,1000,100,85,5,5,3,10,,,,,,, ,
Z,4,24,2022,283,135041,41.4037,-70.575,131,292,1,-,,5, , ,4,3,C,,,,,,, , ,,,,,,,,,,,,,,,,,1,1,,,/,F,283,,,,128.5,1000,100,85,5,5,3,10,,,,,,, ,
Z,4,24,2022,284,135045,41.4021,-70.5726,131,294,1,-,,5, , ,4,3,C,,,,,,, , ,,,,,,,,,,,,,,,,,1,1,,,/,F,284,,,,128.1,1000,100,85,5,5,3,10,,,,,,, ,
Z,4,24,2022,285,135053,41.3988,-70.5679,133,299,1,-,,5, , ,4,3,C,,,,,,, , ,,,,,,,,,,,,,,,,,1,1,,,/,F,285,,,,128,1000,100,85,5,5,3,10,,,,,,, ,
Z,4,24,2022,286,135058,41.3972,-70.5657,134,297,1,-,,5, , ,4,3,C,,,,,,, , ,,,,,,,,,,,,,,,,,1,1,,,/,F,286,,,,129.4,1000,100,85,5,5,3,10,,,,,,, ,
Z,4,24,2022,287,135102,41.3954,-70.5633,133,301,1,-,,5, , ,4,3,C,,,,,,, , ,,,,,,,,,,,,,,,,,1,1,,,/,F,287,,,,130,1000,100,85,5,5,3,10,,,,,,, ,
Z,4,24,2022,288,135106,41.3938,-70.561,133,302,1,-,,5, , ,4,3,C,,,,,,, , ,,,,,,,,,,,,,,,,,1,1,,,/,F,288,,,,129.4,1000,100,85,5,5,3,10,,,,,,, ,
Z,4,24,2022,289,135110,41.392,-70.5585,133,303,1,-,,5, , ,4,3,C,,,,,,, , ,,,,,,,,,,,,,,,,,1,1,,,/,F,289,,,,129.4,1000,100,85,5,5,3,10,,,,,,, ,
Z,4,24,2022,290,135118,41.3887,-70.5538,132,300,1,-,,5, , ,4,3,C,,,,,,, , ,,,,,,,,,,,,,,,,,1,1,,,/,F,290,,,,128.1,1000,100,85,5,5,3,10,,,,,,, ,
Z,4,24,2022,291,135122,41.3871,-70.5514,131,302,1,-,,5, , ,4,3,C,,,,,,, , ,,,,,,,,,,,,,,,,,1,1,,,/,F,291,,,,129,1000,100,85,5,5,3,10,,,,,,, ,
Z,4,24,2022,292,135126,41.3857,-70.5493,132,302,1,-,,5, , ,4,3,C,,,,,,, , ,,,,,,,,,,,,,,,,,1,1,,,/,F,292,,,,128.7,1000,100,85,5,5,3,10,,,,,,, ,
Z,4,24,2022,293,135130,41.3838,-70.5466,132,304,1,-,,5, , ,4,3,C,,,,,,, , ,,,,,,,,,,,,,,,,,1,1,,,/,F,293,,,,128.4,1000,100,85,5,5,3,9,,,,,,, ,
Z,4,24,2022,294,135139,41.3804,-70.5418,132,300,1,-,,5, , ,4,3,C,,,,,,, , ,,,,,,,,,,,,,,,,,1,1,,,/,F,294,,,,128.8,1000,100,85,5,5,3,10,,,,,,, ,
Z,4,24,2022,295,135143,41.3788,-70.5394,132,302,1,-,,5, , ,4,3,C,,,,,,, , ,,,,,,,,,,,,,,,,,1,1,,,/,F,295,,,,127.2,1000,100,85,5,5,3,10,,,,,,, ,
Z,4,24,2022,296,135147,41.3772,-70.537,131,304,1,-,,5, , ,4,3,C,,,,,,, , ,,,,,,,,,,,,,,,,,1,1,,,/,F,296,,,,127,1000,100,85,5,5,3,10,,,,,,, ,
Z,4,24,2022,297,135151,41.3756,-70.5347,132,297,1,-,,5, , ,4,3,C,,,,,,, , ,,,,,,,,,,,,,,,,,1,1,,,/,F,297,,,,128.9,1000,100,85,5,5,3,10,,,,,,, ,
Z,4,24,2022,298,135155,41.3738,-70.5322,132,290,1,-,,5, , ,4,3,C,,,,,,, , ,,,,,,,,,,,,,,,,,1,1,,,/,F,298,,,,129.4,1000,100,85,5,5,3,10,,,,,,, ,
Z,4,24,2022,299,135203,41.3705,-70.5273,133,290,1,-,,5, , ,4,3,C,,,,,,, , ,,,,,,,,,,,,,,,,,1,1,,,/,F,299,,,,128.9,1000,100,85,5,5,3,10,,,,,,, ,
Z,4,24,2022,300,135207,41.3689,-70.525,133,291,1,-,,5, , ,4,3,C,,,,,,, , ,,,,,,,,,,,,,,,,,1,1,,,/,F,300,,,,128.3,1000,100,85,5,5,3,10,,,,,,, ,
Z,4,24,2022,301,135211,41.3676,-70.5231,132,293,1,-,,5, , ,4,3,C,,,,,,, , ,,,,,,,,,,,,,,,,,1,1,,,/,F,301,,,,127.8,1000,100,85,5,5,3,10,,,,,,, ,
Z,4,24,2022,302,135216,41.3655,-70.5203,133,303,1,-,,5, , ,4,3,C,,,,,,, , ,,,,,,,,,,,,,,,,,1,1,,,/,F,302,,,,128.4,1000,100,85,5,5,3,8,,,,,,, ,
Z,4,24,2022,303,135224,41.3622,-70.5157,134,307,1,-,,5, , ,4,3,C,,,,,,, , ,,,,,,,,,,,,,,,,,1,1,,,/,F,303,,,,129.7,1000,100,85,5,5,3,8,,,,,,, ,
Z,4,24,2022,304,135228,41.3605,-70.5134,132,314,1,-,,5, , ,4,3,C,,,,,,, , ,,,,,,,,,,,,,,,,,1,1,,,/,F,304,,,,128,1000,100,85,5,5,3,9,,,,,,, ,
Z,4,24,2022,305,135232,41.3588,-70.511,132,316,1,-,,5, , ,4,3,C,,,,,,, , ,,,,,,,,,,,,,,,,,1,1,,,/,F,305,,,,128.6,1000,100,85,5,5,3,8,,,,,,, ,
Z,4,24,2022,306,135236,41.3572,-70.5086,132,313,1,-,,5, , ,4,3,C,,,,,,, , ,,,,,,,,,,,,,,,,,1,1,,,/,F,306,,,,128.6,1000,100,85,5,5,3,9,,,,,,, ,
Z,4,24,2022,307,135240,41.3555,-70.5061,132,306,1,-,,5, , ,4,3,C,,,,,,, , ,,,,,,,,,,,,,,,,,1,1,,,/,F,307,,,,130,1000,100,85,5,5,3,9,,,,,,, ,
Z,4,24,2022,308,135248,41.3522,-70.5012,130,306,1,-,,5, , ,4,3,C,,,,,,, , ,,,,,,,,,,,,,,,,,1,1,,,/,F,308,,,,130.5,1000,100,85,5,5,3,9,,,,,,, ,
Z,4,24,2022,309,135252,41.3506,-70.4988,131,306,1,-,,5, , ,4,3,C,,,,,,, , ,,,,,,,,,,,,,,,,,1,1,,,/,F,309,,,,129.8,1000,100,85,5,5,3,10,,,,,,, ,
Z,4,24,2022,310,135257,41.3491,-70.4963,129,304,1,-,,5, , ,4,3,C,,,,,,, , ,,,,,,,,,,,,,,,,,1,1,,,/,F,310,,,,129.5,1000,100,85,5,5,3,10,,,,,,, ,
Z,4,24,2022,311,135301,41.3474,-70.4938,130,303,1,-,,5, , ,4,3,C,,,,,,, , ,,,,,,,,,,,,,,,,,1,1,,,/,F,311,,,,129.3,1000,100,85,5,5,3,10,,,,,,, ,
Z,4,24,2022,312,135309,41.3441,-70.4889,133,306,1,-,,5, , ,4,3,C,,,,,,, , ,,,,,,,,,,,,,,,,,1,1,,,/,F,312,,,,128.7,1000,100,85,5,5,3,10,,,,,,, ,
Z,4,24,2022,313,135313,41.3425,-70.4866,133,303,1,-,,5, , ,4,3,C,,,,,,, , ,,,,,,,,,,,,,,,,,1,1,,,/,F,313,,,,129,1000,100,85,5,5,3,10,,,,,,, ,
Z,4,24,2022,314,135317,41.3407,-70.4841,131,300,1,-,,5, , ,4,3,C,,,,,,, , ,,,,,,,,,,,,,,,,,1,1,,,/,F,314,,,,130.2,1000,100,85,5,5,3,10,,,,,,, ,
Z,4,24,2022,315,135321,41.3392,-70.4817,131,302,1,-,,5, , ,4,3,C,,,,,,, , ,,,,,,,,,,,,,,,,,1,1,,,/,F,315,,,,129.2,1000,100,85,5,5,3,10,,,,,,, ,
Z,4,24,2022,316,135325,41.3376,-70.4794,132,303,1,-,,5, , ,4,3,C,,,,,,, , ,,,,,,,,,,,,,,,,,1,1,,,/,F,316,,,,129,1000,100,85,5,5,3,10,,,,,,, ,
Z,4,24,2022,317,135333,41.3343,-70.4745,131,300,1,-,,5, , ,4,3,C,,,,,,, , ,,,,,,,,,,,,,,,,,1,1,,,/,F,317,,,,128.8,1000,100,85,5,5,3,10,,,,,,, ,
Z,4,24,2022,318,135338,41.3326,-70.472,131,299,1,-,,5, , ,4,3,C,,,,,,, , ,,,,,,,,,,,,,,,,,1,1,,,/,F,318,,,,129.1,1000,100,85,5,5,3,10,,,,,,, ,
Z,4,24,2022,319,135342,41.3311,-70.4698,131,297,1,-,,5, , ,4,3,C,,,,,,, , ,,,,,,,,,,,,,,,,,1,1,,,/,F,319,,,,129.2,1000,100,85,5,5,3,10,,,,,,, ,
Z,4,24,2022,320,135346,41.3293,-70.4671,131,303,1,-,,5, , ,4,3,C,,,,,,, , ,,,,,,,,,,,,,,,,,1,1,,,/,F,320,,,,127.1,1000,100,85,5,5,3,10,,,,,,, ,
Z,4,24,2022,321,135354,41.3261,-70.4624,130,314,1,-,,5, , ,4,3,C,,,,,,, , ,,,,,,,,,,,,,,,,,1,1,,,/,F,321,,,,124.4,1000,100,85,5,5,3,10,,,,,,, ,
Z,4,24,2022,322,135358,41.3246,-70.46,130,311,1,-,,5, , ,4,3,C,,,,,,, , ,,,,,,,,,,,,,,,,,1,1,,,/,F,322,,,,125.1,1000,100,85,5,5,3,10,,,,,,, ,
Z,4,24,2022,323,135402,41.3231,-70.4577,131,310,1,-,,5, , ,4,3,C,,,,,,, , ,,,,,,,,,,,,,,,,,1,1,,,/,F,323,,,,125.9,1000,100,85,5,5,3,10,,,,,,, ,
Z,4,24,2022,324,135406,41.3216,-70.4554,131,312,1,-,,5, , ,4,3,C,,,,,,, , ,,,,,,,,,,,,,,,,,1,1,,,/,F,324,,,,125.8,1000,100,85,5,5,3,10,,,,,,, ,
Z,4,24,2022,325,135410,41.32,-70.453,130,312,1,-,,5, , ,4,3,C,,,,,,, , ,,,,,,,,,,,,,,,,,1,1,,,/,F,325,,,,126.1,1000,100,85,5,5,3,10,,,,,,, ,
Z,4,24,2022,326,135419,41.3171,-70.4484,130,310,1,-,,5, , ,4,3,C,,,,,,, , ,,,,,,,,,,,,,,,,,1,1,,,/,F,326,,,,127.9,1000,100,85,5,5,3,10,,,,,,, ,
Z,4,24,2022,327,135423,41.3153,-70.4456,129,311,1,-,,5, , ,4,3,C,,,,,,, , ,,,,,,,,,,,,,,,,,1,1,,,/,F,327,,,,127.3,1000,100,85,5,5,3,10,,,,,,, ,
Z,4,24,2022,328,135427,41.3138,-70.4432,127,314,1,-,,5, , ,4,3,C,,,,,,, , ,,,,,,,,,,,,,,,,,1,1,,,/,F,328,,,,126.5,1000,100,85,5,5,3,10,,,,,,, ,
Z,4,24,2022,329,135431,41.3124,-70.4404,117,315,1,-,,5, , ,4,3,C,,,,,,, , ,,,,,,,,,,,,,,,,,1,1,,,/,F,329,,,,124.4,1000,100,85,5,5,3,10,,,,,,, ,
Z,4,24,2022,330,135439,41.3111,-70.4345,96,308,1,-,,5, , ,4,3,C,,,,,,, , ,,,,,,,,,,,,,,,,,1,1,,,/,F,330,,,,122.9,1000,100,85,5,5,3,10,,,,,,, ,
Z,4,24,2022,331,135443,41.311,-70.4315,84,301,1,-,,5, , ,4,3,C,,,,,,, , ,,,,,,,,,,,,,,,,,1,1,,,/,F,331,,,,123.1,1000,100,85,5,5,3,10,,,,,,, ,
Z,4,24,2022,332,135447,41.3115,-70.4287,73,297,1,-,,5, , ,4,3,C,,,,,,, , ,,,,,,,,,,,,,,,,,1,1,,,/,F,332,,,,123.2,1000,100,85,5,5,3,10,,,,,,, ,
Z,4,24,2022,333,135451,41.3124,-70.4255,62,298,1,-,,5, , ,4,3,C,,,,,,, , ,,,,,,,,,,,,,,,,,1,1,,,/,F,333,,,,121.8,1000,100,85,5,5,3,10,,,,,,, ,
Z,4,24,2022,334,135455,41.3135,-70.4233,52,303,1,-,,5, , ,4,3,C,,,,,,, , ,,,,,,,,,,,,,,,,,1,1,,,/,F,334,,,,120.1,1000,100,85,5,5,3,10,,,,,,, ,
Z,4,24,2022,335,135504,41.3169,-70.4195,27,301,1,-,,5, , ,4,3,C,,,,,,, , ,,,,,,,,,,,,,,,,,1,1,,,/,F,335,,,,120.4,1000,100,85,5,5,3,10,,,,,,, ,
Z,4,24,2022,336,135508,41.3195,-70.4183,12,294,1,-,,5, , ,4,3,C,,,,,,, , ,,,,,,,,,,,,,,,,,1,1,,,/,F,336,,,,124.1,1000,100,85,5,5,3,10,,,,,,, ,
Z,4,24,2022,337,135512,41.3218,-70.4179,0,288,1,-,,5, , ,4,3,C,,,,,,, , ,,,,,,,,,,,,,,,,,1,1,,,/,F,337,,,,128.5,1000,100,85,5,5,3,10,,,,,,, ,
Z,4,24,2022,338,135516,41.3243,-70.4181,355,290,1,-,,5, , ,4,3,C,,,,,,, , ,,,,,,,,,,,,,,,,,1,1,,,/,F,338,,,,127.7,1000,100,85,5,5,3,10,,,,,,, ,
Z,4,24,2022,339,135524,41.3288,-70.42,319,306,1,-,,5, , ,4,3,C,,,,,,, , ,,,,,,,,,,,,,,,,,1,1,,,/,F,339,,,,129.5,1000,100,85,5,5,3,10,,,,,,, ,
Z,4,24,2022,340,135528,41.3302,-70.4226,293,313,1,-,,5, , ,4,3,C,,,,,,, , ,,,,,,,,,,,,,,,,,1,1,,,/,F,340,,,,132.3,1000,100,85,5,5,3,10,,,,,,, ,
Z,4,24,2022,341,135532,41.3306,-70.4256,269,312,1,-,,5, , ,4,3,C,,,,,,, , ,,,,,,,,,,,,,,,,,1,1,,,/,F,341,,,,137.5,1000,100,85,5,5,3,9,,,,,,, ,
Z,4,24,2022,342,135536,41.3298,-70.4292,237,309,1,-,,5, , ,4,3,C,,,,,,, , ,,,,,,,,,,,,,,,,,1,1,,,/,F,342,,,,140.3,1000,100,85,5,5,3,10,,,,,,, ,
Z,4,24,2022,343,135541,41.328,-70.4314,210,315,1,-,,5, , ,4,3,C,,,,,,, , ,,,,,,,,,,,,,,,,,1,1,,,/,F,343,,,,136.8,1000,100,85,5,5,3,10,,,,,,, ,
Z,4,24,2022,344,135549,41.3231,-70.4318,156,334,1,-,,5, , ,4,3,C,,,,,,, , ,,,,,,,,,,,,,,,,,1,1,,,/,F,344,,,,124.7,1000,100,85,5,5,3,10,,,,,,, ,
Z,4,24,2022,345,135553,41.3212,-70.4299,132,321,1,-,,5, , ,4,3,C,,,,,,, , ,,,,,,,,,,,,,,,,,1,1,,,/,F,345,,,,123.2,1000,100,85,5,5,3,10,,,,,,, ,
Z,4,24,2022,346,135557,41.32,-70.4274,113,320,1,-,,5, , ,4,3,C,,,,,,, , ,,,,,,,,,,,,,,,,,1,1,,,/,F,346,,,,120.6,1000,100,85,5,5,3,10,,,,,,, ,
Z,4,24,2022,347,135601,41.3195,-70.4243,89,314,1,-,,5, , ,4,3,C,,,,,,, , ,,,,,,,,,,,,,,,,,1,1,,,/,F,347,,,,118.9,1000,100,85,5,5,3,10,,,,,,, ,
Z,4,24,2022,348,135609,41.3209,-70.4191,52,296,1,-,,5, , ,4,3,C,,,,,,, , ,,,,,,,,,,,,,,,,,1,1,,,/,F,348,,,,120.7,1000,100,85,5,5,3,10,,,,,,, ,
Z,4,24,2022,349,135613,41.3229,-70.417,25,292,1,-,,5, , ,4,3,C,,,,,,, , ,,,,,,,,,,,,,,,,,1,1,,,/,F,349,,,,121.8,1000,100,85,5,5,3,10,,,,,,, ,
Z,4,24,2022,350,135617,41.3248,-70.4163,3,289,1,-,,5, , ,4,3,C,,,,,,, , ,,,,,,,,,,,,,,,,,1,1,,,/,F,350,,,,124.7,1000,100,85,5,5,3,10,,,,,,, ,
Z,4,24,2022,351,135622,41.3275,-70.4171,330,280,1,-,,5, , ,4,3,C,,,,,,, , ,,,,,,,,,,,,,,,,,1,1,,,/,F,351,,,,130.9,1000,100,85,5,5,3,10,,,,,,, ,
Z,4,24,2022,352,135626,41.3293,-70.4194,302,276,1,-,,5, , ,4,3,C,,,,,,, , ,,,,,,,,,,,,,,,,,1,1,,,/,F,352,,,,137.9,1000,100,85,5,5,3,10,,,,,,, ,
Z,4,24,2022,353,135634,41.3297,-70.4261,246,299,1,-,,5, , ,4,3,C,,,,,,, , ,,,,,,,,,,,,,,,,,1,1,,,/,F,353,,,,137.4,1000,100,85,5,5,3,10,,,,,,, ,
Z,4,24,2022,354,135638,41.328,-70.4289,216,292,1,-,,5, , ,4,3,C,,,,,,, , ,,,,,,,,,,,,,,,,,1,1,,,/,F,354,,,,138.6,1000,100,85,5,5,3,10,,,,,,, ,
Z,4,24,2022,355,135642,41.3257,-70.4301,186,277,1,-,,5, , ,4,3,C,,,,,,, , ,,,,,,,,,,,,,,,,,1,1,,,/,F,355,,,,138.4,1000,100,85,5,5,3,10,,,,,,, ,
Z,4,24,2022,356,135646,41.323,-70.4296,162,287,1,-,,5, , ,4,3,C,,,,,,, , ,,,,,,,,,,,,,,,,,1,1,,,/,F,356,,,,130.3,1000,100,85,5,5,3,10,,,,,,, ,
Z,4,24,2022,357,135654,41.3198,-70.4258,115,309,1,-,,5, , ,4,3,C,,,,,,, , ,,,,,,,,,,,,,,,,,1,1,,,/,F,357,,,,116.4,1000,100,85,5,5,3,10,,,,,,, ,
Z,4,24,2022,358,135658,41.3193,-70.4229,92,298,1,-,,5, , ,4,3,C,,,,,,, , ,,,,,,,,,,,,,,,,,1,1,,,/,F,358,,,,115.8,1000,100,85,5,5,3,10,,,,,,, ,
Z,4,24,2022,359,135703,41.3194,-70.4208,81,297,1,-,,5, , ,4,3,C,,,,,,, , ,,,,,,,,,,,,,,,,,1,1,,,/,F,359,,,,114.9,1000,100,85,5,5,3,10,,,,,,, ,
Z,4,24,2022,360,135707,41.3202,-70.4175,57,306,1,-,,5, , ,4,3,C,,,,,,, , ,,,,,,,,,,,,,,,,,1,1,,,/,F,360,,,,110.7,1000,100,85,5,5,3,10,,,,,,, ,
Z,4,24,2022,361,135711,41.3217,-70.4157,30,309,1,-,,5, , ,4,3,C,,,,,,, , ,,,,,,,,,,,,,,,,,1,1,,,/,F,361,,,,110.8,1000,100,85,5,5,3,9,,,,,,, ,
Z,4,24,2022,362,135719,41.3259,-70.4161,323,281,1,-,,5, , ,4,3,C,,,,,,, , ,,,,,,,,,,,,,,,,,1,1,,,/,F,362,,,,127.9,1000,100,85,5,5,3,10,,,,,,, ,
Z,4,24,2022,363,135723,41.3275,-70.4188,296,263,1,-,,5, , ,4,3,C,,,,,,, , ,,,,,,,,,,,,,,,,,1,1,,,/,F,363,,,,139,1000,100,85,5,5,3,10,,,,,,, ,
Z,4,24,2022,364,135727,41.3283,-70.4221,278,262,1,-,,5, , ,4,3,C,,,,,,, , ,,,,,,,,,,,,,,,,,1,1,,,/,F,364,,,,141.4,1000,100,85,5,5,3,10,,,,,,, ,
Z,4,24,2022,365,135731,41.3282,-70.4248,252,275,1,-,,5, , ,4,3,C,,,,,,, , ,,,,,,,,,,,,,,,,,1,1,,,/,F,365,,,,138.8,1000,100,85,5,5,3,10,,,,,,, ,
Z,4,24,2022,366,135739,41.3242,-70.4288,184,315,1,-,,5, , ,4,3,C,,,,,,, , ,,,,,,,,,,,,,,,,,1,1,,,/,F,366,,,,121,1000,100,85,5,5,3,10,,,,,,, ,
Z,4,24,2022,367,135744,41.3218,-70.4282,157,334,1,-,,5, , ,4,3,C,,,,,,, , ,,,,,,,,,,,,,,,,,1,1,,,/,F,367,,,,113.7,1000,100,85,5,5,3,10,,,,,,, ,
Z,4,24,2022,368,135748,41.3202,-70.4268,136,321,1,-,,5, , ,4,3,C,,,,,,, , ,,,,,,,,,,,,,,,,,1,1,,,/,F,368,,,,114.9,1000,100,85,5,5,3,10,,,,,,, ,
Z,4,24,2022,369,135752,41.319,-70.424,105,294,1,-,,5, , ,4,3,C,,,,,,, , ,,,,,,,,,,,,,,,,,1,1,,,/,F,369,,,,116.9,1000,100,85,5,5,3,10,,,,,,, ,
Z,4,24,2022,370,135756,41.3189,-70.4212,78,286,1,-,,5, , ,4,3,C,,,,,,, , ,,,,,,,,,,,,,,,,,1,1,,,/,F,370,,,,115.1,1000,100,85,5,5,3,10,,,,,,, ,
Z,4,24,2022,371,135804,41.3217,-70.4171,19,286,1,-,,5, , ,4,3,C,,,,,,, , ,,,,,,,,,,,,,,,,,1,1,,,/,F,371,,,,115.8,1000,100,85,5,5,3,10,,,,,,, ,
Z,4,24,2022,372,135808,41.3235,-70.4166,1,287,1,-,,5, , ,4,3,C,,,,,,, , ,,,,,,,,,,,,,,,,,1,1,,,/,F,372,,,,118.1,1000,100,85,5,5,3,10,,,,,,, ,
Z,4,24,2022,373,135812,41.3261,-70.4174,330,296,1,-,,5, , ,4,3,C,,,,,,, , ,,,,,,,,,,,,,,,,,1,1,,,/,F,373,,,,121.5,1000,100,85,5,5,3,10,,,,,,, ,
Z,4,24,2022,374,135816,41.3274,-70.4191,301,297,1,-,,5, , ,4,3,C,,,,,,, , ,,,,,,,,,,,,,,,,,1,1,,,/,F,374,,,,126.6,1000,100,85,5,5,3,10,,,,,,, ,
Z,4,24,2022,375,135825,41.327,-70.4257,228,273,1,-,,5, , ,4,3,C,,,,,,, , ,,,,,,,,,,,,,,,,,1,1,,,/,F,375,,,,139.4,1000,100,85,5,5,3,10,,,,,,, ,
Z,4,24,2022,376,135829,41.3244,-70.4276,189,286,1,-,,5, , ,4,3,C,,,,,,, , ,,,,,,,,,,,,,,,,,1,1,,,/,F,376,,,,128,1000,100,85,5,5,3,10,,,,,,, ,
Z,4,24,2022,377,135833,41.3221,-70.4273,160,296,1,-,,5, , ,4,3,C,,,,,,, , ,,,,,,,,,,,,,,,,,1,1,,,/,F,377,,,,121.6,1000,100,85,5,5,3,10,,,,,,, ,
Z,4,24,2022,378,135837,41.3204,-70.4256,125,293,1,-,,5, , ,4,3,C,,,,,,, , ,,,,,,,,,,,,,,,,,1,1,,,/,F,378,,,,116.2,1000,100,85,5,5,3,10,,,,,,, ,
Z,4,24,2022,379,135841,41.3199,-70.4228,86,277,1,-,,5, , ,4,3,C,,,,,,, , ,,,,,,,,,,,,,,,,,1,1,,,/,F,379,,,,112.8,1000,100,85,5,5,3,10,,,,,,, ,
Z,4,24,2022,380,135849,41.3224,-70.4188,18,285,1,-,,5, , ,4,3,C,,,,,,, , ,,,,,,,,,,,,,,,,,1,1,,,/,F,380,,,,109.4,1000,100,85,5,5,3,10,,,,,,, ,
Z,4,24,2022,381,135853,41.3244,-70.4186,354,292,1,-,,5, , ,4,3,C,,,,,,, , ,,,,,,,,,,,,,,,,,1,1,,,/,F,381,,,,111.4,1000,100,85,5,5,3,10,,,,,,, ,
Z,4,24,2022,382,135857,41.3266,-70.4195,327,290,1,-,,5, , ,4,3,C,,,,,,, , ,,,,,,,,,,,,,,,,,1,1,,,/,F,382,,,,118,1000,100,85,5,5,3,10,,,,,,, ,
Z,4,24,2022,383,135902,41.328,-70.4216,296,289,1,-,,5, , ,4,3,C,,,,,,, , ,,,,,,,,,,,,,,,,,1,1,,,/,F,383,,,,124.7,1000,100,85,5,5,3,10,,,,,,, ,
Z,4,24,2022,384,135910,41.3271,-70.4274,221,312,1,-,,5, , ,4,3,C,,,,,,, , ,,,,,,,,,,,,,,,,,1,1,,,/,F,384,,,,120.9,1000,100,85,5,5,3,10,,,,,,, ,
Z,4,24,2022,385,135914,41.3249,-70.4286,184,329,1,-,,5, , ,4,3,C,,,,,,, , ,,,,,,,,,,,,,,,,,1,1,,,/,F,385,,,,110.6,1000,100,85,5,5,3,10,,,,,,, ,
Z,4,24,2022,386,135918,41.3229,-70.4284,170,318,1,-,,5, , ,4,3,C,,,,,,, , ,,,,,,,,,,,,,,,,,1,1,,,/,F,386,,,,114.9,1000,100,85,5,5,3,10,,,,,,, ,
Z,4,24,2022,387,135922,41.3206,-70.4277,166,299,1,-,,5, , ,4,3,C,,,,,,, , ,,,,,,,,,,,,,,,,,1,1,,,/,F,387,,,,121,1000,100,85,5,5,3,10,,,,,,, ,
Z,4,24,2022,388,135926,41.3184,-70.427,164,298,1,-,,5, , ,4,3,C,,,,,,, , ,,,,,,,,,,,,,,,,,1,1,,,/,F,388,,,,121.8,1000,100,85,5,5,3,10,,,,,,, ,
Z,4,24,2022,389,135934,41.314,-70.425,159,313,1,-,,5, , ,4,3,C,,,,,,, , ,,,,,,,,,,,,,,,,,1,1,,,/,F,389,,,,119.7,1000,100,85,5,5,3,10,,,,,,, ,
Z,4,24,2022,390,135938,41.3122,-70.4241,156,315,1,-,,5, , ,4,3,C,,,,,,, , ,,,,,,,,,,,,,,,,,1,1,,,/,F,390,,,,120,1000,100,85,5,5,3,10,,,,,,, ,
Z,4,24,2022,391,135943,41.3098,-70.4225,150,304,1,-,,5, , ,4,3,C,,,,,,, , ,,,,,,,,,,,,,,,,,1,1,,,/,F,391,,,,123.1,1000,100,85,5,5,3,10,,,,,,, ,
Z,4,24,2022,392,135947,41.3079,-70.4209,146,300,1,-,,5, , ,4,3,C,,,,,,, , ,,,,,,,,,,,,,,,,,1,1,,,/,F,392,,,,124.3,1000,100,85,5,5,3,10,,,,,,, ,
Z,4,24,2022,393,135955,41.304,-70.4172,143,307,1,-,,5, , ,4,3,C,,,,,,, , ,,,,,,,,,,,,,,,,,1,1,,,/,F,393,,,,124.5,1000,100,85,5,5,3,10,,,,,,, ,
Z,4,24,2022,394,135959,41.302,-70.4153,143,311,1,-,,5, , ,4,3,C,,,,,,, , ,,,,,,,,,,,,,,,,,1,1,,,/,F,394,,,,124.9,1000,100,85,5,5,3,9,,,,,,, ,
Z,4,24,2022,395,140003,41.3001,-70.4135,143,315,1,-,,5, , ,4,3,C,,,,,,, , ,,,,,,,,,,,,,,,,,1,1,,,/,F,395,,,,124.7,1000,100,85,5,5,3,9,,,,,,, ,
Z,4,24,2022,396,140007,41.2983,-70.4116,142,319,1,-,,5, , ,4,3,C,,,,,,, , ,,,,,,,,,,,,,,,,,1,1,,,/,F,396,,,,123.8,1000,100,85,5,5,3,9,,,,,,, ,
Z,4,24,2022,397,140011,41.2964,-70.4096,140,325,1,-,,5, , ,4,3,C,,,,,,, , ,,,,,,,,,,,,,,,,,1,1,,,/,F,397,,,,122.5,1000,100,85,5,5,3,10,,,,,,, ,
Z,4,24,2022,398,140019,41.2931,-70.4056,135,336,1,-,,5, , ,4,3,C,,,,,,, , ,,,,,,,,,,,,,,,,,1,1,,,/,F,398,,,,119.6,1000,100,85,5,5,3,10,,,,,,, ,
Z,4,24,2022,399,140024,41.2915,-70.4035,133,336,1,-,,5, , ,4,3,C,,,,,,, , ,,,,,,,,,,,,,,,,,1,1,,,/,F,399,,,,119.7,1000,100,85,5,5,3,10,,,,,,, ,
Z,4,24,2022,400,140028,41.2899,-70.4013,132,334,1,-,,5, , ,4,3,C,,,,,,, , ,,,,,,,,,,,,,,,,,1,1,,,/,F,400,,,,120.4,1000,100,85,5,5,3,10,,,,,,, ,
Z,4,24,2022,401,140032,41.2884,-70.3991,132,330,1,-,,5, , ,4,3,C,,,,,,, , ,,,,,,,,,,,,,,,,,1,1,,,/,F,401,,,,121.7,1000,100,85,5,5,3,10,,,,,,, ,
Z,4,24,2022,402,140040,41.2854,-70.3945,130,318,1,-,,5, , ,4,3,C,,,,,,, , ,,,,,,,,,,,,,,,,,1,1,,,/,F,402,,,,125.1,1000,100,85,5,5,3,10,,,,,,, ,
X,4,24,2022,403,140044,41.2837,-70.3919,130,313,1,-,,5, , ,4,3,C,,,,,,, , ,,,,,,,,,,,,,,,,,1,1,,,/,F,403,,,,126.9,1000,100,85,5,5,3,10,,,,,,, ,
Z,4,24,2022,404,140044,41.2837,-70.3919,130,313,1,-,,5, , ,4,3,C,,,,,,, , ,,,,,,,,,,,,,,,,,1,1,,,/,F,404,,,,126.9,1000,100,85,5,5,3,10,,,,,,, ,
X,4,24,2022,405,140049,41.2818,-70.3889,129,309,1,-,,5, , ,4,3,C,,,,,,, , ,,,,,,,,,,,,,,,,,1,1,,,/,F,405,,,,127.1,1000,100,85,5,5,3,10,,,,,,, ,
X,4,24,2022,406,140054,41.2799,-70.3859,128,305,1,-,,5, , ,4,3,C,,,,,,, , ,,,,,,,,,,,,,,,,,1,1,,,/,F,406,,,,125.1,1000,100,85,5,5,3,10,,,,,,, ,
X,4,24,2022,407,140059,41.2783,-70.383,127,306,1,-,,5, , ,4,3,C,,,,,,, , ,,,,,,,,,,,,,,,,,1,1,,,/,F,407,,,,120.8,1000,100,85,5,5,3,10,,,,,,, ,
X,4,24,2022,408,140104,41.2766,-70.3802,129,317,1,-,,5, , ,4,3,C,,,,,,, , ,,,,,,,,,,,,,,,,,1,1,,,/,F,408,,,,114.3,1000,100,85,5,5,3,10,,,,,,, ,
X,4,24,2022,409,140109,41.2749,-70.3776,130,323,1,-,,5, , ,4,3,C,,,,,,, , ,,,,,,,,,,,,,,,,,1,1,,,/,F,409,,,,109.4,1000,100,85,5,5,3,10,,,,,,, ,
X,4,24,2022,410,140114,41.2732,-70.375,133,323,1,-,,5, , ,4,3,C,,,,,,, , ,,,,,,,,,,,,,,,,,1,1,,,/,F,410,,,,107,1000,100,85,5,5,3,10,,,,,,, ,
X,4,24,2022,411,140119,41.2715,-70.3726,133,316,1,-,,5, , ,4,3,C,,,,,,, , ,,,,,,,,,,,,,,,,,1,1,,,/,F,411,,,,106.6,1000,100,85,5,5,3,10,,,,,,, ,
X,4,24,2022,412,140124,41.2699,-70.3704,132,309,1,-,,5, , ,4,3,C,,,,,,, , ,,,,,,,,,,,,,,,,,1,1,,,/,F,412,,,,106.3,1000,100,85,5,5,3,10,,,,,,, ,
X,4,24,2022,413,140129,41.2681,-70.3678,133,305,1,-,,5, , ,4,3,C,,,,,,, , ,,,,,,,,,,,,,,,,,1,1,,,/,F,413,,,,105.5,1000,100,85,5,5,3,10,,,,,,, ,
Z,4,24,2022,414,140130,41.2679,-70.3675,133,305,1,-,,5, , ,4,3,C,,,,,,, , ,,,,,,,,,,,,,,,,,1,1,,,/,F,414,,,,105.3,1000,100,85,5,5,3,10,,,,,,, ,
X,4,24,2022,415,140134,41.2664,-70.3655,135,305,1,-,,5, , ,4,3,C,,,,,,, , ,,,,,,,,,,,,,,,,,1,1,,,/,F,415,,,,104.6,1000,100,85,5,5,3,10,,,,,,, ,
X,4,24,2022,416,140139,41.2647,-70.3633,135,304,1,-,,5, , ,4,3,C,,,,,,, , ,,,,,,,,,,,,,,,,,1,1,,,/,F,416,,,,103.2,1000,100,85,5,5,3,10,,,,,,, ,
X,4,24,2022,417,140144,41.2631,-70.3611,133,304,1,-,,5, , ,4,3,C,,,,,,, , ,,,,,,,,,,,,,,,,,1,1,,,/,F,417,,,,100.7,1000,100,85,5,5,3,10,,,,,,, ,
X,4,24,2022,418,140149,41.2615,-70.3588,134,305,1,-,,5, , ,4,3,C,,,,,,, , ,,,,,,,,,,,,,,,,,1,1,,,/,F,418,,,,100.1,1000,100,85,5,5,3,10,,,,,,, ,
X,4,24,2022,419,140154,41.2604,-70.3574,133,302,1,-,,5, , ,4,3,C,,,,,,, , ,,,,,,,,,,,,,,,,,1,1,,,/,F,419,,,,100.3,1000,100,85,5,5,3,10,,,,,,, ,
X,4,24,2022,420,140159,41.2584,-70.3545,132,297,1,-,,5, , ,4,3,C,,,,,,, , ,,,,,,,,,,,,,,,,,1,1,,,/,F,420,,,,99.2,1000,100,85,5,5,3,10,,,,,,, ,
X,4,24,2022,421,140204,41.2568,-70.3522,132,294,1,-,,5, , ,4,3,C,,,,,,, , ,,,,,,,,,,,,,,,,,1,1,,,/,F,421,,,,99.2,1000,100,85,5,5,3,10,,,,,,, ,
X,4,24,2022,422,140209,41.2553,-70.35,131,290,1,-,,5, , ,4,3,C,,,,,,, , ,,,,,,,,,,,,,,,,,1,1,,,/,F,422,,,,98.6,1000,100,85,5,5,3,10,,,,,,, ,
X,4,24,2022,423,140214,41.2538,-70.3477,132,286,1,-,,5, , ,4,3,C,,,,,,, , ,,,,,,,,,,,,,,,,,1,1,,,/,T,423,,,,99.3,1000,100,85,5,5,3,10,,,,,,, ,
S,4,24,2022,424,140215,41.2538,-70.3477,132,286,1,-,,5, , ,4,3,C,3,,,,,, , ,,,,,,,,,,,,,,,,,1,2,,,/,T,424,,,,99.3,1000,100,85,5,5,3,10,,,,,,, ,
X,4,24,2022,425,140219,41.2524,-70.3457,132,285,1,-,,5, , ,4,3,C,,,,,,, , ,,,,,,,,,,,,,,,,,1,2,,,/,T,425,,,,98.7,1000,100,85,5,5,3,10,,,,,,, ,
Z,4,24,2022,426,140220,41.252,-70.3451,132,285,1,-,,5, , ,4,3,C,,,,,,, , ,,,,,,,,,,,,,,,,,1,2,,,/,F,426,,,,98,1000,100,85,5,5,3,10,,,,,,, ,
X,4,24,2022,427,140224,41.2507,-70.3433,131,286,1,-,,5, , ,4,3,C,,,,,,, , ,,,,,,,,,,,,,,,,,1,2,,,/,F,427,,,,97,1000,100,85,5,5,3,10,,,,,,, ,
X,4,24,2022,428,140229,41.2491,-70.341,132,287,1,-,,5, , ,4,3,C,,,,,,, , ,,,,,,,,,,,,,,,,,1,2,,,/,F,428,,,,96.5,1000,100,85,5,5,3,10,,,,,,, ,
X,4,24,2022,429,140234,41.2476,-70.3388,133,284,1,-,,5, , ,4,3,C,,,,,,, , ,,,,,,,,,,,,,,,,,1,2,,,/,F,429,,,,97.5,1000,100,85,5,5,3,10,,,,,,, ,
X,4,24,2022,430,140239,41.246,-70.3366,134,280,1,-,,5, , ,4,3,C,,,,,,, , ,,,,,,,,,,,,,,,,,1,2,,,/,F,430,,,,97,1000,100,85,5,5,3,10,,,,,,, ,
X,4,24,2022,431,140244,41.2447,-70.3348,134,283,1,-,,5, , ,4,3,C,,,,,,, , ,,,,,,,,,,,,,,,,,1,2,,,/,F,431,,,,95.1,1000,100,85,5,5,3,10,,,,,,, ,
X,4,24,2022,432,140249,41.2433,-70.3328,133,281,1,-,,5, , ,4,3,C,,,,,,, , ,,,,,,,,,,,,,,,,,1,2,,,/,F,432,,,,94.9,1000,100,85,5,5,3,10,,,,,,, ,
X,4,24,2022,433,140254,41.2416,-70.3305,133,275,1,-,,5, , ,4,3,C,,,,,,, , ,,,,,,,,,,,,,,,,,1,2,,,/,F,433,,,,95.5,1000,100,85,5,5,3,10,,,,,,, ,
X,4,24,2022,434,140259,41.24,-70.3283,134,274,1,-,,5, , ,4,3,C,,,,,,, , ,,,,,,,,,,,,,,,,,1,2,,,/,F,434,,,,94.9,1000,100,85,5,5,3,10,,,,,,, ,
