rectype,month,day,year,eventno,time,lat,long,heading,alt,legtype,legstage,legno,visiblty,glarel,glarer,beaufort,cloud,wx,sightno,anglel,angler,speccode,number,numcalf,anhead,photos,idrel,confidnc,behav1,behav2,behav3,behav4,behav5,behav6,behav7,behav8,behav9,behav10,behav11,behav12,behav13,behav14,behav15,refno,stratum,utc,radalt,gpsspeed,setalt,setvel,lensfl,ggf,int,gpsq,gpssats,roll,pitch,yaw,maghead,notes,edits,glarev,ph_qual
S,4,25,2022,1926,112518,42.2429,-70.7097,10,764,0,-,,5, , ,3,3,C,1,,,RIWH,2,,,1,3,0,54,,,,,,,,,,,,,,,1931,,,,121.2,1000,100,85,5,5,N,10,,,,,OFF WATCH; SKIM FEEDING,, ,
P,4,25,2022,1961,112804,42.3397,-70.708,1,749,0,-,,5, , ,3,3,C,2,,,RIWH,1,,,1,3,0,54,,,,,,,,,,,,,,,1966,,,,125.1,1000,100,85,5,5,3,10,,,,,OFF WATCH; SKIM FEEDING,, ,
S,4,25,2022,1969,112841,42.3606,-70.7069,8,764,0,-,,5, , ,3,3,C,3,,,RIWH,1,,,1,3,0,54,,,,,,,,,,,,,,,1974,,,,118.5,1000,100,85,5,5,3,10,,,,,OFF WATCH; SUBSURFACE FEEDING,, ,
P,4,25,2022,1980,112929,42.3889,-70.7074,356,736,0,-,,5, , ,3,3,C,62,,,HUWH,1,,,1,3,0,,,,,,,,,,,,,,,,1985,,,,125.7,1000,100,85,5,5,3,10,,,,,OFF WATCH,, ,
S,4,25,2022,1982,112934,42.3914,-70.7077,354,734,0,-,,5, , ,3,3,C,63,,,FIWH,1,,,1,3,0,,,,,,,,,,,,,,,,1987,,,,126.1,1000,100,85,5,5,3,10,,,,,OFF WATCH,, ,
S,4,25,2022,1997,113046,42.4331,-70.7098,356,663,0,-,,5, , ,3,3,C,64,,,RIWH,1,,,1,3,0,54,,,,,,,,,,,,,,,2002,,,,138.4,1000,100,85,5,5,N,10,,,,,OFF WATCH; SKIM FEEDING,, ,
S,4,25,2022,2447,125334,42.5743,-70.5408,77,442,1,-,,5, , ,2,3,C,67,,,,,,, , ,,,,,,,,,,,,,,,,,2453,,,,105.8,1000,100,85,5,5,3,9,,,,,GOING ON WATCH; ON WAY TO FIRST MASS BAY CALIBRATION SURVEY LINE,, ,
X,4,25,2022,2448,125338,42.5745,-70.5375,94,445,1,-,,5, , ,2,3,C,,,,,,,, , ,,,,,,,,,,,,,,,,,2454,,,,104.1,1000,100,85,5,5,3,9,,,,,,, ,
X,4,25,2022,2449,125343,42.574,-70.5345,109,453,1,-,,5, , ,2,3,C,,,,,,,, , ,,,,,,,,,,,,,,,,,2455,,,,101.9,1000,100,85,5,5,3,9,,,,,,, ,
X,4,25,2022,2450,125348,42.573,-70.5316,118,464,1,-,,5, , ,2,3,C,,,,,,,, , ,,,,,,,,,,,,,,,,,2456,,,,98.5,1000,100,85,5,5,3,9,,,,,,, ,
Z,4,25,2022,2451,125350,42.5726,-70.5308,120,466,1,-,,5, , ,2,3,C,,,,,,,, , ,,,,,,,,,,,,,,,,,2457,,,,98,1000,100,85,5,5,3,9,,,,,,, ,
X,4,25,2022,2452,125353,42.5718,-70.5289,123,467,1,-,,5, , ,2,3,C,,,,,,,, , ,,,,,,,,,,,,,,,,,2458,,,,97.9,1000,100,85,5,5,3,9,,,,,,, ,
X,4,25,2022,2453,125358,42.5704,-70.5265,131,465,1,-,,5, , ,2,3,C,,,,,,,, , ,,,,,,,,,,,,,,,,,2459,,,,98.1,1000,100,85,5,5,3,9,,,,,,, ,
X,4,25,2022,2454,125403,42.5688,-70.5243,139,463,1,-,,5, , ,2,3,C,,,,,,,, , ,,,,,,,,,,,,,,,,,2460,,,,98.6,1000,100,85,5,5,3,9,,,,,,, ,
X,4,25,2022,2455,125408,42.567,-70.5224,144,460,1,-,,5, , ,2,3,C,,,,,,,, , ,,,,,,,,,,,,,,,,,2461,,,,99.6,1000,100,85,5,5,3,9,,,,,,, ,
X,4,25,2022,2456,125413,42.5652,-70.5209,150,458,1,-,,5, , ,2,3,C,,,,,,,, , ,,,,,,,,,,,,,,,,,2462,,,,99.8,1000,100,85,5,5,3,9,,,,,,, ,
X,4,25,2022,2457,125418,42.5631,-70.5194,154,461,1,-,,5, , ,2,3,C,,,,,,,, , ,,,,,,,,,,,,,,,,,2463,,,,98.4,1000,100,85,5,5,3,9,,,,,,, ,
X,4,25,2022,2458,125423,42.561,-70.5182,160,458,1,-,,5, , ,2,3,C,,,,,,,, , ,,,,,,,,,,,,,,,,,2464,,,,98.7,1000,100,85,5,5,3,9,,,,,,, ,
X,4,25,2022,2459,125428,42.5586,-70.5174,171,450,1,-,,5, , ,2,3,C,,,,,,,, , ,,,,,,,,,,,,,,,,,2465,,,,101.5,1000,100,85,5,5,3,9,,,,,,, ,
X,4,25,2022,2460,125433,42.5563,-70.5172,180,447,1,-,,5, , ,2,3,C,,,,,,,, , ,,,,,,,,,,,,,,,,,2466,,,,102.9,1000,100,85,5,5,3,9,,,,,,, ,
X,4,25,2022,2461,125438,42.554,-70.5172,178,444,1,-,,5, , ,2,3,C,,,,,,,, , ,,,,,,,,,,,,,,,,,2467,,,,103,1000,100,85,5,5,3,9,,,,,,, ,
X,4,25,2022,2462,125440,42.5533,-70.5172,179,444,1,-,,5, , ,2,3,C,,,,,,,, , ,,,,,,,,,,,,,,,,,2468,,,,102.9,1000,100,85,5,5,3,9,,,,,,, ,
X,4,25,2022,2463,125443,42.5516,-70.5172,182,443,1,-,,5, , ,2,3,C,,,,,,,, , ,,,,,,,,,,,,,,,,,2469,,,,103.2,1000,100,85,5,5,3,9,,,,,,, ,
S,4,25,2022,2464,125448,42.5492,-70.5173,181,438,2,1,4,5,1,2,2,3,C,68,,,,,,, , ,,,,,,,,,,,,,,,,,2470,,,,104.3,1500,100,85,5,5,3,9,,,,,BEGIN LINE AT 1500 FT,, ,
X,4,25,2022,2465,125453,42.5467,-70.5173,179,435,2,2,4,5,1,2,2,3,C,,,,,,,, , ,,,,,,,,,,,,,,,,,2471,,,,104,1500,100,85,5,5,3,9,,,,,,, ,
X,4,25,2022,2466,125458,42.5443,-70.5172,179,434,2,2,4,5,1,2,2,3,C,,,,,,,, , ,,,,,,,,,,,,,,,,,2472,,,,103.2,1500,100,85,5,5,3,9,,,,,,, ,
X,4,25,2022,2467,125503,42.5419,-70.5172,179,433,2,2,4,5,1,2,2,3,C,,,,,,,, , ,,,,,,,,,,,,,,,,,2473,,,,103.2,1500,100,85,5,5,3,9,,,,,,, ,
X,4,25,2022,2468,125508,42.5397,-70.5172,180,434,2,2,4,5,1,2,2,3,C,,,,,,,, , ,,,,,,,,,,,,,,,,,2474,,,,102.5,1500,100,85,5,5,3,9,,,,,,, ,
X,4,25,2022,2469,125513,42.5371,-70.5172,180,437,2,2,4,5,1,2,2,3,C,,,,,,,, , ,,,,,,,,,,,,,,,,,2475,,,,100.8,1500,100,85,5,5,3,9,,,,,,, ,
X,4,25,2022,2470,125518,42.5351,-70.5172,179,440,2,2,4,5,1,2,2,3,C,,,,,,,, , ,,,,,,,,,,,,,,,,,2476,,,,99.2,1500,100,85,5,5,3,9,,,,,,, ,
X,4,25,2022,2471,125523,42.5326,-70.5172,179,440,2,2,4,5,1,2,2,3,C,,,,,,,, , ,,,,,,,,,,,,,,,,,2477,,,,99,1500,100,85,5,5,3,9,,,,,,, ,
X,4,25,2022,2472,125528,42.5302,-70.5172,179,442,2,2,4,5,1,2,2,3,C,,,,,,,, , ,,,,,,,,,,,,,,,,,2478,,,,98.5,1500,100,85,5,5,3,9,,,,,,, ,
Z,4,25,2022,2473,125529,42.5298,-70.5171,179,442,2,2,4,5,1,2,2,3,C,,,,,,,, , ,,,,,,,,,,,,,,,,,2479,,,,98.3,1500,100,85,5,5,3,9,,,,,,, ,
X,4,25,2022,2474,125533,42.528,-70.5171,179,444,2,2,4,5,1,2,2,3,C,,,,,,,, , ,,,,,,,,,,,,,,,,,2480,,,,97.8,1500,100,85,5,5,3,9,,,,,,, ,
X,4,25,2022,2475,125538,42.5257,-70.5171,180,444,2,2,4,5,1,2,2,3,C,,,,,,,, , ,,,,,,,,,,,,,,,,,2481,,,,98,1500,100,85,5,5,3,9,,,,,,, ,
X,4,25,2022,2476,125543,42.5235,-70.5171,179,442,2,2,4,5,1,2,2,3,C,,,,,,,, , ,,,,,,,,,,,,,,,,,2482,,,,98.8,1500,100,85,5,5,3,9,,,,,,, ,
X,4,25,2022,2477,125548,42.5211,-70.517,179,440,2,2,4,5,1,2,2,3,C,,,,,,,, , ,,,,,,,,,,,,,,,,,2483,,,,99.5,1500,100,85,5,5,3,9,,,,,,, ,
X,4,25,2022,2478,125553,42.5188,-70.5171,180,439,2,2,4,5,1,2,2,3,C,,,,,,,, , ,,,,,,,,,,,,,,,,,2484,,,,100.4,1500,100,85,5,5,3,9,,,,,,, ,
X,4,25,2022,2479,125558,42.5165,-70.5171,179,437,2,2,4,5,1,2,2,3,C,,,,,,,, , ,,,,,,,,,,,,,,,,,2485,,,,100.7,1500,100,85,5,5,3,9,,,,,,, ,
X,4,25,2022,2480,125603,42.5141,-70.517,178,436,2,2,4,5,1,2,2,3,C,,,,,,,, , ,,,,,,,,,,,,,,,,,2486,,,,100.5,1500,100,85,5,5,3,9,,,,,,, ,
X,4,25,2022,2481,125608,42.5118,-70.5169,178,435,2,2,4,5,1,2,2,3,C,,,,,,,, , ,,,,,,,,,,,,,,,,,2487,,,,101.1,1500,100,85,5,5,3,9,,,,,,, ,
X,4,25,2022,2482,125613,42.5097,-70.5169,179,435,2,2,4,5,1,2,2,3,C,,,,,,,, , ,,,,,,,,,,,,,,,,,2488,,,,101.3,1500,100,85,5,5,3,9,,,,,,, ,
X,4,25,2022,2483,125618,42.5071,-70.5169,179,435,2,2,4,5,1,2,2,3,C,,,,,,,, , ,,,,,,,,,,,,,,,,,2489,,,,100.8,1500,100,85,5,5,3,9,,,,,,, ,
Z,4,25,2022,2484,125619,42.5068,-70.5168,179,435,2,2,4,5,1,2,2,3,C,,,,,,,, , ,,,,,,,,,,,,,,,,,2490,,,,100.7,1500,100,85,5,5,3,9,,,,,,, ,
X,4,25,2022,2485,125623,42.5048,-70.5168,180,435,2,2,4,5,1,2,2,3,C,,,,,,,, , ,,,,,,,,,,,,,,,,,2491,,,,101.1,1500,100,85,5,5,3,9,,,,,,, ,
X,4,25,2022,2486,125628,42.5024,-70.5168,179,434,2,2,4,5,1,2,2,3,C,,,,,,,, , ,,,,,,,,,,,,,,,,,2492,,,,101.1,1500,100,85,5,5,3,9,,,,,,, ,
X,4,25,2022,2487,125633,42.5001,-70.5169,180,432,2,2,4,5,1,2,2,3,C,,,,,,,, , ,,,,,,,,,,,,,,,,,2493,,,,101.4,1500,100,85,5,5,3,9,,,,,,, ,
X,4,25,2022,2488,125638,42.4977,-70.5169,180,430,2,2,4,5,1,2,2,3,C,,,,,,,, , ,,,,,,,,,,,,,,,,,2494,,,,102.2,1500,100,85,5,5,3,9,,,,,,, ,
X,4,25,2022,2489,125643,42.4955,-70.517,180,429,2,2,4,5,1,2,2,3,C,,,,,,,, , ,,,,,,,,,,,,,,,,,2495,,,,101.8,1500,100,85,5,5,3,9,,,,,,, ,
X,4,25,2022,2490,125648,42.4931,-70.517,180,429,2,2,4,5,1,2,2,3,C,,,,,,,, , ,,,,,,,,,,,,,,,,,2496,,,,101.6,1500,100,85,5,5,3,9,,,,,,, ,
X,4,25,2022,2491,125653,42.4908,-70.517,180,429,2,2,4,5,1,2,2,3,C,,,,,,,, , ,,,,,,,,,,,,,,,,,2497,,,,101.4,1500,100,85,5,5,3,9,,,,,,, ,
X,4,25,2022,2492,125658,42.4884,-70.517,179,428,2,2,4,5,1,2,2,3,C,,,,,,,, , ,,,,,,,,,,,,,,,,,2498,,,,101,1500,100,85,5,5,3,9,,,,,,, ,
X,4,25,2022,2493,125703,42.486,-70.517,179,426,2,2,4,5,1,2,2,3,C,,,,,,,, , ,,,,,,,,,,,,,,,,,2499,,,,101.5,1500,100,85,5,5,3,10,,,,,,, ,
X,4,25,2022,2494,125708,42.4837,-70.517,179,425,2,2,4,5,1,2,2,3,C,,,,,,,, , ,,,,,,,,,,,,,,,,,2500,,,,101.3,1500,100,85,5,5,3,10,,,,,,, ,
Z,4,25,2022,2495,125709,42.4833,-70.517,180,425,2,2,4,5,1,2,2,3,C,,,,,,,, , ,,,,,,,,,,,,,,,,,2501,,,,101.4,1500,100,85,5,5,3,10,,,,,,, ,
X,4,25,2022,2496,125713,42.4813,-70.517,180,432,2,2,4,5,1,2,2,3,C,,,,,,,, , ,,,,,,,,,,,,,,,,,2502,,,,98.3,1500,100,85,5,5,3,10,,,,,,, ,
X,4,25,2022,2497,125718,42.4792,-70.517,180,433,2,2,4,5,1,2,2,3,C,,,,,,,, , ,,,,,,,,,,,,,,,,,2503,,,,97.8,1500,100,85,5,5,3,10,,,,,,, ,
X,4,25,2022,2498,125723,42.4768,-70.517,178,436,2,2,4,5,1,2,2,3,C,,,,,,,, , ,,,,,,,,,,,,,,,,,2504,,,,96.1,1500,100,85,5,5,3,10,,,,,,, ,
X,4,25,2022,2499,125728,42.4746,-70.5169,178,435,2,2,4,5,1,2,2,3,C,,,,,,,, , ,,,,,,,,,,,,,,,,,2505,,,,95.6,1500,100,85,5,5,3,10,,,,,,, ,
X,4,25,2022,2500,125733,42.4724,-70.5169,179,431,2,2,4,5,1,2,2,3,C,,,,,,,, , ,,,,,,,,,,,,,,,,,2506,,,,97.1,1500,100,85,5,5,3,10,,,,,,, ,
X,4,25,2022,2501,125738,42.4703,-70.5169,179,428,2,2,4,5,1,2,2,3,C,,,,,,,, , ,,,,,,,,,,,,,,,,,2507,,,,97.9,1500,100,85,5,5,3,10,,,,,,, ,
X,4,25,2022,2502,125743,42.468,-70.5169,179,433,2,2,4,5,1,2,2,3,C,,,,,,,, , ,,,,,,,,,,,,,,,,,2508,,,,95,1500,100,85,5,5,3,10,,,,,,, ,
X,4,25,2022,2503,125748,42.4658,-70.5169,180,431,2,2,4,5,1,2,2,3,C,,,,,,,, , ,,,,,,,,,,,,,,,,,2509,,,,95.7,1500,100,85,5,5,3,10,,,,,,, ,
X,4,25,2022,2504,125753,42.4634,-70.5169,180,430,2,2,4,5,1,2,2,3,C,,,,,,,, , ,,,,,,,,,,,,,,,,,2510,,,,96.1,1500,100,85,5,5,3,10,,,,,,, ,
Z,4,25,2022,2505,125755,42.463,-70.5169,180,430,2,2,4,5,1,2,2,3,C,,,,,,,, , ,,,,,,,,,,,,,,,,,2511,,,,95.8,1500,100,85,5,5,3,10,,,,,,, ,
X,4,25,2022,2506,125758,42.4612,-70.5169,179,430,2,2,4,5,1,2,2,3,C,,,,,,,, , ,,,,,,,,,,,,,,,,,2512,,,,95.9,1500,100,85,5,5,3,10,,,,,,, ,
X,4,25,2022,2507,125803,42.459,-70.5169,178,429,2,2,4,5,1,2,2,3,C,,,,,,,, , ,,,,,,,,,,,,,,,,,2513,,,,95.9,1500,100,85,5,5,3,10,,,,,,, ,
X,4,25,2022,2508,125808,42.4568,-70.5169,179,428,2,2,4,5,1,2,2,3,C,,,,,,,, , ,,,,,,,,,,,,,,,,,2514,,,,95.9,1500,100,85,5,5,3,10,,,,,,, ,
X,4,25,2022,2509,125813,42.4547,-70.5168,178,435,2,2,4,5,1,2,2,3,C,,,,,,,, , ,,,,,,,,,,,,,,,,,2515,,,,93.5,1500,100,85,5,5,3,10,,,,,,, ,
X,4,25,2022,2510,125818,42.4524,-70.5168,178,434,2,2,4,5,1,2,2,3,C,,,,,,,, , ,,,,,,,,,,,,,,,,,2516,,,,94.3,1500,100,85,5,5,3,10,,,,,,, ,
X,4,25,2022,2511,125823,42.4502,-70.5167,178,436,2,2,4,5,1,2,2,3,C,,,,,,,, , ,,,,,,,,,,,,,,,,,2517,,,,93.8,1500,100,85,5,5,3,10,,,,,,, ,
X,4,25,2022,2512,125828,42.4481,-70.5166,178,439,2,2,4,5,1,2,2,3,C,,,,,,,, , ,,,,,,,,,,,,,,,,,2518,,,,92.9,1500,100,85,5,5,3,10,,,,,,, ,
X,4,25,2022,2513,125833,42.4459,-70.5166,181,441,2,2,4,5,1,2,2,3,C,,,,,,,, , ,,,,,,,,,,,,,,,,,2519,,,,92.5,1500,100,85,5,5,3,10,,,,,,, ,
X,4,25,2022,2514,125838,42.4439,-70.5166,180,441,2,2,4,5,1,2,2,3,C,,,,,,,, , ,,,,,,,,,,,,,,,,,2520,,,,93.3,1500,100,85,5,5,3,10,,,,,,, ,
X,4,25,2022,2515,125843,42.4416,-70.5166,180,442,2,2,4,5,1,2,2,3,C,,,,,,,, , ,,,,,,,,,,,,,,,,,2521,,,,93.3,1500,100,85,5,5,3,10,,,,,,, ,
Z,4,25,2022,2516,125844,42.4411,-70.5166,180,442,2,2,4,5,1,2,2,3,C,,,,,,,, , ,,,,,,,,,,,,,,,,,2522,,,,93.4,1500,100,85,5,5,3,10,,,,,,, ,
X,4,25,2022,2517,125848,42.4394,-70.5167,181,443,2,2,4,5,1,2,2,3,C,,,,,,,, , ,,,,,,,,,,,,,,,,,2523,,,,92.8,1500,100,85,5,5,3,10,,,,,,, ,
X,4,25,2022,2518,125853,42.4373,-70.5168,182,444,2,2,4,5,1,2,2,3,C,,,,,,,, , ,,,,,,,,,,,,,,,,,2524,,,,93.4,1500,100,85,5,5,3,10,,,,,,, ,
X,4,25,2022,2519,125858,42.4351,-70.5169,182,442,2,2,4,5,1,2,2,3,C,,,,,,,, , ,,,,,,,,,,,,,,,,,2525,,,,94.4,1500,100,85,5,5,3,10,,,,,,, ,
X,4,25,2022,2520,125903,42.4329,-70.5169,180,442,2,2,4,5,1,2,2,3,C,,,,,,,, , ,,,,,,,,,,,,,,,,,2526,,,,94.5,1500,100,85,5,5,3,10,,,,,,, ,
X,4,25,2022,2521,125908,42.431,-70.517,180,442,2,2,4,5,1,2,2,3,C,,,,,,,, , ,,,,,,,,,,,,,,,,,2527,,,,94.7,1500,100,85,5,5,3,10,,,,,,, ,
X,4,25,2022,2522,125913,42.4286,-70.517,179,441,2,2,4,5,1,2,2,3,C,,,,,,,, , ,,,,,,,,,,,,,,,,,2528,,,,96.1,1500,100,85,5,5,3,10,,,,,,, ,
X,4,25,2022,2523,125918,42.4265,-70.5169,178,441,2,2,4,5,1,2,2,3,C,,,,,,,, , ,,,,,,,,,,,,,,,,,2529,,,,96.2,1500,100,85,5,5,3,10,,,,,,, ,
X,4,25,2022,2524,125923,42.4242,-70.5168,179,443,2,2,4,5,1,2,2,3,C,,,,,,,, , ,,,,,,,,,,,,,,,,,2530,,,,95.6,1500,100,85,5,5,3,10,,,,,,, ,
X,4,25,2022,2525,125928,42.422,-70.5168,179,444,2,2,4,5,1,2,2,3,C,,,,,,,, , ,,,,,,,,,,,,,,,,,2531,,,,95.4,1500,100,85,5,5,3,10,,,,,,, ,
X,4,25,2022,2526,125933,42.4197,-70.5168,180,444,2,2,4,5,1,2,2,3,C,,,,,,,, , ,,,,,,,,,,,,,,,,,2532,,,,96,1500,100,85,5,5,3,10,,,,,,, ,
Z,4,25,2022,2527,125934,42.4192,-70.5168,180,444,2,2,4,5,1,2,2,3,C,,,,,,,, , ,,,,,,,,,,,,,,,,,2533,,,,96.2,1500,100,85,5,5,3,10,,,,,,, ,
X,4,25,2022,2528,125938,42.4176,-70.5168,180,444,2,2,4,5,1,2,2,3,C,,,,,,,, , ,,,,,,,,,,,,,,,,,2534,,,,96.3,1500,100,85,5,5,3,10,,,,,,, ,
X,4,25,2022,2529,125943,42.4153,-70.5168,179,445,2,2,4,5,1,2,2,3,C,,,,,,,, , ,,,,,,,,,,,,,,,,,2535,,,,96.1,1500,100,85,5,5,3,10,,,,,,, ,
X,4,25,2022,2530,125948,42.413,-70.5167,178,448,2,2,4,5,1,2,2,3,C,,,,,,,, , ,,,,,,,,,,,,,,,,,2536,,,,95.4,1500,100,85,5,5,3,10,,,,,,, ,
X,4,25,2022,2531,125953,42.4108,-70.5166,179,448,2,2,4,5,1,2,2,3,C,,,,,,,, , ,,,,,,,,,,,,,,,,,2537,,,,95.6,1500,100,85,5,5,3,10,,,,,,, ,
X,4,25,2022,2532,125958,42.4085,-70.5166,178,447,2,2,4,5,1,2,2,3,C,,,,,,,, , ,,,,,,,,,,,,,,,,,2538,,,,96.5,1500,100,85,5,5,3,10,,,,,,, ,
X,4,25,2022,2533,130003,42.4064,-70.5166,179,447,2,2,4,5,1,2,2,3,C,,,,,,,, , ,,,,,,,,,,,,,,,,,2539,,,,96.3,1500,100,85,5,5,3,10,,,,,,, ,
X,4,25,2022,2534,130008,42.4043,-70.5165,180,449,2,2,4,5,1,2,2,3,C,,,,,,,, , ,,,,,,,,,,,,,,,,,2540,,,,95.8,1500,100,85,5,5,3,10,,,,,,, ,
X,4,25,2022,2535,130013,42.4023,-70.5166,181,451,2,2,4,5,1,2,2,3,C,,,,,,,, , ,,,,,,,,,,,,,,,,,2541,,,,95.5,1500,100,85,5,5,3,10,,,,,,, ,
X,4,25,2022,2536,130018,42.3998,-70.5166,179,452,2,2,4,5,1,2,2,3,C,,,,,,,, , ,,,,,,,,,,,,,,,,,2542,,,,95.3,1500,100,85,5,5,3,10,,,,,,, ,
X,4,25,2022,2537,130023,42.3974,-70.5166,179,452,2,2,4,5,1,2,2,3,C,,,,,,,, , ,,,,,,,,,,,,,,,,,2543,,,,95.8,1500,100,85,5,5,3,10,,,,,,, ,
Z,4,25,2022,2538,130024,42.3971,-70.5166,179,452,2,2,4,5,1,2,2,3,C,,,,,,,, , ,,,,,,,,,,,,,,,,,2544,,,,96,1500,100,85,5,5,3,10,,,,,,, ,
X,4,25,2022,2539,130028,42.3952,-70.5165,179,452,2,2,4,5,1,2,2,3,C,,,,,,,, , ,,,,,,,,,,,,,,,,,2545,,,,96.1,1500,100,85,5,5,3,10,,,,,,, ,
X,4,25,2022,2540,130033,42.393,-70.5166,180,452,2,2,4,5,1,2,2,3,C,,,,,,,, , ,,,,,,,,,,,,,,,,,2546,,,,95.9,1500,100,85,5,5,3,10,,,,,,, ,
X,4,25,2022,2541,130038,42.3911,-70.5165,179,453,2,2,4,5,1,2,2,3,C,,,,,,,, , ,,,,,,,,,,,,,,,,,2547,,,,96,1500,100,85,5,5,3,10,,,,,,, ,
X,4,25,2022,2542,130043,42.3885,-70.5165,179,454,2,2,4,5,1,2,2,3,C,,,,,,,, , ,,,,,,,,,,,,,,,,,2548,,,,96,1500,100,85,5,5,3,10,,,,,,, ,
X,4,25,2022,2543,130048,42.3863,-70.5165,180,452,2,2,4,5,1,2,2,3,C,,,,,,,, , ,,,,,,,,,,,,,,,,,2549,,,,96.9,1500,100,85,5,5,3,10,,,,,,, ,
X,4,25,2022,2544,130053,42.3841,-70.5165,180,451,2,2,4,5,1,2,2,3,C,,,,,,,, , ,,,,,,,,,,,,,,,,,2550,,,,96.9,1500,100,85,5,5,3,10,,,,,,, ,
X,4,25,2022,2545,130058,42.3818,-70.5165,179,451,2,2,4,5,1,2,2,3,C,,,,,,,, , ,,,,,,,,,,,,,,,,,2551,,,,97.1,1500,100,85,5,5,3,10,,,,,,, ,
X,4,25,2022,2546,130103,42.3798,-70.5165,178,452,2,2,4,5,1,2,2,3,C,,,,,,,, , ,,,,,,,,,,,,,,,,,2552,,,,96.5,1500,100,85,5,5,3,10,,,,,,, ,
X,4,25,2022,2547,130108,42.3773,-70.5165,179,452,2,2,4,5,1,2,2,3,C,,,,,,,, , ,,,,,,,,,,,,,,,,,2553,,,,96.4,1500,100,85,5,5,3,10,,,,,,, ,
Z,4,25,2022,2548,130110,42.3768,-70.5164,179,452,2,2,4,5,1,2,2,3,C,,,,,,,, , ,,,,,,,,,,,,,,,,,2554,,,,96,1500,100,85,5,5,3,10,,,,,,, ,
X,4,25,2022,2549,130113,42.3751,-70.5164,180,450,2,2,4,5,1,2,2,3,C,,,,,,,, , ,,,,,,,,,,,,,,,,,2555,,,,96.9,1500,100,85,5,5,3,10,,,,,,, ,
X,4,25,2022,2550,130118,42.3729,-70.5165,180,448,2,2,4,5,1,2,2,3,C,,,,,,,, , ,,,,,,,,,,,,,,,,,2556,,,,97.7,1500,100,85,5,5,3,10,,,,,,, ,
X,4,25,2022,2551,130123,42.3706,-70.5165,179,447,2,2,4,5,1,2,2,3,C,,,,,,,, , ,,,,,,,,,,,,,,,,,2557,,,,97.4,1500,100,85,5,5,3,10,,,,,,, ,
X,4,25,2022,2552,130128,42.3683,-70.5165,179,446,2,2,4,5,1,2,2,3,C,,,,,,,, , ,,,,,,,,,,,,,,,,,2558,,,,97.2,1500,100,85,5,5,3,10,,,,,,, ,
X,4,25,2022,2553,130133,42.3662,-70.5165,179,445,2,2,4,5,1,2,2,3,C,,,,,,,, , ,,,,,,,,,,,,,,,,,2559,,,,97.1,1500,100,85,5,5,3,10,,,,,,, ,
X,4,25,2022,2554,130138,42.364,-70.5164,179,443,2,2,4,5,1,2,2,3,C,,,,,,,, , ,,,,,,,,,,,,,,,,,2560,,,,97.6,1500,100,85,5,5,3,10,,,,,,, ,
X,4,25,2022,2555,130143,42.3617,-70.5164,181,442,2,2,4,5,1,2,2,3,C,,,,,,,, , ,,,,,,,,,,,,,,,,,2561,,,,97.7,1500,100,85,5,5,3,10,,,,,,, ,
X,4,25,2022,2556,130148,42.3594,-70.5165,180,441,2,2,4,5,1,2,2,3,C,,,,,,,, , ,,,,,,,,,,,,,,,,,2562,,,,97.6,1500,100,85,5,5,3,10,,,,,,, ,
X,4,25,2022,2557,130153,42.3571,-70.5165,180,440,2,2,4,5,1,2,2,3,C,,,,,,,, , ,,,,,,,,,,,,,,,,,2563,,,,97.8,1500,100,85,5,5,3,10,,,,,,, ,
X,4,25,2022,2558,130158,42.3548,-70.5166,180,440,2,2,4,5,1,2,2,3,C,,,,,,,, , ,,,,,,,,,,,,,,,,,2564,,,,97.5,1500,100,85,5,5,3,10,,,,,,, ,
Z,4,25,2022,2559,130159,42.3543,-70.5166,180,440,2,2,4,5,1,2,2,3,C,,,,,,,, , ,,,,,,,,,,,,,,,,,2565,,,,97.4,1500,100,85,5,5,3,10,,,,,,, ,
X,4,25,2022,2560,130203,42.3526,-70.5165,179,440,2,2,4,5,1,2,2,3,C,,,,,,,, , ,,,,,,,,,,,,,,,,,2566,,,,97.3,1500,100,85,5,5,3,10,,,,,,, ,
X,4,25,2022,2561,130208,42.3503,-70.5165,178,441,2,2,4,5,1,2,2,3,C,,,,,,,, , ,,,,,,,,,,,,,,,,,2567,,,,97.2,1500,100,85,5,5,3,10,,,,,,, ,
X,4,25,2022,2562,130213,42.348,-70.5165,180,440,2,2,4,5,1,2,2,3,C,,,,,,,, , ,,,,,,,,,,,,,,,,,2568,,,,97.8,1500,100,85,5,5,3,10,,,,,,, ,
X,4,25,2022,2563,130218,42.3458,-70.5165,180,440,2,2,4,5,1,2,2,3,C,,,,,,,, , ,,,,,,,,,,,,,,,,,2569,,,,98.4,1500,100,85,5,5,3,10,,,,,,, ,
X,4,25,2022,2564,130223,42.3435,-70.5165,180,442,2,2,4,5,1,2,2,3,C,,,,,,,, , ,,,,,,,,,,,,,,,,,2570,,,,98.2,1500,100,85,5,5,3,10,,,,,,, ,
X,4,25,2022,2565,130228,42.3413,-70.5166,181,446,2,2,4,5,1,2,2,3,C,,,,,,,, , ,,,,,,,,,,,,,,,,,2571,,,,97.4,1500,100,85,5,5,3,10,,,,,,, ,
X,4,25,2022,2566,130233,42.339,-70.5166,180,449,2,2,4,5,1,2,2,3,C,,,,,,,, , ,,,,,,,,,,,,,,,,,2572,,,,97,1500,100,85,5,5,3,10,,,,,,, ,
X,4,25,2022,2567,130238,42.3369,-70.5166,179,450,2,2,4,5,1,2,2,3,C,,,,,,,, , ,,,,,,,,,,,,,,,,,2573,,,,97.6,1500,100,85,5,5,3,10,,,,,,, ,
X,4,25,2022,2568,130243,42.3345,-70.5166,179,448,2,2,4,5,1,2,2,3,C,,,,,,,, , ,,,,,,,,,,,,,,,,,2574,,,,99.2,1500,100,85,5,5,3,10,,,,,,, ,
X,4,25,2022,2569,130248,42.3321,-70.5166,180,449,2,2,4,5,1,2,2,3,C,,,,,,,, , ,,,,,,,,,,,,,,,,,2575,,,,99.4,1500,100,85,5,5,3,10,,,,,,, ,
Z,4,25,2022,2570,130249,42.3318,-70.5166,180,450,2,2,4,5,1,2,2,3,C,,,,,,,, , ,,,,,,,,,,,,,,,,,2576,,,,99.3,1500,100,85,5,5,3,10,,,,,,, ,
X,4,25,2022,2571,130253,42.3298,-70.5166,180,451,2,2,4,5,1,2,2,3,C,,,,,,,, , ,,,,,,,,,,,,,,,,,2577,,,,99.3,1500,100,85,5,5,3,10,,,,,,, ,
X,4,25,2022,2572,130258,42.3275,-70.5167,179,452,2,2,4,5,1,2,2,3,C,,,,,,,, , ,,,,,,,,,,,,,,,,,2578,,,,99.3,1500,100,85,5,5,3,10,,,,,,, ,
S,4,25,2022,2573,130303,42.3253,-70.5167,179,451,2,2,4,5,1,2,1,3,C,69,,,,,,, , ,,,,,,,,,,,,,,,,,2579,,,,99.3,1500,100,85,5,5,3,10,,,,,,, ,
X,4,25,2022,2574,130308,42.3229,-70.5166,179,451,2,2,4,5,1,2,1,3,C,,,,,,,, , ,,,,,,,,,,,,,,,,,2580,,,,99.6,1500,100,85,5,5,3,10,,,,,,, ,
X,4,25,2022,2575,130313,42.3206,-70.5166,179,450,2,2,4,5,1,2,1,3,C,,,,,,,, , ,,,,,,,,,,,,,,,,,2581,,,,99.6,1500,100,85,5,5,3,10,,,,,,, ,
X,4,25,2022,2576,130318,42.3183,-70.5166,179,451,2,2,4,5,1,2,1,3,C,,,,,,,, , ,,,,,,,,,,,,,,,,,2582,,,,99.3,1500,100,85,5,5,3,10,,,,,,, ,
X,4,25,2022,2577,130323,42.316,-70.5165,179,450,2,2,4,5,1,2,1,3,C,,,,,,,, , ,,,,,,,,,,,,,,,,,2583,,,,99.5,1500,100,85,5,5,3,10,,,,,,, ,
X,4,25,2022,2578,130328,42.3137,-70.5165,180,450,2,2,4,5,1,2,1,3,C,,,,,,,, , ,,,,,,,,,,,,,,,,,2584,,,,99.7,1500,100,85,5,5,3,10,,,,,,, ,
X,4,25,2022,2579,130333,42.3117,-70.5166,180,449,2,2,4,5,1,2,1,3,C,,,,,,,, , ,,,,,,,,,,,,,,,,,2585,,,,99.6,1500,100,85,5,5,3,10,,,,,,, ,
X,4,25,2022,2580,130338,42.3091,-70.5166,180,450,2,2,4,5,1,2,1,3,C,,,,,,,, , ,,,,,,,,,,,,,,,,,2586,,,,99.7,1500,100,85,5,5,3,10,,,,,,, ,
Z,4,25,2022,2581,130339,42.309,-70.5166,180,450,2,2,4,5,1,2,1,3,C,,,,,,,, , ,,,,,,,,,,,,,,,,,2587,,,,99.6,1500,100,85,5,5,3,10,,,,,,, ,
X,4,25,2022,2582,130343,42.3068,-70.5166,180,451,2,2,4,5,1,2,1,3,C,,,,,,,, , ,,,,,,,,,,,,,,,,,2588,,,,99.4,1500,100,85,5,5,3,10,,,,,,, ,
X,4,25,2022,2583,130348,42.3045,-70.5166,180,453,2,2,4,5,1,2,1,3,C,,,,,,,, , ,,,,,,,,,,,,,,,,,2589,,,,99.3,1500,100,85,5,5,3,10,,,,,,, ,
X,4,25,2022,2584,130353,42.3022,-70.5167,181,454,2,2,4,5,1,2,1,3,C,,,,,,,, , ,,,,,,,,,,,,,,,,,2590,,,,99.1,1500,100,85,5,5,3,10,,,,,,, ,
X,4,25,2022,2585,130358,42.3,-70.5168,181,455,2,2,4,5,1,2,1,3,C,,,,,,,, , ,,,,,,,,,,,,,,,,,2591,,,,99.2,1500,100,85,5,5,3,10,,,,,,, ,
X,4,25,2022,2586,130403,42.2977,-70.5168,179,455,2,2,4,5,1,2,1,3,C,,,,,,,, , ,,,,,,,,,,,,,,,,,2592,,,,99.2,1500,100,85,5,5,3,10,,,,,,, ,
X,4,25,2022,2587,130408,42.2954,-70.5168,179,455,2,2,4,5,1,2,1,3,C,,,,,,,, , ,,,,,,,,,,,,,,,,,2593,,,,99.1,1500,100,85,5,5,3,10,,,,,,, ,
X,4,25,2022,2588,130413,42.2931,-70.5167,178,456,2,2,4,5,1,2,1,3,C,,,,,,,, , ,,,,,,,,,,,,,,,,,2594,,,,98.9,1500,100,85,5,5,3,10,,,,,,, ,
X,4,25,2022,2589,130418,42.2908,-70.5167,179,456,2,2,4,5,1,2,1,3,C,,,,,,,, , ,,,,,,,,,,,,,,,,,2595,,,,98.7,1500,100,85,5,5,3,10,,,,,,, ,
X,4,25,2022,2590,130423,42.2884,-70.5166,179,455,2,2,4,5,1,2,1,3,C,,,,,,,, , ,,,,,,,,,,,,,,,,,2596,,,,99.5,1500,100,85,5,5,3,9,,,,,,, ,
X,4,25,2022,2591,130428,42.2862,-70.5166,179,460,2,2,4,5,1,2,1,3,C,,,,,,,, , ,,,,,,,,,,,,,,,,,2597,,,,99.7,1500,100,85,5,5,3,9,,,,,,, ,
Z,4,25,2022,2592,130429,42.2859,-70.5166,179,460,2,2,4,5,1,2,1,3,C,,,,,,,, , ,,,,,,,,,,,,,,,,,2598,,,,99.8,1500,100,85,5,5,3,9,,,,,,, ,
X,4,25,2022,2593,130433,42.2839,-70.5165,178,461,2,2,4,5,1,2,1,3,C,,,,,,,, , ,,,,,,,,,,,,,,,,,2599,,,,99.4,1500,100,85,5,5,3,10,,,,,,, ,
X,4,25,2022,2594,130438,42.2816,-70.5165,178,460,2,2,4,5,1,2,1,3,C,,,,,,,, , ,,,,,,,,,,,,,,,,,2600,,,,98.7,1500,100,85,5,5,3,10,,,,,,, ,
X,4,25,2022,2595,130443,42.2792,-70.5164,179,458,2,2,4,5,1,2,1,3,C,,,,,,,, , ,,,,,,,,,,,,,,,,,2601,,,,98.5,1500,100,85,5,5,3,10,,,,,,, ,
X,4,25,2022,2596,130448,42.2769,-70.5164,179,455,2,2,4,5,1,2,1,3,C,,,,,,,, , ,,,,,,,,,,,,,,,,,2602,,,,99.2,1500,100,85,5,5,3,10,,,,,,, ,
X,4,25,2022,2597,130453,42.275,-70.5164,180,452,2,2,4,5,1,2,1,3,C,,,,,,,, , ,,,,,,,,,,,,,,,,,2603,,,,100.2,1500,100,85,5,5,3,10,,,,,,, ,
X,4,25,2022,2598,130458,42.2723,-70.5164,180,452,2,2,4,5,1,2,1,3,C,,,,,,,, , ,,,,,,,,,,,,,,,,,2604,,,,100.3,1500,100,85,5,5,3,10,,,,,,, ,
X,4,25,2022,2599,130503,42.2702,-70.5164,180,454,2,2,4,5,1,2,1,3,C,,,,,,,, , ,,,,,,,,,,,,,,,,,2605,,,,99.5,1500,100,85,5,5,3,10,,,,,,, ,
S,4,25,2022,2600,130508,42.2678,-70.5165,180,457,2,2,4,5,1,2,1,3,C,70,,14,FIWH,1,,4,1,3,0,34,,,,,,,,,,,,,,,2606,,,,98.8,1500,100,85,5,5,3,10,,,,,TRAVELLING EAST (COULD SEE CONTINOUS WAKE AND SURFACINGS MOVING EAST),, ,
X,4,25,2022,2601,130513,42.2655,-70.5165,179,455,2,2,4,5,1,2,1,3,C,,,,,,,, , ,,,,,,,,,,,,,,,,,2607,,,,100.1,1500,100,85,5,5,3,10,,,,,,, ,
X,4,25,2022,2602,130518,42.2631,-70.5165,180,453,2,2,4,5,1,2,1,3,C,,,,,,,, , ,,,,,,,,,,,,,,,,,2608,,,,100.9,1500,100,85,5,5,3,10,,,,,,, ,
Z,4,25,2022,2603,130518,42.263,-70.5165,180,453,2,2,4,5,1,2,1,3,C,,,,,,,, , ,,,,,,,,,,,,,,,,,2609,,,,101,1500,100,85,5,5,3,10,,,,,,, ,
X,4,25,2022,2604,130523,42.2607,-70.5165,180,451,2,2,4,5,1,2,1,3,C,,,,,,,, , ,,,,,,,,,,,,,,,,,2610,,,,101.5,1500,100,85,5,5,3,10,,,,,,, ,
X,4,25,2022,2605,130528,42.2584,-70.5165,180,452,2,2,4,5,1,2,1,3,C,,,,,,,, , ,,,,,,,,,,,,,,,,,2611,,,,101.7,1500,100,85,5,5,3,10,,,,,,, ,
X,4,25,2022,2606,130533,42.2564,-70.5166,180,452,2,2,4,5,1,2,1,3,C,,,,,,,, , ,,,,,,,,,,,,,,,,,2612,,,,101.9,1500,100,85,5,5,3,10,,,,,,, ,
X,4,25,2022,2607,130538,42.2537,-70.5166,179,453,2,2,4,5,1,2,1,3,C,,,,,,,, , ,,,,,,,,,,,,,,,,,2613,,,,102.3,1500,100,85,5,5,3,10,,,,,,, ,
X,4,25,2022,2608,130543,42.2513,-70.5165,179,453,2,2,4,5,1,2,1,3,C,,,,,,,, , ,,,,,,,,,,,,,,,,,2614,,,,102.7,1500,100,85,5,5,3,10,,,,,,, ,
X,4,25,2022,2609,130548,42.2489,-70.5165,180,450,2,2,4,5,1,2,1,3,C,,,,,,,, , ,,,,,,,,,,,,,,,,,2615,,,,103.4,1500,100,85,5,5,3,10,,,,,,, ,
X,4,25,2022,2610,130553,42.2465,-70.5165,179,449,2,2,4,5,1,2,1,3,C,,,,,,,, , ,,,,,,,,,,,,,,,,,2616,,,,103.9,1500,100,85,5,5,3,10,,,,,,, ,
X,4,25,2022,2611,130558,42.2443,-70.5165,179,448,2,2,4,5,1,2,1,3,C,,,,,,,, , ,,,,,,,,,,,,,,,,,2617,,,,104.1,1500,100,85,5,5,3,10,,,,,,, ,
X,4,25,2022,2612,130603,42.2417,-70.5165,179,446,2,2,4,5,1,2,1,3,C,,,,,,,, , ,,,,,,,,,,,,,,,,,2618,,,,105.1,1500,100,85,5,5,3,10,,,,,,, ,
Z,4,25,2022,2613,130604,42.2412,-70.5165,180,445,2,2,4,5,1,2,1,3,C,,,,,,,, , ,,,,,,,,,,,,,,,,,2619,,,,105.3,1500,100,85,5,5,3,10,,,,,,, ,
S,4,25,2022,2614,130608,42.2392,-70.5165,180,444,2,2,4,5,1,2,1,3,C,71,,28,UNDO,5,,,2,3,2,,,,,,,,,,,,,,,,2620,,,,105.2,1500,100,85,5,5,3,10,,,,,,, ,
X,4,25,2022,2615,130613,42.2368,-70.5165,179,444,2,2,4,5,1,2,1,3,C,,,,,,,, , ,,,,,,,,,,,,,,,,,2621,,,,104.5,1500,100,85,5,5,3,10,,,,,,, ,
S,4,25,2022,2616,130618,42.2344,-70.5165,178,444,2,2,4,5,1,2,2,3,C,72,,,,,,, , ,,,,,,,,,,,,,,,,,2622,,,,104.3,1500,100,85,5,5,3,10,,,,,,, ,
X,4,25,2022,2617,130623,42.232,-70.5164,178,443,2,2,4,5,1,2,2,3,C,,,,,,,, , ,,,,,,,,,,,,,,,,,2623,,,,104,1500,100,85,5,5,3,10,,,,,,, ,
X,4,25,2022,2618,130628,42.2297,-70.5163,178,445,2,2,4,5,1,2,2,3,C,,,,,,,, , ,,,,,,,,,,,,,,,,,2624,,,,103.5,1500,100,85,5,5,3,10,,,,,,, ,
X,4,25,2022,2619,130633,42.2273,-70.5163,179,446,2,2,4,5,1,2,2,3,C,,,,,,,, , ,,,,,,,,,,,,,,,,,2625,,,,102.7,1500,100,85,5,5,3,10,,,,,,, ,
X,4,25,2022,2620,130638,42.2249,-70.5162,178,446,2,2,4,5,1,2,2,3,C,,,,,,,, , ,,,,,,,,,,,,,,,,,2626,,,,102.6,1500,100,85,5,5,3,10,,,,,,, ,
X,4,25,2022,2621,130643,42.2224,-70.5162,178,443,2,2,4,5,1,2,2,3,C,,,,,,,, , ,,,,,,,,,,,,,,,,,2627,,,,103.1,1500,100,85,5,5,3,10,,,,,,, ,
X,4,25,2022,2622,130648,42.22,-70.5161,181,442,2,2,4,5,1,2,2,3,C,,,,,,,, , ,,,,,,,,,,,,,,,,,2628,,,,103.5,1500,100,85,5,5,3,10,,,,,,, ,
X,4,25,2022,2623,130653,42.2177,-70.5162,181,444,2,2,4,5,1,2,2,3,C,,,,,,,, , ,,,,,,,,,,,,,,,,,2629,,,,102.4,1500,100,85,5,5,3,10,,,,,,, ,
Z,4,25,2022,2624,130654,42.2173,-70.5163,181,444,2,2,4,5,1,2,2,3,C,,,,,,,, , ,,,,,,,,,,,,,,,,,2630,,,,102.1,1500,100,85,5,5,3,10,,,,,,, ,
X,4,25,2022,2625,130658,42.2152,-70.5163,180,443,2,2,4,5,1,2,2,3,C,,,,,,,, , ,,,,,,,,,,,,,,,,,2631,,,,102.9,1500,100,85,5,5,3,10,,,,,,, ,
X,4,25,2022,2626,130703,42.2131,-70.5163,180,438,2,2,4,5,1,2,2,3,C,,,,,,,, , ,,,,,,,,,,,,,,,,,2632,,,,104.3,1500,100,85,5,5,3,10,,,,,,, ,
X,4,25,2022,2627,130708,42.2104,-70.5164,181,438,2,2,4,5,1,2,2,3,C,,,,,,,, , ,,,,,,,,,,,,,,,,,2633,,,,103.8,1500,100,85,5,5,3,10,,,,,,, ,
X,4,25,2022,2628,130713,42.208,-70.5165,182,439,2,2,4,5,1,2,2,3,C,,,,,,,, , ,,,,,,,,,,,,,,,,,2634,,,,103.2,1500,100,85,5,5,3,10,,,,,,, ,
X,4,25,2022,2629,130718,42.2057,-70.5166,181,439,2,2,4,5,1,2,2,3,C,,,,,,,, , ,,,,,,,,,,,,,,,,,2635,,,,103.2,1500,100,85,5,5,3,10,,,,,,, ,
X,4,25,2022,2630,130723,42.2034,-70.5167,180,440,2,2,4,5,1,2,2,3,C,,,,,,,, , ,,,,,,,,,,,,,,,,,2636,,,,102.4,1500,100,85,5,5,3,10,,,,,,, ,
X,4,25,2022,2631,130728,42.2011,-70.5167,179,440,2,2,4,5,1,2,2,3,C,,,,,,,, , ,,,,,,,,,,,,,,,,,2637,,,,101.7,1500,100,85,5,5,3,10,,,,,,, ,
X,4,25,2022,2632,130733,42.1987,-70.5167,179,435,2,2,4,5,1,2,2,3,C,,,,,,,, , ,,,,,,,,,,,,,,,,,2638,,,,103.4,1500,100,85,5,5,3,10,,,,,,, ,
X,4,25,2022,2633,130738,42.1963,-70.5166,179,432,2,2,4,5,1,2,2,3,C,,,,,,,, , ,,,,,,,,,,,,,,,,,2639,,,,104.3,1500,100,85,5,5,3,10,,,,,,, ,
X,4,25,2022,2634,130743,42.1937,-70.5166,180,430,2,2,4,5,1,2,2,3,C,,,,,,,, , ,,,,,,,,,,,,,,,,,2640,,,,104.6,1500,100,85,5,5,3,10,,,,,,, ,
Z,4,25,2022,2635,130744,42.1935,-70.5166,180,430,2,2,4,5,1,2,2,3,C,,,,,,,, , ,,,,,,,,,,,,,,,,,2641,,,,105,1500,100,85,5,5,3,10,,,,,,, ,
X,4,25,2022,2636,130748,42.1914,-70.5167,180,430,2,2,4,5,1,2,2,3,C,,,,,,,, , ,,,,,,,,,,,,,,,,,2642,,,,103.9,1500,100,85,5,5,3,10,,,,,,, ,
X,4,25,2022,2637,130753,42.1889,-70.5167,180,435,2,2,4,5,1,2,2,3,C,,,,,,,, , ,,,,,,,,,,,,,,,,,2643,,,,101.6,1500,100,85,5,5,3,10,,,,,,, ,
Z,4,25,2022,2638,130756,42.1875,-70.5167,180,434,2,2,4,5,1,2,2,3,C,,,,,,,, , ,,,,,,,,,,,,,,,,,2644,,,,101.9,1500,100,85,5,5,3,10,,,,,,, ,
X,4,25,2022,2639,130758,42.1869,-70.5167,179,434,2,2,4,5,1,2,2,3,C,,,,,,,, , ,,,,,,,,,,,,,,,,,2645,,,,101.9,1500,100,85,5,5,3,10,,,,,,, ,
X,4,25,2022,2640,130803,42.1842,-70.5167,179,439,2,2,4,5,1,2,2,3,C,,,,,,,, , ,,,,,,,,,,,,,,,,,2646,,,,99.8,1500,100,85,5,5,3,10,,,,,,, ,
X,4,25,2022,2641,130808,42.1819,-70.5167,180,444,2,2,4,5,1,2,2,3,C,,,,,,,, , ,,,,,,,,,,,,,,,,,2647,,,,98.5,1500,100,85,5,5,3,10,,,,,,, ,
X,4,25,2022,2642,130813,42.1796,-70.5167,179,446,2,2,4,5,1,2,2,3,C,,,,,,,, , ,,,,,,,,,,,,,,,,,2648,,,,98.5,1500,100,85,5,5,3,10,,,,,,, ,
X,4,25,2022,2643,130818,42.1774,-70.5167,179,445,2,2,4,5,1,2,2,3,C,,,,,,,, , ,,,,,,,,,,,,,,,,,2649,,,,98.9,1500,100,85,5,5,3,10,,,,,,, ,
X,4,25,2022,2644,130823,42.1753,-70.5166,179,442,2,2,4,5,1,2,2,3,C,,,,,,,, , ,,,,,,,,,,,,,,,,,2650,,,,100,1500,100,85,5,5,3,10,,,,,,, ,
X,4,25,2022,2645,130828,42.1728,-70.5166,179,438,2,2,4,5,1,2,2,3,C,,,,,,,, , ,,,,,,,,,,,,,,,,,2651,,,,102,1500,100,85,5,5,3,10,,,,,,, ,
X,4,25,2022,2646,130833,42.1703,-70.5165,179,435,2,2,4,5,1,2,2,3,C,,,,,,,, , ,,,,,,,,,,,,,,,,,2652,,,,103,1500,100,85,5,5,3,10,,,,,,, ,
Z,4,25,2022,2647,130833,42.1702,-70.5165,179,435,2,2,4,5,1,2,2,3,C,,,,,,,, , ,,,,,,,,,,,,,,,,,2653,,,,102.9,1500,100,85,5,5,3,10,,,,,,, ,
X,4,25,2022,2648,130838,42.1681,-70.5166,180,436,2,2,4,5,1,2,2,3,C,,,,,,,, , ,,,,,,,,,,,,,,,,,2654,,,,102.9,1500,100,85,5,5,3,10,,,,,,, ,
X,4,25,2022,2649,130843,42.1656,-70.5166,180,440,2,2,4,5,1,2,2,3,C,,,,,,,, , ,,,,,,,,,,,,,,,,,2655,,,,102.1,1500,100,85,5,5,3,10,,,,,,, ,
Z,4,25,2022,2650,130846,42.1643,-70.5166,179,442,2,2,4,5,1,2,2,3,C,,,,,,,, , ,,,,,,,,,,,,,,,,,2656,,,,101.6,1500,100,85,5,5,3,10,,,,,,, ,
X,4,25,2022,2651,130848,42.1633,-70.5166,179,442,2,2,4,5,1,2,2,3,C,,,,,,,, , ,,,,,,,,,,,,,,,,,2657,,,,101.5,1500,100,85,5,5,3,10,,,,,,, ,
X,4,25,2022,2652,130853,42.161,-70.5166,179,440,2,2,4,5,1,2,2,3,C,,,,,,,, , ,,,,,,,,,,,,,,,,,2658,,,,102.5,1500,100,85,5,5,3,10,,,,,,, ,
X,4,25,2022,2653,130858,42.1586,-70.5165,179,435,2,2,4,5,1,2,2,3,C,,,,,,,, , ,,,,,,,,,,,,,,,,,2659,,,,104.2,1500,100,85,5,5,3,10,,,,,,, ,
X,4,25,2022,2654,130903,42.156,-70.5166,180,437,2,2,4,5,1,2,2,3,C,,,,,,,, , ,,,,,,,,,,,,,,,,,2660,,,,103.7,1500,100,85,5,5,3,10,,,,,,, ,
X,4,25,2022,2655,130908,42.1537,-70.5166,181,443,2,2,4,5,1,2,2,3,C,,,,,,,, , ,,,,,,,,,,,,,,,,,2661,,,,102.1,1500,100,85,5,5,3,10,,,,,,, ,
X,4,25,2022,2656,130913,42.1513,-70.5167,180,445,2,2,4,5,1,2,2,3,C,,,,,,,, , ,,,,,,,,,,,,,,,,,2662,,,,101.5,1500,100,85,5,5,3,10,,,,,,, ,
X,4,25,2022,2657,130918,42.1491,-70.5168,181,445,2,2,4,5,1,2,2,3,C,,,,,,,, , ,,,,,,,,,,,,,,,,,2663,,,,101.9,1500,100,85,5,5,3,10,,,,,,, ,
X,4,25,2022,2658,130923,42.1466,-70.5168,181,448,2,2,4,5,1,2,2,3,C,,,,,,,, , ,,,,,,,,,,,,,,,,,2664,,,,100.6,1500,100,85,5,5,3,10,,,,,,, ,
Z,4,25,2022,2659,130923,42.1466,-70.5168,181,448,2,2,4,5,1,2,2,3,C,,,,,,,, , ,,,,,,,,,,,,,,,,,2665,,,,100.6,1500,100,85,5,5,3,10,,,,,,, ,
X,4,25,2022,2660,130928,42.1444,-70.5169,181,452,2,2,4,5,1,2,2,3,C,,,,,,,, , ,,,,,,,,,,,,,,,,,2666,,,,99.6,1500,100,85,5,5,3,10,,,,,,, ,
X,4,25,2022,2661,130933,42.142,-70.517,180,453,2,2,4,5,1,2,2,3,C,,,,,,,, , ,,,,,,,,,,,,,,,,,2667,,,,99.7,1500,100,85,5,5,3,10,,,,,,, ,
Z,4,25,2022,2662,130936,42.1409,-70.517,180,452,2,2,4,5,1,2,2,3,C,,,,,,,, , ,,,,,,,,,,,,,,,,,2668,,,,100.3,1500,100,85,5,5,3,10,,,,,,, ,
X,4,25,2022,2663,130938,42.1397,-70.517,180,450,2,2,4,5,1,2,2,3,C,,,,,,,, , ,,,,,,,,,,,,,,,,,2669,,,,101.1,1500,100,85,5,5,3,10,,,,,,, ,
X,4,25,2022,2664,130943,42.1373,-70.517,179,448,2,2,4,5,1,2,2,3,C,,,,,,,, , ,,,,,,,,,,,,,,,,,2670,,,,101.8,1500,100,85,5,5,3,10,,,,,,, ,
X,4,25,2022,2665,130948,42.135,-70.517,178,445,2,2,4,5,1,2,2,3,C,,,,,,,, , ,,,,,,,,,,,,,,,,,2671,,,,103.7,1500,100,85,5,5,3,10,,,,,,, ,
X,4,25,2022,2666,130953,42.1327,-70.5169,179,444,2,2,4,5,1,2,2,3,C,,,,,,,, , ,,,,,,,,,,,,,,,,,2672,,,,104.4,1500,100,85,5,5,3,10,,,,,,, ,
X,4,25,2022,2667,130958,42.1302,-70.5169,179,448,2,2,4,5,1,2,2,3,C,,,,,,,, , ,,,,,,,,,,,,,,,,,2673,,,,102.9,1500,100,85,5,5,3,10,,,,,,, ,
X,4,25,2022,2668,131003,42.1279,-70.5168,178,452,2,2,4,5,1,2,2,3,C,,,,,,,, , ,,,,,,,,,,,,,,,,,2674,,,,101.4,1500,100,85,5,5,3,10,,,,,,, ,
X,4,25,2022,2669,131008,42.1255,-70.5168,179,450,2,2,4,5,1,2,2,3,C,,,,,,,, , ,,,,,,,,,,,,,,,,,2675,,,,102.9,1500,100,85,5,5,3,10,,,,,,, ,
X,4,25,2022,2670,131013,42.123,-70.5168,180,447,2,2,4,5,1,2,2,3,C,,,,,,,, , ,,,,,,,,,,,,,,,,,2676,,,,103.8,1500,100,85,5,5,3,10,,,,,,, ,
Z,4,25,2022,2671,131017,42.1211,-70.5168,180,448,2,2,4,5,1,2,2,3,C,,,,,,,, , ,,,,,,,,,,,,,,,,,2677,,,,103,1500,100,85,5,5,3,10,,,,,,, ,
X,4,25,2022,2672,131018,42.1206,-70.5168,180,449,2,2,4,5,1,2,2,3,C,,,,,,,, , ,,,,,,,,,,,,,,,,,2678,,,,102.8,1500,100,85,5,5,3,10,,,,,,, ,
X,4,25,2022,2673,131023,42.1185,-70.5168,180,453,2,2,4,5,1,2,2,3,C,,,,,,,, , ,,,,,,,,,,,,,,,,,2679,,,,101.2,1500,100,85,5,5,3,10,,,,,,, ,
X,4,25,2022,2674,131028,42.1159,-70.5168,180,454,2,2,4,5,1,2,2,3,C,,,,,,,, , ,,,,,,,,,,,,,,,,,2680,,,,101.5,1500,100,85,5,5,3,10,,,,,,, ,
X,4,25,2022,2675,131033,42.1135,-70.5169,180,450,2,2,4,5,1,2,2,3,C,,,,,,,, , ,,,,,,,,,,,,,,,,,2681,,,,103.2,1500,100,85,5,5,3,10,,,,,,, ,
X,4,25,2022,2676,131038,42.1112,-70.5169,180,446,2,2,4,5,1,2,2,3,C,,,,,,,, , ,,,,,,,,,,,,,,,,,2682,,,,104.5,1500,100,85,5,5,3,10,,,,,,, ,
X,4,25,2022,2677,131043,42.1087,-70.5169,180,445,2,2,4,5,1,2,2,3,C,,,,,,,, , ,,,,,,,,,,,,,,,,,2683,,,,105,1500,100,85,5,5,3,10,,,,,,, ,
X,4,25,2022,2678,131048,42.1064,-70.517,180,445,2,2,4,5,1,2,2,3,C,,,,,,,, , ,,,,,,,,,,,,,,,,,2684,,,,104.9,1500,100,85,5,5,3,10,,,,,,, ,
X,4,25,2022,2679,131053,42.1039,-70.517,180,446,2,2,4,5,1,2,2,3,C,,,,,,,, , ,,,,,,,,,,,,,,,,,2685,,,,104.5,1500,100,85,5,5,3,10,,,,,,, ,
X,4,25,2022,2680,131058,42.1014,-70.517,179,445,2,2,4,5,1,2,2,3,C,,,,,,,, , ,,,,,,,,,,,,,,,,,2686,,,,105.1,1500,100,85,5,5,3,10,,,,,,, ,
Z,4,25,2022,2681,131059,42.1012,-70.517,179,445,2,2,4,5,1,2,2,3,C,,,,,,,, , ,,,,,,,,,,,,,,,,,2687,,,,105,1500,100,85,5,5,3,10,,,,,,, ,
S,4,25,2022,2682,131103,42.0991,-70.517,179,444,2,5,4,5,1,2,2,3,C,73,,,,,,, , ,,,,,,,,,,,,,,,,,2688,,,,105.6,1500,100,85,5,5,3,10,,,,,END LINE; DESCENDING TO 1000 FEET,, ,
X,4,25,2022,2683,131108,42.0965,-70.517,183,445,3,-,,5, , ,2,3,C,,,,,,,, , ,,,,,,,,,,,,,,,,,2689,,,,105.2,1000,100,85,5,5,3,10,,,,,,, ,
Z,4,25,2022,2684,131111,42.0952,-70.5172,191,444,3,-,,5, , ,2,3,C,,,,,,,, , ,,,,,,,,,,,,,,,,,2690,,,,104.9,1000,100,85,5,5,3,10,,,,,,, ,
X,4,25,2022,2685,131113,42.0943,-70.5176,198,441,3,-,,5, , ,2,3,C,,,,,,,, , ,,,,,,,,,,,,,,,,,2691,,,,104.9,1000,100,85,5,5,3,9,,,,,,, ,
X,4,25,2022,2686,131118,42.0921,-70.5191,217,424,3,-,,5, , ,2,3,C,,,,,,,, , ,,,,,,,,,,,,,,,,,2692,,,,107.3,1000,100,85,5,5,3,10,,,,,,, ,
X,4,25,2022,2687,131123,42.0903,-70.5218,236,397,3,-,,5, , ,2,3,C,,,,,,,, , ,,,,,,,,,,,,,,,,,2693,,,,112.1,1000,100,85,5,5,3,10,,,,,,, ,
X,4,25,2022,2688,131128,42.0892,-70.5249,247,381,3,-,,5, , ,2,3,C,,,,,,,, , ,,,,,,,,,,,,,,,,,2694,,,,112.7,1000,100,85,5,5,3,10,,,,,,, ,
X,4,25,2022,2689,131131,42.0892,-70.5249,247,381,3,-,,5, , ,2,3,C,,,,,,,, , ,,,,,,,,,,,,,,,,,2695,,,,112.7,1000,100,85,5,5,3,10,,,,,,, ,
X,4,25,2022,2690,131131,42.0892,-70.5249,247,381,3,-,,5, , ,2,3,C,,,,,,,, , ,,,,,,,,,,,,,,,,,2696,,,,112.7,1000,100,85,5,5,N,10,,,,,,, ,
X,4,25,2022,2691,131132,42.0892,-70.5249,247,381,3,-,,5, , ,2,3,C,,,,,,,,,,,,,,,,,,,,,,,,,,2697,,,,112.7,1000,100,85,5,5,N,10,,,,,,, ,
X,4,25,2022,2692,131132,42.0884,-70.5274,249,366,3,-,,5, , ,2,3,C,,,,,,,,,,,,,,,,,,,,,,,,,,2698,,,,113.5,1000,100,85,5,5,3,10,,,,,,, ,
X,4,25,2022,2693,131132,42.0884,-70.5274,249,366,3,-,,5, , ,2,3,C,,,,,,,, , ,,,,,,,,,,,,,,,,,2699,,,,113.5,1000,100,85,5,5,3,10,,,,,,, ,
X,4,25,2022,2694,131133,42.0884,-70.5274,249,366,3,-,,5, , ,2,3,C,,,,,,,, , ,,,,,,,,,,,,,,,,,2700,,,,113.5,1000,100,85,5,5,3,10,,,,,,, ,
X,4,25,2022,2695,131133,42.0882,-70.5282,250,361,3,-,,5, , ,2,3,C,,,,,,,, , ,,,,,,,,,,,,,,,,,2701,,,,114,1000,100,85,5,5,3,10,,,,,,, ,
X,4,25,2022,2696,131138,42.0874,-70.5316,252,345,3,-,,5, , ,2,3,C,,,,,,,, , ,,,,,,,,,,,,,,,,,2703,,,,113.7,1000,100,85,5,5,3,10,,,,,,, ,
X,4,25,2022,2697,131143,42.0867,-70.5348,253,332,3,-,,5, , ,2,3,C,,,,,,,, , ,,,,,,,,,,,,,,,,,2704,,,,112.3,1000,100,85,5,5,3,10,,,,,,, ,
X,4,25,2022,2698,131148,42.0856,-70.5381,233,314,3,-,,5, , ,2,3,C,,,,,,,, , ,,,,,,,,,,,,,,,,,2705,,,,109.3,1000,100,85,5,5,3,10,,,,,,, ,
Z,4,25,2022,2699,131149,42.0855,-70.5382,232,314,3,-,,5, , ,2,3,C,,,,,,,, , ,,,,,,,,,,,,,,,,,2706,,,,109.1,1000,100,85,5,5,3,9,,,,,,, ,
X,4,25,2022,2700,131153,42.0839,-70.5401,212,305,3,-,,5, , ,2,3,C,,,,,,,, , ,,,,,,,,,,,,,,,,,2707,,,,103.9,1000,100,85,5,5,3,9,,,,,,, ,
X,4,25,2022,2701,131158,42.0816,-70.5414,193,303,3,-,,5, , ,2,3,C,,,,,,,, , ,,,,,,,,,,,,,,,,,2708,,,,97.7,1000,100,85,5,5,3,10,,,,,,, ,
Z,4,25,2022,2702,131201,42.0805,-70.5416,186,300,3,-,,5, , ,2,3,C,,,,,,,, , ,,,,,,,,,,,,,,,,,2709,,,,96.6,1000,100,85,5,5,3,10,,,,,,, ,
X,4,25,2022,2703,131203,42.0793,-70.5417,178,295,3,-,,5, , ,2,3,C,,,,,,,, , ,,,,,,,,,,,,,,,,,2710,,,,96,1000,100,85,5,5,3,10,,,,,,, ,
X,4,25,2022,2704,131208,42.0772,-70.5412,160,289,3,-,,5, , ,2,3,C,,,,,,,, , ,,,,,,,,,,,,,,,,,2711,,,,94,1000,100,85,5,5,3,10,,,,,,, ,
X,4,25,2022,2705,131213,42.0755,-70.5401,146,291,3,-,,5, , ,2,3,C,,,,,,,, , ,,,,,,,,,,,,,,,,,2712,,,,92.3,1000,100,85,5,5,3,10,,,,,,, ,
X,4,25,2022,2706,131218,42.0739,-70.538,128,298,3,-,,5, , ,2,3,C,,,,,,,, , ,,,,,,,,,,,,,,,,,2713,,,,90.2,1000,100,85,5,5,3,10,,,,,,, ,
X,4,25,2022,2707,131223,42.0729,-70.5354,109,293,3,-,,5, , ,2,3,C,,,,,,,, , ,,,,,,,,,,,,,,,,,2714,,,,92.7,1000,100,85,5,5,3,10,,,,,,, ,
X,4,25,2022,2708,131228,42.0725,-70.5326,92,291,3,-,,5, , ,2,3,C,,,,,,,, , ,,,,,,,,,,,,,,,,,2715,,,,94.6,1000,100,85,5,5,3,10,,,,,,, ,
X,4,25,2022,2709,131233,42.0727,-70.5297,75,298,3,-,,5, , ,2,3,C,,,,,,,, , ,,,,,,,,,,,,,,,,,2716,,,,93.2,1000,100,85,5,5,3,10,,,,,,, ,
X,4,25,2022,2710,131238,42.0735,-70.5272,60,302,3,-,,5, , ,2,3,C,,,,,,,, , ,,,,,,,,,,,,,,,,,2717,,,,94.1,1000,100,85,5,5,3,10,,,,,,, ,
Z,4,25,2022,2711,131238,42.0735,-70.5272,60,302,3,-,,5, , ,2,3,C,,,,,,,, , ,,,,,,,,,,,,,,,,,2718,,,,94.1,1000,100,85,5,5,3,10,,,,,,, ,
X,4,25,2022,2712,131243,42.0749,-70.5247,48,301,3,-,,5, , ,2,3,C,,,,,,,, , ,,,,,,,,,,,,,,,,,2719,,,,96.4,1000,100,85,5,5,3,10,,,,,,, ,
S,4,25,2022,2713,131247,42.0759,-70.5231,46,302,3,-,,5, , ,2,3,C,74,,,RIWH,1,,,1,3,0,,,,,,,,,,,,,,,,2720,,,,96.6,1000,100,85,5,5,3,10,,,,,NO DEGREES WHILE BANKING BUT APPROX 2 MILES TO SSE OF PLANE,, ,
X,4,25,2022,2714,131248,42.0765,-70.5224,45,302,3,-,,5, , ,2,3,C,,,,,,,, , ,,,,,,,,,,,,,,,,,2721,,,,97.2,1000,100,85,5,5,3,10,,,,,,, ,
Z,4,25,2022,2715,131251,42.0773,-70.5213,37,301,3,-,,5, , ,2,3,C,,,,,,,, , ,,,,,,,,,,,,,,,,,2722,,,,98.5,1000,100,85,5,5,3,10,,,,,,, ,
X,4,25,2022,2716,131253,42.0783,-70.5205,26,302,3,-,,5, , ,2,3,C,,,,,,,, , ,,,,,,,,,,,,,,,,,2723,,,,99.7,1000,100,85,5,5,3,10,,,,,,, ,
X,4,25,2022,2717,131258,42.0805,-70.5195,13,307,3,-,,5, , ,2,3,C,,,,,,,, , ,,,,,,,,,,,,,,,,,2724,,,,99.7,1000,100,85,5,5,3,10,,,,,,, ,
X,4,25,2022,2718,131303,42.0826,-70.5189,10,312,3,-,,5, , ,2,3,C,,,,,,,, , ,,,,,,,,,,,,,,,,,2725,,,,99.8,1000,100,85,5,5,3,10,,,,,,, ,
X,4,25,2022,2719,131308,42.0851,-70.5186,2,306,3,-,,5, , ,2,3,C,,,,,,,, , ,,,,,,,,,,,,,,,,,2726,,,,103.5,1000,100,85,5,5,3,10,,,,,,, ,
X,4,25,2022,2720,131313,42.0869,-70.5185,2,302,3,-,,5, , ,2,3,C,,,,,,,, , ,,,,,,,,,,,,,,,,,2727,,,,104.8,1000,100,85,5,5,3,9,,,,,,, ,
X,4,25,2022,2721,131316,42.0887,-70.5183,6,295,3,-,,5, , ,2,3,C,,,,,,,, , ,,,,,,,,,,,,,,,,,2728,,,,106.2,1000,100,85,5,5,3,10,,,,,,, ,
X,4,25,2022,2722,131318,42.0898,-70.5181,6,291,3,-,,5, , ,2,3,C,,,,,,,, , ,,,,,,,,,,,,,,,,,2729,,,,107.2,1000,100,85,5,5,3,10,,,,,,, ,
X,4,25,2022,2723,131323,42.0923,-70.5179,359,290,3,-,,5, , ,2,3,C,,,,,,,, , ,,,,,,,,,,,,,,,,,2730,,,,107.4,1000,100,85,5,5,3,10,,,,,,, ,
X,4,25,2022,2724,131328,42.0949,-70.5179,359,286,3,-,,5, , ,2,3,C,,,,,,,, , ,,,,,,,,,,,,,,,,,2731,,,,107.1,1000,100,85,5,5,3,9,,,,,,, ,
Z,4,25,2022,2725,131332,42.0961,-70.5179,1,286,3,-,,5, , ,2,3,C,,,,,,,, , ,,,,,,,,,,,,,,,,,2732,,,,105.6,1000,100,85,5,5,3,10,,,,,,, ,
X,4,25,2022,2726,131333,42.0972,-70.5179,2,289,3,-,,5, , ,2,3,C,,,,,,,, , ,,,,,,,,,,,,,,,,,2733,,,,103.7,1000,100,85,5,5,3,10,,,,,,, ,
X,4,25,2022,2727,131338,42.0996,-70.5178,1,295,3,-,,5, , ,2,3,C,,,,,,,, , ,,,,,,,,,,,,,,,,,2734,,,,100.5,1000,100,85,5,5,3,9,,,,,,, ,
S,4,25,2022,2728,131340,42.1007,-70.5177,0,294,2,1,4,5,2,1,2,3,C,75,,,,,,, , ,,,,,,,,,,,,,,,,,2735,,,,100.3,1000,100,85,5,5,3,9,,,,,BEGIN LINE AT 1000 FEET,, ,
X,4,25,2022,2729,131343,42.102,-70.5177,359,293,2,2,4,5,2,1,2,3,C,,,,,,,, , ,,,,,,,,,,,,,,,,,2736,,,,99.9,1000,100,85,5,5,3,10,,,,,,, ,
X,4,25,2022,2730,131348,42.1043,-70.5178,358,295,2,2,4,5,2,1,2,3,C,,,,,,,, , ,,,,,,,,,,,,,,,,,2737,,,,98.4,1000,100,85,5,5,3,10,,,,,,, ,
X,4,25,2022,2731,131353,42.1066,-70.5179,0,296,2,2,4,5,2,1,2,3,C,,,,,,,, , ,,,,,,,,,,,,,,,,,2738,,,,96.6,1000,100,85,5,5,3,10,,,,,,, ,
X,4,25,2022,2732,131358,42.1088,-70.5178,1,296,2,2,4,5,2,1,2,3,C,,,,,,,, , ,,,,,,,,,,,,,,,,,2739,,,,95.6,1000,100,85,5,5,3,10,,,,,,, ,
X,4,25,2022,2733,131403,42.111,-70.5177,359,295,2,2,4,5,2,1,2,3,C,,,,,,,, , ,,,,,,,,,,,,,,,,,2740,,,,96.3,1000,100,85,5,5,3,10,,,,,,, ,
X,4,25,2022,2734,131408,42.1131,-70.5177,2,292,2,2,4,5,2,1,2,3,C,,,,,,,, , ,,,,,,,,,,,,,,,,,2741,,,,96.7,1000,100,85,5,5,3,10,,,,,,, ,
X,4,25,2022,2735,131409,42.1131,-70.5177,2,292,2,2,4,5,2,1,2,3,C,,,,,,,, , ,,,,,,,,,,,,,,,,,2742,,,,96.7,1000,100,85,5,5,3,10,,,,,,, ,
X,4,25,2022,2736,131413,42.1154,-70.5175,3,289,2,2,4,5,2,1,2,3,C,,,,,,,, , ,,,,,,,,,,,,,,,,,2743,,,,96.9,1000,100,85,5,5,3,10,,,,,,, ,
X,4,25,2022,2737,131418,42.1176,-70.5174,1,287,2,2,4,5,2,1,2,3,C,,,,,,,, , ,,,,,,,,,,,,,,,,,2744,,,,97.7,1000,100,85,5,5,3,10,,,,,,, ,
X,4,25,2022,2738,131423,42.1199,-70.5172,2,283,2,2,4,5,2,1,2,3,C,,,,,,,, , ,,,,,,,,,,,,,,,,,2745,,,,98.5,1000,100,85,5,5,3,9,,,,,,, ,
X,4,25,2022,2739,131428,42.1223,-70.5172,359,281,2,2,4,5,2,1,2,3,C,,,,,,,, , ,,,,,,,,,,,,,,,,,2746,,,,98.7,1000,100,85,5,5,3,10,,,,,,, ,
Z,4,25,2022,2740,131430,42.1232,-70.5172,359,281,2,2,4,5,2,1,2,3,C,,,,,,,, , ,,,,,,,,,,,,,,,,,2747,,,,98.3,1000,100,85,5,5,3,10,,,,,,, ,
X,4,25,2022,2741,131433,42.1243,-70.5172,359,282,2,2,4,5,2,1,2,3,C,,,,,,,, , ,,,,,,,,,,,,,,,,,2748,,,,97.4,1000,100,85,5,5,3,10,,,,,,, ,
X,4,25,2022,2742,131438,42.1266,-70.5172,0,285,2,2,4,5,2,1,2,3,C,,,,,,,, , ,,,,,,,,,,,,,,,,,2749,,,,96.2,1000,100,85,5,5,3,9,,,,,,, ,
X,4,25,2022,2743,131443,42.1289,-70.5172,1,281,2,2,4,5,2,1,2,3,C,,,,,,,, , ,,,,,,,,,,,,,,,,,2750,,,,97.1,1000,100,85,5,5,3,9,,,,,,, ,
X,4,25,2022,2744,131448,42.1312,-70.5171,1,280,2,2,4,5,2,1,2,3,C,,,,,,,, , ,,,,,,,,,,,,,,,,,2751,,,,97.1,1000,100,85,5,5,3,9,,,,,,, ,
X,4,25,2022,2745,131453,42.1334,-70.517,2,279,2,2,4,5,2,1,2,3,C,,,,,,,, , ,,,,,,,,,,,,,,,,,2752,,,,97.2,1000,100,85,5,5,3,9,,,,,,, ,
X,4,25,2022,2746,131458,42.1358,-70.5168,2,278,2,2,4,5,2,1,2,3,C,,,,,,,, , ,,,,,,,,,,,,,,,,,2753,,,,97.5,1000,100,85,5,5,3,10,,,,,,, ,
X,4,25,2022,2747,131503,42.1378,-70.5168,1,281,2,2,4,5,2,1,2,3,C,,,,,,,, , ,,,,,,,,,,,,,,,,,2754,,,,96,1000,100,85,5,5,3,9,,,,,,, ,
X,4,25,2022,2748,131508,42.14,-70.5167,1,287,2,2,4,5,2,1,2,3,C,,,,,,,, , ,,,,,,,,,,,,,,,,,2755,,,,94.1,1000,100,85,5,5,3,9,,,,,,, ,
X,4,25,2022,2749,131513,42.1424,-70.5166,0,284,2,2,4,5,2,1,2,3,C,,,,,,,, , ,,,,,,,,,,,,,,,,,2756,,,,96.5,1000,100,85,5,5,3,10,,,,,,, ,
Z,4,25,2022,2750,131516,42.1437,-70.5167,359,279,2,2,4,5,2,1,2,3,C,,,,,,,, , ,,,,,,,,,,,,,,,,,2757,,,,98.5,1000,100,85,5,5,3,10,,,,,,, ,
X,4,25,2022,2751,131518,42.1447,-70.5167,358,275,2,2,4,5,2,1,2,3,C,,,,,,,, , ,,,,,,,,,,,,,,,,,2758,,,,99.5,1000,100,85,5,5,3,10,,,,,,, ,
X,4,25,2022,2752,131523,42.147,-70.5167,0,277,2,2,4,5,2,1,2,3,C,,,,,,,, , ,,,,,,,,,,,,,,,,,2759,,,,98,1000,100,85,5,5,3,10,,,,,,, ,
X,4,25,2022,2753,131528,42.1493,-70.5167,1,284,2,2,4,5,2,1,2,3,C,,,,,,,, , ,,,,,,,,,,,,,,,,,2760,,,,95.5,1000,100,85,5,5,3,10,,,,,,, ,
X,4,25,2022,2754,131533,42.1514,-70.5166,1,289,2,2,4,5,2,1,2,3,C,,,,,,,, , ,,,,,,,,,,,,,,,,,2761,,,,93.4,1000,100,85,5,5,3,10,,,,,,, ,
X,4,25,2022,2755,131538,42.1534,-70.5165,0,292,2,2,4,5,2,1,2,3,C,,,,,,,, , ,,,,,,,,,,,,,,,,,2762,,,,93.2,1000,100,85,5,5,3,10,,,,,,, ,
X,4,25,2022,2756,131543,42.1557,-70.5166,359,287,2,2,4,5,2,1,2,3,C,,,,,,,, , ,,,,,,,,,,,,,,,,,2763,,,,94.8,1000,100,85,5,5,3,9,,,,,,, ,
X,4,25,2022,2757,131548,42.1579,-70.5165,2,281,2,2,4,5,2,1,2,3,C,,,,,,,, , ,,,,,,,,,,,,,,,,,2764,,,,96.6,1000,100,85,5,5,3,9,,,,,,, ,
X,4,25,2022,2758,131553,42.1601,-70.5164,1,281,2,2,4,5,2,1,2,3,C,,,,,,,, , ,,,,,,,,,,,,,,,,,2765,,,,97.3,1000,100,85,5,5,3,10,,,,,,, ,
S,4,25,2022,2759,131557,42.162,-70.5163,1,285,2,2,4,5,2,1,2,3,C,77,,49,UNDO,2,,,1,3,0,,,,,,,,,,,,,,,,2766,,,,97.1,1000,100,85,5,5,3,9,,,,,,, ,
X,4,25,2022,2760,131558,42.1624,-70.5163,1,285,2,2,4,5,2,1,2,3,C,,,,,,,, , ,,,,,,,,,,,,,,,,,2767,,,,97.1,1000,100,85,5,5,3,9,,,,,,, ,
X,4,25,2022,2761,131603,42.1648,-70.5163,358,283,2,2,4,5,2,1,2,3,C,,,,,,,, , ,,,,,,,,,,,,,,,,,2768,,,,99.8,1000,100,85,5,5,3,10,,,,,,, ,
Z,4,25,2022,2762,131606,42.1659,-70.5163,357,284,2,2,4,5,2,1,2,3,C,,,,,,,, , ,,,,,,,,,,,,,,,,,2769,,,,100.6,1000,100,85,5,5,3,10,,,,,,, ,
X,4,25,2022,2763,131608,42.167,-70.5164,359,285,2,2,4,5,2,1,2,3,C,,,,,,,, , ,,,,,,,,,,,,,,,,,2770,,,,99.8,1000,100,85,5,5,3,10,,,,,,, ,
X,4,25,2022,2764,131613,42.1694,-70.5163,1,291,2,2,4,5,2,1,2,3,C,,,,,,,, , ,,,,,,,,,,,,,,,,,2771,,,,99,1000,100,85,5,5,3,10,,,,,,, ,
X,4,25,2022,2765,131618,42.1717,-70.5163,1,297,2,2,4,5,2,1,2,3,C,,,,,,,, , ,,,,,,,,,,,,,,,,,2772,,,,97.9,1000,100,85,5,5,3,9,,,,,,, ,
X,4,25,2022,2766,131623,42.174,-70.5163,358,301,2,2,4,5,2,1,2,3,C,,,,,,,, , ,,,,,,,,,,,,,,,,,2773,,,,98.5,1000,100,85,5,5,3,10,,,,,,, ,
X,4,25,2022,2767,131628,42.1763,-70.5163,0,299,2,2,4,5,2,1,2,3,C,,,,,,,, , ,,,,,,,,,,,,,,,,,2774,,,,100,1000,100,85,5,5,3,9,,,,,,, ,
X,4,25,2022,2768,131633,42.1777,-70.5163,0,296,2,2,4,5,2,1,2,3,C,,,,,,,, , ,,,,,,,,,,,,,,,,,2775,,,,102.1,1000,100,85,5,5,3,9,,,,,,, ,
X,4,25,2022,2769,131638,42.1809,-70.5163,359,295,2,2,4,5,2,1,2,3,C,,,,,,,, , ,,,,,,,,,,,,,,,,,2776,,,,104.2,1000,100,85,5,5,3,10,,,,,,, ,
X,4,25,2022,2770,131643,42.1834,-70.5163,0,300,2,2,4,5,2,1,2,3,C,,,,,,,, , ,,,,,,,,,,,,,,,,,2777,,,,102.9,1000,100,85,5,5,3,9,,,,,,, ,
Z,4,25,2022,2771,131647,42.1853,-70.5163,0,303,2,2,4,5,2,1,2,3,C,,,,,,,, , ,,,,,,,,,,,,,,,,,2778,,,,101.3,1000,100,85,5,5,3,9,,,,,,, ,
X,4,25,2022,2772,131648,42.1856,-70.5163,0,304,2,2,4,5,2,1,2,3,C,,,,,,,, , ,,,,,,,,,,,,,,,,,2779,,,,101,1000,100,85,5,5,3,9,,,,,,, ,
X,4,25,2022,2773,131653,42.1881,-70.5163,359,306,2,2,4,5,2,1,2,3,C,,,,,,,, , ,,,,,,,,,,,,,,,,,2780,,,,99.8,1000,100,85,5,5,3,9,,,,,,, ,
Z,4,25,2022,2774,131655,42.1888,-70.5163,359,306,2,2,4,5,2,1,2,3,C,,,,,,,, , ,,,,,,,,,,,,,,,,,2781,,,,99.5,1000,100,85,5,5,3,10,,,,,,, ,
X,4,25,2022,2775,131658,42.1904,-70.5163,358,307,2,2,4,5,2,1,2,3,C,,,,,,,, , ,,,,,,,,,,,,,,,,,2782,,,,98.7,1000,100,85,5,5,3,10,,,,,,, ,
X,4,25,2022,2776,131703,42.1924,-70.5164,0,309,2,2,4,5,2,1,2,3,C,,,,,,,, , ,,,,,,,,,,,,,,,,,2783,,,,97.6,1000,100,85,5,5,3,9,,,,,,, ,
X,4,25,2022,2777,131708,42.1948,-70.5163,359,306,2,2,4,5,2,1,2,3,C,,,,,,,, , ,,,,,,,,,,,,,,,,,2784,,,,97.7,1000,100,85,5,5,3,9,,,,,,, ,
X,4,25,2022,2778,131713,42.1971,-70.5164,359,301,2,2,4,5,2,1,2,3,C,,,,,,,, , ,,,,,,,,,,,,,,,,,2785,,,,98.6,1000,100,85,5,5,3,9,,,,,,, ,
X,4,25,2022,2779,131718,42.1994,-70.5164,0,299,2,2,4,5,2,1,2,3,C,,,,,,,, , ,,,,,,,,,,,,,,,,,2786,,,,98.6,1000,100,85,5,5,3,9,,,,,,, ,
X,4,25,2022,2780,131723,42.2016,-70.5164,359,300,2,2,4,5,2,1,2,3,C,,,,,,,, , ,,,,,,,,,,,,,,,,,2787,,,,97.3,1000,100,85,5,5,3,9,,,,,,, ,
X,4,25,2022,2781,131728,42.204,-70.5164,359,298,2,2,4,5,2,1,2,3,C,,,,,,,, , ,,,,,,,,,,,,,,,,,2788,,,,96.8,1000,100,85,5,5,3,9,,,,,,, ,
X,4,25,2022,2782,131733,42.2061,-70.5164,1,297,2,2,4,5,2,1,2,3,C,,,,,,,, , ,,,,,,,,,,,,,,,,,2789,,,,97,1000,100,85,5,5,3,9,,,,,,, ,
X,4,25,2022,2783,131738,42.2084,-70.5163,0,299,2,2,4,5,2,1,2,3,C,,,,,,,, , ,,,,,,,,,,,,,,,,,2790,,,,96.5,1000,100,85,5,5,3,10,,,,,,, ,
X,4,25,2022,2784,131743,42.2107,-70.5163,359,301,2,2,4,5,2,1,2,3,C,,,,,,,, , ,,,,,,,,,,,,,,,,,2791,,,,95.7,1000,100,85,5,5,3,9,,,,,,, ,
Z,4,25,2022,2785,131745,42.2117,-70.5163,0,299,2,2,4,5,2,1,2,3,C,,,,,,,, , ,,,,,,,,,,,,,,,,,2792,,,,95.9,1000,100,85,5,5,3,9,,,,,,, ,
X,4,25,2022,2786,131748,42.2129,-70.5163,2,297,2,2,4,5,2,1,2,3,C,,,,,,,, , ,,,,,,,,,,,,,,,,,2793,,,,96.1,1000,100,85,5,5,3,9,,,,,,, ,
X,4,25,2022,2787,131753,42.2152,-70.5162,0,298,2,2,4,5,2,1,2,3,C,,,,,,,, , ,,,,,,,,,,,,,,,,,2794,,,,96.8,1000,100,85,5,5,3,10,,,,,,, ,
X,4,25,2022,2788,131758,42.2174,-70.5163,359,299,2,2,4,5,2,1,2,3,C,,,,,,,, , ,,,,,,,,,,,,,,,,,2795,,,,96.9,1000,100,85,5,5,3,9,,,,,,, ,
X,4,25,2022,2789,131803,42.2197,-70.5163,0,295,2,2,4,5,2,1,2,3,C,,,,,,,, , ,,,,,,,,,,,,,,,,,2796,,,,98,1000,100,85,5,5,3,9,,,,,,, ,
X,4,25,2022,2790,131808,42.2213,-70.5163,359,294,2,2,4,5,2,1,2,3,C,,,,,,,, , ,,,,,,,,,,,,,,,,,2797,,,,98.1,1000,100,85,5,5,3,9,,,,,,, ,
X,4,25,2022,2791,131813,42.2241,-70.5164,358,297,2,2,4,5,2,1,2,3,C,,,,,,,, , ,,,,,,,,,,,,,,,,,2798,,,,96.9,1000,100,85,5,5,3,9,,,,,,, ,
X,4,25,2022,2792,131818,42.2263,-70.5164,0,296,2,2,4,5,2,1,2,3,C,,,,,,,, , ,,,,,,,,,,,,,,,,,2799,,,,96.6,1000,100,85,5,5,3,9,,,,,,, ,
X,4,25,2022,2793,131823,42.2286,-70.5163,0,298,2,2,4,5,2,1,2,3,C,,,,,,,, , ,,,,,,,,,,,,,,,,,2800,,,,95.6,1000,100,85,5,5,3,9,,,,,,, ,
X,4,25,2022,2794,131828,42.2308,-70.5163,0,299,2,2,4,5,2,1,2,3,C,,,,,,,, , ,,,,,,,,,,,,,,,,,2801,,,,96,1000,100,85,5,5,3,9,,,,,,, ,
X,4,25,2022,2795,131833,42.2331,-70.5163,0,298,2,2,4,5,2,1,2,3,C,,,,,,,, , ,,,,,,,,,,,,,,,,,2802,,,,96.2,1000,100,85,5,5,3,10,,,,,,, ,
Z,4,25,2022,2796,131835,42.2339,-70.5163,0,298,2,2,4,5,2,1,2,3,C,,,,,,,, , ,,,,,,,,,,,,,,,,,2803,,,,96.6,1000,100,85,5,5,3,9,,,,,,, ,
X,4,25,2022,2797,131838,42.235,-70.5163,0,297,2,2,4,5,2,1,2,3,C,,,,,,,, , ,,,,,,,,,,,,,,,,,2804,,,,96.9,1000,100,85,5,5,3,10,,,,,,, ,
X,4,25,2022,2798,131843,42.2375,-70.5162,0,297,2,2,4,5,2,1,2,3,C,,,,,,,, , ,,,,,,,,,,,,,,,,,2805,,,,97.1,1000,100,85,5,5,3,9,,,,,,, ,
X,4,25,2022,2799,131848,42.2398,-70.5162,0,298,2,2,4,5,2,1,2,3,C,,,,,,,, , ,,,,,,,,,,,,,,,,,2806,,,,97,1000,100,85,5,5,3,10,,,,,,, ,
X,4,25,2022,2800,131853,42.2421,-70.5162,1,300,2,2,4,5,2,1,2,3,C,,,,,,,, , ,,,,,,,,,,,,,,,,,2807,,,,96.3,1000,100,85,5,5,3,9,,,,,,, ,
X,4,25,2022,2801,131858,42.2443,-70.5161,0,301,2,2,4,5,2,1,2,3,C,,,,,,,, , ,,,,,,,,,,,,,,,,,2808,,,,96.2,1000,100,85,5,5,3,10,,,,,,, ,
X,4,25,2022,2802,131903,42.2463,-70.5161,359,302,2,2,4,5,2,1,2,3,C,,,,,,,, , ,,,,,,,,,,,,,,,,,2809,,,,96.5,1000,100,85,5,5,3,9,,,,,,, ,
X,4,25,2022,2803,131908,42.2487,-70.5161,359,301,2,2,4,5,2,1,2,3,C,,,,,,,, , ,,,,,,,,,,,,,,,,,2810,,,,97.5,1000,100,85,5,5,3,9,,,,,,, ,
X,4,25,2022,2804,131913,42.2509,-70.5162,359,301,2,2,4,5,2,1,2,3,C,,,,,,,, , ,,,,,,,,,,,,,,,,,2811,,,,97.4,1000,100,85,5,5,3,10,,,,,,, ,
X,4,25,2022,2805,131918,42.2532,-70.5162,359,302,2,2,4,5,2,1,2,3,C,,,,,,,, , ,,,,,,,,,,,,,,,,,2812,,,,97,1000,100,85,5,5,3,9,,,,,,, ,
X,4,25,2022,2806,131923,42.2555,-70.5162,359,304,2,2,4,5,2,1,2,3,C,,,,,,,, , ,,,,,,,,,,,,,,,,,2813,,,,96.6,1000,100,85,5,5,3,9,,,,,,, ,
Z,4,25,2022,2807,131925,42.2562,-70.5162,358,304,2,2,4,5,2,1,2,3,C,,,,,,,, , ,,,,,,,,,,,,,,,,,2814,,,,96.4,1000,100,85,5,5,3,9,,,,,,, ,
X,4,25,2022,2808,131928,42.2578,-70.5163,359,303,2,2,4,5,2,1,2,3,C,,,,,,,, , ,,,,,,,,,,,,,,,,,2815,,,,96.7,1000,100,85,5,5,3,9,,,,,,, ,
X,4,25,2022,2809,131933,42.2598,-70.5163,359,300,2,2,4,5,2,1,2,3,C,,,,,,,, , ,,,,,,,,,,,,,,,,,2816,,,,98,1000,100,85,5,5,3,9,,,,,,, ,
X,4,25,2022,2810,131938,42.2621,-70.5163,0,298,2,2,4,5,2,1,2,3,C,,,,,,,, , ,,,,,,,,,,,,,,,,,2817,,,,98.3,1000,100,85,5,5,3,9,,,,,,, ,
X,4,25,2022,2811,131943,42.2645,-70.5163,1,301,2,2,4,5,2,1,2,3,C,,,,,,,, , ,,,,,,,,,,,,,,,,,2818,,,,97.5,1000,100,85,5,5,3,10,,,,,,, ,
X,4,25,2022,2812,131948,42.2667,-70.5162,0,303,2,2,4,5,2,1,2,3,C,,,,,,,, , ,,,,,,,,,,,,,,,,,2819,,,,96.7,1000,100,85,5,5,3,10,,,,,,, ,
S,4,25,2022,2813,131952,42.2674,-70.5162,359,304,2,2,4,5,2,1,2,3,C,78,,36,UNSE,1,,,1,3,0,,,,,,,,,,,,,,,,2820,,,,96.9,1000,100,85,5,5,3,10,,,,,,, ,
X,4,25,2022,2814,131953,42.269,-70.5162,358,303,2,2,4,5,2,1,2,3,C,,,,,,,, , ,,,,,,,,,,,,,,,,,2821,,,,98,1000,100,85,5,5,3,9,,,,,,, ,
X,4,25,2022,2815,131958,42.2709,-70.5163,358,299,2,2,4,5,2,1,2,3,C,,,,,,,, , ,,,,,,,,,,,,,,,,,2822,,,,99.4,1000,100,85,5,5,3,9,,,,,,, ,
P,4,25,2022,2816,132003,42.2732,-70.5164,358,297,2,2,4,5,2,1,2,3,C,79,45,,FIWH,1,,,1,3,0,,,,,,,,,,,,,,,,2823,,,,100.2,1000,100,85,5,5,3,9,,,,,,, ,
X,4,25,2022,2817,132003,42.2736,-70.5164,358,297,2,2,4,5,2,1,2,3,C,,,,,,,, , ,,,,,,,,,,,,,,,,,2824,,,,100.2,1000,100,85,5,5,3,10,,,,,,, ,
X,4,25,2022,2818,132008,42.276,-70.5165,357,298,2,2,4,5,2,1,2,3,C,,,,,,,, , ,,,,,,,,,,,,,,,,,2825,,,,100.4,1000,100,85,5,5,3,9,,,,,,, ,
Z,4,25,2022,2819,132010,42.2771,-70.5166,356,299,2,2,4,5,2,1,2,3,C,,,,,,,, , ,,,,,,,,,,,,,,,,,2826,,,,100.2,1000,100,85,5,5,3,9,,,,,,, ,
X,4,25,2022,2820,132013,42.2783,-70.5166,357,300,2,2,4,5,2,1,2,3,C,,,,,,,, , ,,,,,,,,,,,,,,,,,2827,,,,99.9,1000,100,85,5,5,3,9,,,,,,, ,
X,4,25,2022,2821,132018,42.2806,-70.5167,359,301,2,2,4,5,2,1,2,3,C,,,,,,,, , ,,,,,,,,,,,,,,,,,2828,,,,99.2,1000,100,85,5,5,3,9,,,,,,, ,
X,4,25,2022,2822,132023,42.2829,-70.5167,359,303,2,2,4,5,2,1,2,3,C,,,,,,,, , ,,,,,,,,,,,,,,,,,2829,,,,99.2,1000,100,85,5,5,3,9,,,,,,, ,
X,4,25,2022,2823,132028,42.2852,-70.5167,1,303,2,2,4,5,2,1,2,3,C,,,,,,,, , ,,,,,,,,,,,,,,,,,2830,,,,99.6,1000,100,85,5,5,3,10,,,,,,, ,
X,4,25,2022,2824,132033,42.2873,-70.5166,1,302,2,2,4,5,2,1,2,3,C,,,,,,,, , ,,,,,,,,,,,,,,,,,2831,,,,100.3,1000,100,85,5,5,3,10,,,,,,, ,
X,4,25,2022,2825,132038,42.2898,-70.5165,0,299,2,2,4,5,2,1,2,3,C,,,,,,,, , ,,,,,,,,,,,,,,,,,2832,,,,101.6,1000,100,85,5,5,3,9,,,,,,, ,
X,4,25,2022,2826,132043,42.2921,-70.5165,1,299,2,2,4,5,2,1,2,3,C,,,,,,,, , ,,,,,,,,,,,,,,,,,2833,,,,102.1,1000,100,85,5,5,3,10,,,,,,, ,
X,4,25,2022,2827,132048,42.2945,-70.5165,359,300,2,2,4,5,2,1,2,3,C,,,,,,,, , ,,,,,,,,,,,,,,,,,2834,,,,102.4,1000,100,85,5,5,3,10,,,,,,, ,
X,4,25,2022,2828,132053,42.2969,-70.5165,359,301,2,2,4,5,2,1,2,3,C,,,,,,,, , ,,,,,,,,,,,,,,,,,2835,,,,102.2,1000,100,85,5,5,3,9,,,,,,, ,
X,4,25,2022,2829,132058,42.2993,-70.5166,358,301,2,2,4,5,2,1,2,3,C,,,,,,,, , ,,,,,,,,,,,,,,,,,2836,,,,102.6,1000,100,85,5,5,3,10,,,,,,, ,
Z,4,25,2022,2830,132100,42.3003,-70.5166,359,301,2,2,4,5,2,1,2,3,C,,,,,,,, , ,,,,,,,,,,,,,,,,,2837,,,,102.6,1000,100,85,5,5,3,10,,,,,,, ,
X,4,25,2022,2831,132103,42.3018,-70.5166,359,301,2,2,4,5,2,1,2,3,C,,,,,,,, , ,,,,,,,,,,,,,,,,,2838,,,,102.6,1000,100,85,5,5,3,9,,,,,,, ,
X,4,25,2022,2832,132108,42.3041,-70.5166,359,298,2,2,4,5,2,1,2,3,C,,,,,,,, , ,,,,,,,,,,,,,,,,,2839,,,,103.9,1000,100,85,5,5,3,10,,,,,,, ,
X,4,25,2022,2833,132113,42.3066,-70.5166,359,294,2,2,4,5,2,1,2,3,C,,,,,,,, , ,,,,,,,,,,,,,,,,,2840,,,,105.4,1000,100,85,5,5,3,10,,,,,,, ,
X,4,25,2022,2834,132118,42.309,-70.5166,0,291,2,2,4,5,2,1,2,3,C,,,,,,,, , ,,,,,,,,,,,,,,,,,2841,,,,106.1,1000,100,85,5,5,3,9,,,,,,, ,
X,4,25,2022,2835,132123,42.3115,-70.5166,0,295,2,2,4,5,2,1,2,3,C,,,,,,,, , ,,,,,,,,,,,,,,,,,2842,,,,104,1000,100,85,5,5,3,10,,,,,,, ,
X,4,25,2022,2836,132128,42.3138,-70.5166,359,297,2,2,4,5,2,1,2,3,C,,,,,,,, , ,,,,,,,,,,,,,,,,,2843,,,,103.9,1000,100,85,5,5,3,10,,,,,,, ,
X,4,25,2022,2837,132133,42.3162,-70.5166,359,293,2,2,4,5,2,1,2,3,C,,,,,,,, , ,,,,,,,,,,,,,,,,,2844,,,,105.7,1000,100,85,5,5,3,9,,,,,,, ,
X,4,25,2022,2838,132138,42.3185,-70.5166,0,292,2,2,4,5,2,1,2,3,C,,,,,,,, , ,,,,,,,,,,,,,,,,,2845,,,,105.8,1000,100,85,5,5,3,10,,,,,,, ,
X,4,25,2022,2839,132143,42.3211,-70.5166,0,294,2,2,4,5,2,1,2,3,C,,,,,,,, , ,,,,,,,,,,,,,,,,,2846,,,,105.3,1000,100,85,5,5,3,10,,,,,,, ,
S,4,25,2022,2840,132147,42.3223,-70.5165,0,294,2,2,4,5,2,1,2,3,C,80,,33,UNSE,1,,,1,3,0,,,,,,,,,,,,,,,,2847,,,,105,1000,100,85,5,5,3,10,,,,,,, ,
X,4,25,2022,2841,132148,42.3236,-70.5165,359,294,2,2,4,5,2,1,2,3,C,,,,,,,, , ,,,,,,,,,,,,,,,,,2848,,,,104.8,1000,100,85,5,5,3,9,,,,,,, ,
Z,4,25,2022,2842,132150,42.3245,-70.5165,359,293,2,2,4,5,2,1,2,3,C,,,,,,,, , ,,,,,,,,,,,,,,,,,2849,,,,105.1,1000,100,85,5,5,3,10,,,,,,, ,
X,4,25,2022,2843,132153,42.3261,-70.5166,359,291,2,2,4,5,2,1,2,3,C,,,,,,,, , ,,,,,,,,,,,,,,,,,2850,,,,105.7,1000,100,85,5,5,3,9,,,,,,, ,
X,4,25,2022,2844,132158,42.3284,-70.5166,359,286,2,2,4,5,2,1,2,3,C,,,,,,,, , ,,,,,,,,,,,,,,,,,2851,,,,106.2,1000,100,85,5,5,3,10,,,,,,, ,
X,4,25,2022,2845,132203,42.3307,-70.5166,0,281,2,2,4,5,2,1,2,3,C,,,,,,,, , ,,,,,,,,,,,,,,,,,2852,,,,106.4,1000,100,85,5,5,3,10,,,,,,, ,
X,4,25,2022,2846,132208,42.3333,-70.5166,359,287,2,2,4,5,2,1,2,3,C,,,,,,,, , ,,,,,,,,,,,,,,,,,2853,,,,102.7,1000,100,85,5,5,3,9,,,,,,, ,
X,4,25,2022,2847,132213,42.3356,-70.5166,358,290,2,2,4,5,2,1,2,3,C,,,,,,,, , ,,,,,,,,,,,,,,,,,2854,,,,100.5,1000,100,85,5,5,3,9,,,,,,, ,
X,4,25,2022,2848,132218,42.3381,-70.5167,358,286,2,2,4,5,2,1,2,3,C,,,,,,,, , ,,,,,,,,,,,,,,,,,2855,,,,101,1000,100,85,5,5,3,10,,,,,,, ,
X,4,25,2022,2849,132223,42.3402,-70.5168,359,283,2,2,4,5,2,1,2,3,C,,,,,,,, , ,,,,,,,,,,,,,,,,,2856,,,,100.8,1000,100,85,5,5,3,9,,,,,,, ,
X,4,25,2022,2850,132228,42.3424,-70.5168,359,285,2,2,4,5,2,1,2,3,C,,,,,,,, , ,,,,,,,,,,,,,,,,,2857,,,,99.8,1000,100,85,5,5,3,10,,,,,,, ,
X,4,25,2022,2851,132233,42.3448,-70.5168,0,283,2,2,4,5,2,1,2,3,C,,,,,,,, , ,,,,,,,,,,,,,,,,,2858,,,,99.9,1000,100,85,5,5,3,9,,,,,,, ,
X,4,25,2022,2852,132238,42.3473,-70.5168,0,286,2,2,4,5,2,1,2,3,C,,,,,,,, , ,,,,,,,,,,,,,,,,,2859,,,,98.1,1000,100,85,5,5,3,10,,,,,,, ,
Z,4,25,2022,2853,132240,42.3479,-70.5168,0,287,2,2,4,5,2,1,2,3,C,,,,,,,, , ,,,,,,,,,,,,,,,,,2860,,,,97.6,1000,100,85,5,5,3,10,,,,,,, ,
X,4,25,2022,2854,132243,42.3496,-70.5168,1,288,2,2,4,5,2,1,2,3,C,,,,,,,, , ,,,,,,,,,,,,,,,,,2861,,,,97.1,1000,100,85,5,5,3,10,,,,,,, ,
X,4,25,2022,2855,132248,42.3519,-70.5167,0,286,2,2,4,5,2,1,2,3,C,,,,,,,, , ,,,,,,,,,,,,,,,,,2862,,,,98.4,1000,100,85,5,5,3,10,,,,,,, ,
X,4,25,2022,2856,132253,42.3542,-70.5167,0,287,2,2,4,5,2,1,2,3,C,,,,,,,, , ,,,,,,,,,,,,,,,,,2863,,,,98.5,1000,100,85,5,5,3,10,,,,,,, ,
X,4,25,2022,2857,132258,42.3559,-70.5167,0,289,2,2,4,5,2,1,2,3,C,,,,,,,, , ,,,,,,,,,,,,,,,,,2864,,,,98.6,1000,100,85,5,5,3,10,,,,,,, ,
X,4,25,2022,2858,132303,42.3586,-70.5167,0,289,2,2,4,5,2,1,2,3,C,,,,,,,, , ,,,,,,,,,,,,,,,,,2865,,,,99.5,1000,100,85,5,5,3,10,,,,,,, ,
X,4,25,2022,2859,132308,42.3609,-70.5167,359,291,2,2,4,5,2,1,2,3,C,,,,,,,, , ,,,,,,,,,,,,,,,,,2866,,,,99.5,1000,100,85,5,5,3,10,,,,,,, ,
X,4,25,2022,2860,132313,42.3632,-70.5167,359,295,2,2,4,5,2,1,2,3,C,,,,,,,, , ,,,,,,,,,,,,,,,,,2867,,,,99.1,1000,100,85,5,5,3,10,,,,,,, ,
X,4,25,2022,2861,132318,42.3655,-70.5167,0,297,2,2,4,5,2,1,2,3,C,,,,,,,, , ,,,,,,,,,,,,,,,,,2868,,,,98.2,1000,100,85,5,5,3,10,,,,,,, ,
X,4,25,2022,2862,132323,42.3678,-70.5167,0,298,2,2,4,5,2,1,2,3,C,,,,,,,, , ,,,,,,,,,,,,,,,,,2869,,,,98.6,1000,100,85,5,5,3,10,,,,,,, ,
X,4,25,2022,2863,132328,42.37,-70.5167,1,298,2,2,4,5,2,1,2,3,C,,,,,,,, , ,,,,,,,,,,,,,,,,,2870,,,,98.9,1000,100,85,5,5,3,10,,,,,,, ,
Z,4,25,2022,2864,132330,42.3709,-70.5166,1,299,2,2,4,5,2,1,2,3,C,,,,,,,, , ,,,,,,,,,,,,,,,,,2871,,,,98.8,1000,100,85,5,5,3,10,,,,,,, ,
X,4,25,2022,2865,132333,42.3725,-70.5166,1,300,2,2,4,5,2,1,2,3,C,,,,,,,, , ,,,,,,,,,,,,,,,,,2872,,,,98.3,1000,100,85,5,5,3,10,,,,,,, ,
X,4,25,2022,2866,132338,42.3748,-70.5165,0,303,2,2,4,5,2,1,2,3,C,,,,,,,, , ,,,,,,,,,,,,,,,,,2873,,,,98,1000,100,85,5,5,3,10,,,,,,, ,
X,4,25,2022,2867,132343,42.377,-70.5164,2,302,2,2,4,5,2,1,2,3,C,,,,,,,, , ,,,,,,,,,,,,,,,,,2874,,,,97.2,1000,100,85,5,5,3,10,,,,,,, ,
X,4,25,2022,2868,132348,42.3793,-70.5164,359,298,2,2,4,5,2,1,2,3,C,,,,,,,, , ,,,,,,,,,,,,,,,,,2875,,,,99.9,1000,100,85,5,5,3,10,,,,,,, ,
X,4,25,2022,2869,132353,42.3813,-70.5164,359,293,2,2,4,5,2,1,2,3,C,,,,,,,, , ,,,,,,,,,,,,,,,,,2876,,,,101.1,1000,100,85,5,5,3,10,,,,,,, ,
X,4,25,2022,2870,132358,42.3839,-70.5164,359,292,2,2,4,5,2,1,2,3,C,,,,,,,, , ,,,,,,,,,,,,,,,,,2877,,,,100.7,1000,100,85,5,5,3,10,,,,,,, ,
