rectype,month,day,year,eventno,time,lat,long,heading,alt,legtype,legstage,legno,visiblty,glarel,glarer,beaufort,cloud,wx,sightno,anglel,angler,speccode,number,numcalf,anhead,photos,idrel,confidnc,behav1,behav2,behav3,behav4,behav5,behav6,behav7,behav8,behav9,behav10,behav11,behav12,behav13,behav14,behav15,refno,stratum,utc,radalt,gpsspeed,setalt,setvel,lensfl,ggf,int,gpsq,gpssats,roll,pitch,yaw,maghead,notes,edits,glarev,ph_qual
S,5,25,2022,386,91517,41.2851,-70.2723,138,322,1,-,,5, , ,3,2,C,3,,,,,,, , ,,,,,,,,,,,,,,,,,464,,,,91.9,1000,100,85,5,5,3,10,,,,,ON WATCH,, ,
Z,5,25,2022,387,91521,41.2837,-70.2706,138,322,1,-,,5, , ,3,2,C,,,,,,,, , ,,,,,,,,,,,,,,,,,389,,,,94.1,1000,100,85,5,5,3,8,,,,,,, ,
X,5,25,2022,388,91525,41.2824,-70.2692,138,318,1,-,,5, , ,3,2,C,,,,,,,, , ,,,,,,,,,,,,,,,,,390,,,,94.8,1000,100,85,5,5,3,8,,,,,,, ,
X,5,25,2022,389,91530,41.2808,-70.2673,139,317,1,-,,5, , ,3,2,C,,,,,,,, , ,,,,,,,,,,,,,,,,,391,,,,94.2,1000,100,85,5,5,3,8,,,,,,, ,
X,5,25,2022,390,91535,41.2791,-70.2654,137,312,1,-,,5, , ,3,2,C,,,,,,,, , ,,,,,,,,,,,,,,,,,392,,,,95.2,1000,100,85,5,5,3,8,,,,,,, ,
P,5,25,2022,391,91539,41.2782,-70.2643,137,311,1,-,,5, , ,3,2,C,4,10,,UNSE,75,,,1,3,5,76,,,,,,,,,,,,,,,393,,,,95.1,1000,100,85,5,5,3,8,,,,,HAULED OUT ON TUCKERNUCK,, ,
X,5,25,2022,392,91539,41.2777,-70.2637,137,312,1,-,,5, , ,3,2,C,,,,,,,, , ,,,,,,,,,,,,,,,,,394,,,,94.7,1000,100,85,5,5,3,8,,,,,,, ,
X,5,25,2022,393,91540,41.2775,-70.2634,137,313,1,-,,5, , ,3,2,C,,,,,,,, , ,,,,,,,,,,,,,,,,,395,,,,94.1,1000,100,85,5,5,3,8,,,,,,, ,
X,5,25,2022,394,91545,41.2759,-70.2615,137,320,1,-,,5, , ,3,2,C,,,,,,,, , ,,,,,,,,,,,,,,,,,396,,,,92,1000,100,85,5,5,3,8,,,,,,, ,
X,5,25,2022,395,91550,41.2743,-70.2596,136,319,1,-,,5, , ,3,2,C,,,,,,,, , ,,,,,,,,,,,,,,,,,397,,,,92.8,1000,100,85,5,5,3,8,,,,,,, ,
X,5,25,2022,396,91555,41.2727,-70.2575,137,317,1,-,,5, , ,3,2,C,,,,,,,, , ,,,,,,,,,,,,,,,,,398,,,,94,1000,100,85,5,5,3,8,,,,,,, ,
X,5,25,2022,397,91600,41.2711,-70.2557,139,317,1,-,,5, , ,3,2,C,,,,,,,, , ,,,,,,,,,,,,,,,,,399,,,,94.5,1000,100,85,5,5,3,9,,,,,,, ,
X,5,25,2022,398,91605,41.2695,-70.2539,141,320,1,-,,5, , ,3,2,C,,,,,,,, , ,,,,,,,,,,,,,,,,,400,,,,94.5,1000,100,85,5,5,3,8,,,,,,, ,
Z,5,25,2022,399,91607,41.2688,-70.2532,140,323,1,-,,5, , ,3,2,C,,,,,,,, , ,,,,,,,,,,,,,,,,,401,,,,94.3,1000,100,85,5,5,3,8,,,,,,, ,
X,5,25,2022,400,91610,41.2677,-70.2519,141,329,1,-,,5, , ,3,2,C,,,,,,,, , ,,,,,,,,,,,,,,,,,402,,,,93.1,1000,100,85,5,5,3,8,,,,,,, ,
X,5,25,2022,401,91615,41.266,-70.2501,139,333,1,-,,5, , ,3,2,C,,,,,,,, , ,,,,,,,,,,,,,,,,,403,,,,93.5,1000,100,85,5,5,3,8,,,,,,, ,
X,5,25,2022,402,91620,41.2644,-70.2482,136,330,1,-,,5, , ,3,2,C,,,,,,,, , ,,,,,,,,,,,,,,,,,404,,,,95.1,1000,100,85,5,5,3,8,,,,,,, ,
X,5,25,2022,403,91625,41.2628,-70.2462,138,325,1,-,,5, , ,3,2,C,,,,,,,, , ,,,,,,,,,,,,,,,,,405,,,,97.2,1000,100,85,5,5,3,8,,,,,,, ,
X,5,25,2022,404,91630,41.2612,-70.2444,139,331,1,-,,5, , ,3,2,C,,,,,,,, , ,,,,,,,,,,,,,,,,,406,,,,96,1000,100,85,5,5,3,8,,,,,,, ,
X,5,25,2022,405,91635,41.2595,-70.2424,139,334,1,-,,5, , ,3,2,C,,,,,,,, , ,,,,,,,,,,,,,,,,,407,,,,95.6,1000,100,85,5,5,3,8,,,,,,, ,
X,5,25,2022,406,91640,41.2578,-70.2405,137,331,1,-,,5, , ,3,2,C,,,,,,,, , ,,,,,,,,,,,,,,,,,408,,,,97,1000,100,85,5,5,3,8,,,,,,, ,
X,5,25,2022,407,91645,41.2562,-70.2384,135,323,1,-,,5, , ,3,2,C,,,,,,,, , ,,,,,,,,,,,,,,,,,409,,,,99.1,1000,100,85,5,5,3,8,,,,,,, ,
X,5,25,2022,408,91650,41.2546,-70.2362,131,320,1,-,,5, , ,3,2,C,,,,,,,, , ,,,,,,,,,,,,,,,,,410,,,,98.5,1000,100,85,5,5,3,8,,,,,,, ,
X,5,25,2022,409,91655,41.2531,-70.2338,129,321,1,-,,5, , ,3,2,C,,,,,,,, , ,,,,,,,,,,,,,,,,,411,,,,97.7,1000,100,85,5,5,3,8,,,,,,, ,
Z,5,25,2022,410,91656,41.2527,-70.2332,129,320,1,-,,5, , ,3,2,C,,,,,,,, , ,,,,,,,,,,,,,,,,,412,,,,97.3,1000,100,85,5,5,3,8,,,,,,, ,
X,5,25,2022,411,91700,41.2517,-70.2316,127,321,1,-,,5, , ,3,2,C,,,,,,,, , ,,,,,,,,,,,,,,,,,413,,,,96.3,1000,100,85,5,5,3,9,,,,,,, ,
X,5,25,2022,412,91705,41.2504,-70.2292,126,324,1,-,,5, , ,3,2,C,,,,,,,, , ,,,,,,,,,,,,,,,,,414,,,,95.8,1000,100,85,5,5,3,8,,,,,,, ,
X,5,25,2022,413,91710,41.2491,-70.2267,123,320,1,-,,5, , ,3,2,C,,,,,,,, , ,,,,,,,,,,,,,,,,,415,,,,97,1000,100,85,5,5,3,9,,,,,,, ,
X,5,25,2022,414,91715,41.2478,-70.2242,122,315,1,-,,5, , ,3,2,C,,,,,,,, , ,,,,,,,,,,,,,,,,,416,,,,98,1000,100,85,5,5,3,9,,,,,,, ,
X,5,25,2022,415,91720,41.2466,-70.2216,121,319,1,-,,5, , ,3,2,C,,,,,,,, , ,,,,,,,,,,,,,,,,,417,,,,95.8,1000,100,85,5,5,3,9,,,,,,, ,
X,5,25,2022,416,91725,41.2456,-70.2194,120,320,1,-,,5, , ,3,2,C,,,,,,,, , ,,,,,,,,,,,,,,,,,418,,,,95.4,1000,100,85,5,5,3,9,,,,,,, ,
X,5,25,2022,417,91730,41.2445,-70.2169,120,314,1,-,,5, , ,3,2,C,,,,,,,, , ,,,,,,,,,,,,,,,,,419,,,,97.6,1000,100,85,5,5,3,9,,,,,,, ,
X,5,25,2022,418,91735,41.2433,-70.2142,118,309,1,-,,5, , ,3,2,C,,,,,,,, , ,,,,,,,,,,,,,,,,,420,,,,98.7,1000,100,85,5,5,3,9,,,,,,, ,
X,5,25,2022,419,91740,41.2422,-70.2114,117,312,1,-,,5, , ,3,2,C,,,,,,,, , ,,,,,,,,,,,,,,,,,421,,,,96.7,1000,100,85,5,5,3,9,,,,,,, ,
X,5,25,2022,420,91745,41.2412,-70.2087,116,317,1,-,,5, , ,3,2,C,,,,,,,, , ,,,,,,,,,,,,,,,,,422,,,,95,1000,100,85,5,5,3,9,,,,,,, ,
Z,5,25,2022,421,91746,41.241,-70.2082,116,317,1,-,,5, , ,3,2,C,,,,,,,, , ,,,,,,,,,,,,,,,,,423,,,,94.8,1000,100,85,5,5,3,9,,,,,,, ,
X,5,25,2022,422,91750,41.2402,-70.2061,116,315,1,-,,5, , ,3,2,C,,,,,,,, , ,,,,,,,,,,,,,,,,,424,,,,95,1000,100,85,5,5,3,9,,,,,,, ,
X,5,25,2022,423,91755,41.2392,-70.2034,115,310,1,-,,5, , ,3,2,C,,,,,,,, , ,,,,,,,,,,,,,,,,,425,,,,96.4,1000,100,85,5,5,3,9,,,,,,, ,
X,5,25,2022,424,91800,41.2384,-70.201,115,309,1,-,,5, , ,3,2,C,,,,,,,, , ,,,,,,,,,,,,,,,,,426,,,,95.9,1000,100,85,5,5,3,9,,,,,,, ,
X,5,25,2022,425,91805,41.2374,-70.1982,113,306,1,-,,5, , ,3,2,C,,,,,,,, , ,,,,,,,,,,,,,,,,,427,,,,96.2,1000,100,85,5,5,3,9,,,,,,, ,
X,5,25,2022,426,91810,41.2366,-70.1955,111,304,1,-,,5, , ,3,2,C,,,,,,,, , ,,,,,,,,,,,,,,,,,428,,,,95.5,1000,100,85,5,5,3,9,,,,,,, ,
X,5,25,2022,427,91815,41.2357,-70.1926,112,303,1,-,,5, , ,3,2,C,,,,,,,, , ,,,,,,,,,,,,,,,,,429,,,,95.5,1000,100,85,5,5,3,9,,,,,,, ,
X,5,25,2022,428,91820,41.2348,-70.1899,112,299,1,-,,5, , ,3,2,C,,,,,,,, , ,,,,,,,,,,,,,,,,,430,,,,96,1000,100,85,5,5,3,9,,,,,,, ,
X,5,25,2022,429,91825,41.234,-70.1872,110,294,1,-,,5, , ,3,2,C,,,,,,,, , ,,,,,,,,,,,,,,,,,431,,,,96.6,1000,100,85,5,5,3,9,,,,,,, ,
X,5,25,2022,430,91830,41.2333,-70.1845,109,289,1,-,,5, , ,3,2,C,,,,,,,, , ,,,,,,,,,,,,,,,,,432,,,,97.1,1000,100,85,5,5,3,9,,,,,,, ,
X,5,25,2022,431,91835,41.2326,-70.1817,108,289,1,-,,5, , ,3,2,C,,,,,,,, , ,,,,,,,,,,,,,,,,,433,,,,96,1000,100,85,5,5,3,9,,,,,,, ,
X,5,25,2022,432,91840,41.2318,-70.1789,111,296,1,-,,5, , ,3,2,C,,,,,,,, , ,,,,,,,,,,,,,,,,,434,,,,92.3,1000,100,85,5,5,3,9,,,,,,, ,
Z,5,25,2022,433,91840,41.2318,-70.1789,111,296,1,-,,5, , ,3,2,C,,,,,,,, , ,,,,,,,,,,,,,,,,,435,,,,92.3,1000,100,85,5,5,3,9,,,,,,, ,
X,5,25,2022,434,91845,41.2311,-70.1764,111,302,1,-,,5, , ,3,2,C,,,,,,,, , ,,,,,,,,,,,,,,,,,436,,,,90.3,1000,100,85,5,5,3,9,,,,,,, ,
X,5,25,2022,435,91850,41.2303,-70.1737,110,305,1,-,,5, , ,3,2,C,,,,,,,, , ,,,,,,,,,,,,,,,,,437,,,,89.5,1000,100,85,5,5,3,9,,,,,,, ,
Z,5,25,2022,436,91853,41.2299,-70.1724,110,306,1,-,,5, , ,3,2,C,,,,,,,, , ,,,,,,,,,,,,,,,,,438,,,,89.3,1000,100,85,5,5,3,9,,,,,,, ,
X,5,25,2022,437,91855,41.2296,-70.1711,110,307,1,-,,5, , ,3,2,C,,,,,,,, , ,,,,,,,,,,,,,,,,,439,,,,89.5,1000,100,85,5,5,3,9,,,,,,, ,
X,5,25,2022,438,91900,41.2289,-70.1688,109,306,1,-,,5, , ,3,2,C,,,,,,,, , ,,,,,,,,,,,,,,,,,440,,,,90.8,1000,100,85,5,5,3,9,,,,,,, ,
X,5,25,2022,439,91905,41.2282,-70.166,108,304,1,-,,5, , ,3,2,C,,,,,,,, , ,,,,,,,,,,,,,,,,,441,,,,91.7,1000,100,85,5,5,3,9,,,,,,, ,
X,5,25,2022,440,91910,41.2275,-70.1633,107,304,1,-,,5, , ,3,2,C,,,,,,,, , ,,,,,,,,,,,,,,,,,442,,,,92.3,1000,100,85,5,5,3,9,,,,,,, ,
X,5,25,2022,441,91915,41.2269,-70.1606,107,304,1,-,,5, , ,3,2,C,,,,,,,, , ,,,,,,,,,,,,,,,,,443,,,,92.4,1000,100,85,5,5,3,9,,,,,,, ,
X,5,25,2022,442,91920,41.2262,-70.1578,107,304,1,-,,5, , ,3,2,C,,,,,,,, , ,,,,,,,,,,,,,,,,,444,,,,92.2,1000,100,85,5,5,3,9,,,,,,, ,
X,5,25,2022,443,91925,41.2257,-70.1554,106,306,1,-,,5, , ,3,2,C,,,,,,,, , ,,,,,,,,,,,,,,,,,445,,,,92,1000,100,85,5,5,3,9,,,,,,, ,
X,5,25,2022,444,91930,41.225,-70.1524,106,307,1,-,,5, , ,3,2,C,,,,,,,, , ,,,,,,,,,,,,,,,,,446,,,,91.9,1000,100,85,5,5,3,9,,,,,,, ,
Z,5,25,2022,445,91934,41.2245,-70.1502,105,308,1,-,,5, , ,3,2,C,,,,,,,, , ,,,,,,,,,,,,,,,,,447,,,,92.1,1000,100,85,5,5,3,9,,,,,,, ,
X,5,25,2022,446,91935,41.2244,-70.1498,104,309,1,-,,5, , ,3,2,C,,,,,,,, , ,,,,,,,,,,,,,,,,,448,,,,92,1000,100,85,5,5,3,9,,,,,,, ,
X,5,25,2022,447,91940,41.2239,-70.1469,103,311,1,-,,5, , ,3,2,C,,,,,,,, , ,,,,,,,,,,,,,,,,,449,,,,91.7,1000,100,85,5,5,3,9,,,,,,, ,
Z,5,25,2022,448,91942,41.2237,-70.1457,103,312,1,-,,5, , ,3,2,C,,,,,,,, , ,,,,,,,,,,,,,,,,,450,,,,91.5,1000,100,85,5,5,3,9,,,,,,, ,
X,5,25,2022,449,91945,41.2234,-70.1442,103,313,1,-,,5, , ,3,2,C,,,,,,,, , ,,,,,,,,,,,,,,,,,451,,,,91.5,1000,100,85,5,5,3,10,,,,,,, ,
X,5,25,2022,450,91950,41.2229,-70.1416,104,315,1,-,,5, , ,3,2,C,,,,,,,, , ,,,,,,,,,,,,,,,,,452,,,,91.2,1000,100,85,5,5,3,10,,,,,,, ,
X,5,25,2022,451,91955,41.2224,-70.1389,105,318,1,-,,5, , ,3,2,C,,,,,,,, , ,,,,,,,,,,,,,,,,,453,,,,91.4,1000,100,85,5,5,3,10,,,,,,, ,
X,5,25,2022,452,92000,41.2218,-70.1364,107,320,1,-,,5, , ,3,2,C,,,,,,,, , ,,,,,,,,,,,,,,,,,454,,,,91.6,1000,100,85,5,5,3,10,,,,,,, ,
X,5,25,2022,453,92005,41.2211,-70.1336,106,322,1,-,,5, , ,3,2,C,,,,,,,, , ,,,,,,,,,,,,,,,,,455,,,,91.7,1000,100,85,5,5,3,10,,,,,,, ,
X,5,25,2022,454,92010,41.2205,-70.1309,105,323,1,-,,5, , ,3,2,C,,,,,,,, , ,,,,,,,,,,,,,,,,,456,,,,91.8,1000,100,85,5,5,3,10,,,,,,, ,
X,5,25,2022,455,92015,41.22,-70.1282,104,325,1,-,,5, , ,3,2,C,,,,,,,, , ,,,,,,,,,,,,,,,,,457,,,,91.5,1000,100,85,5,5,3,10,,,,,,, ,
X,5,25,2022,456,92020,41.2195,-70.1256,102,326,1,-,,5, , ,3,2,C,,,,,,,, , ,,,,,,,,,,,,,,,,,458,,,,91.6,1000,100,85,5,5,3,9,,,,,,, ,
X,5,25,2022,457,92025,41.219,-70.1227,102,326,1,-,,5, , ,3,2,C,,,,,,,, , ,,,,,,,,,,,,,,,,,459,,,,91.9,1000,100,85,5,5,3,9,,,,,,, ,
Z,5,25,2022,458,92028,41.2187,-70.1209,103,325,1,-,,5, , ,3,2,C,,,,,,,, , ,,,,,,,,,,,,,,,,,460,,,,92.4,1000,100,85,5,5,3,10,,,,,,, ,
X,5,25,2022,459,92030,41.2185,-70.1198,103,325,1,-,,5, , ,3,2,C,,,,,,,, , ,,,,,,,,,,,,,,,,,461,,,,92.6,1000,100,85,5,5,3,10,,,,,,, ,
X,5,25,2022,460,92035,41.218,-70.117,103,327,1,-,,5, , ,3,2,C,,,,,,,, , ,,,,,,,,,,,,,,,,,462,,,,92.9,1000,100,85,5,5,3,10,,,,,,, ,
X,5,25,2022,461,92040,41.2175,-70.1143,104,331,1,-,,5, , ,3,2,C,,,,,,,, , ,,,,,,,,,,,,,,,,,463,,,,92,1000,100,85,5,5,3,10,,,,,,, ,
X,5,25,2022,462,92042,41.2175,-70.1141,104,331,1,-,,5, , ,3,2,C,,,,,,,,,,,,,,,,,,,,,,,,,,464,,,,91.9,1000,100,85,5,5,3,10,,,,,,, ,
X,5,25,2022,463,92045,41.217,-70.1115,104,336,1,-,,5, , ,3,2,C,,,,,,,, , ,,,,,,,,,,,,,,,,,465,,,,90.9,1000,100,85,5,5,3,10,,,,,,, ,
X,5,25,2022,464,92050,41.2164,-70.1088,103,336,1,-,,5, , ,3,2,C,,,,,,,, , ,,,,,,,,,,,,,,,,,466,,,,92,1000,100,85,5,5,3,10,,,,,,, ,
X,5,25,2022,465,92055,41.216,-70.1064,105,332,1,-,,5, , ,3,2,C,,,,,,,, , ,,,,,,,,,,,,,,,,,467,,,,94,1000,100,85,5,5,3,10,,,,,,, ,
X,5,25,2022,466,92100,41.2153,-70.1034,105,330,1,-,,5, , ,3,2,C,,,,,,,, , ,,,,,,,,,,,,,,,,,468,,,,95,1000,100,85,5,5,3,10,,,,,,, ,
X,5,25,2022,467,92105,41.2148,-70.1006,104,330,1,-,,5, , ,3,2,C,,,,,,,, , ,,,,,,,,,,,,,,,,,469,,,,95.2,1000,100,85,5,5,3,10,,,,,,, ,
X,5,25,2022,468,92110,41.2142,-70.0978,103,329,1,-,,5, , ,3,2,C,,,,,,,, , ,,,,,,,,,,,,,,,,,470,,,,95.4,1000,100,85,5,5,3,9,,,,,,, ,
X,5,25,2022,469,92115,41.2137,-70.0948,104,328,1,-,,5, , ,3,2,C,,,,,,,, , ,,,,,,,,,,,,,,,,,471,,,,95.8,1000,100,85,5,5,3,10,,,,,,, ,
Z,5,25,2022,470,92118,41.2134,-70.0934,104,328,1,-,,5, , ,3,2,C,,,,,,,, , ,,,,,,,,,,,,,,,,,472,,,,95.9,1000,100,85,5,5,3,10,,,,,,, ,
X,5,25,2022,471,92120,41.2131,-70.0919,105,328,1,-,,5, , ,3,2,C,,,,,,,, , ,,,,,,,,,,,,,,,,,473,,,,96,1000,100,85,5,5,3,10,,,,,,, ,
X,5,25,2022,472,92125,41.2126,-70.0894,105,330,1,-,,5, , ,3,2,C,,,,,,,, , ,,,,,,,,,,,,,,,,,474,,,,95.5,1000,100,85,5,5,3,10,,,,,,, ,
X,5,25,2022,473,92130,41.212,-70.0864,106,331,1,-,,5, , ,3,2,C,,,,,,,, , ,,,,,,,,,,,,,,,,,475,,,,95.6,1000,100,85,5,5,3,10,,,,,,, ,
X,5,25,2022,474,92135,41.2114,-70.0836,105,329,1,-,,5, , ,3,2,C,,,,,,,, , ,,,,,,,,,,,,,,,,,476,,,,96.7,1000,100,85,5,5,3,10,,,,,,, ,
X,5,25,2022,475,92140,41.2108,-70.0807,104,325,1,-,,5, , ,3,2,C,,,,,,,, , ,,,,,,,,,,,,,,,,,477,,,,98.2,1000,100,85,5,5,3,10,,,,,,, ,
X,5,25,2022,476,92145,41.2102,-70.0776,105,324,1,-,,5, , ,3,2,C,,,,,,,, , ,,,,,,,,,,,,,,,,,478,,,,98.1,1000,100,85,5,5,3,10,,,,,,, ,
X,5,25,2022,477,92150,41.2097,-70.0752,104,327,1,-,,5, , ,3,2,C,,,,,,,, , ,,,,,,,,,,,,,,,,,479,,,,96.9,1000,100,85,5,5,3,10,,,,,,, ,
X,5,25,2022,478,92155,41.2091,-70.072,103,328,1,-,,5, , ,3,2,C,,,,,,,, , ,,,,,,,,,,,,,,,,,480,,,,96.6,1000,100,85,5,5,3,10,,,,,,, ,
X,5,25,2022,479,92200,41.2087,-70.0694,102,328,1,-,,5, , ,3,2,C,,,,,,,, , ,,,,,,,,,,,,,,,,,481,,,,96.9,1000,100,85,5,5,3,9,,,,,,, ,
X,5,25,2022,480,92205,41.2081,-70.0662,101,325,1,-,,5, , ,3,2,C,,,,,,,, , ,,,,,,,,,,,,,,,,,482,,,,97.3,1000,100,85,5,5,3,10,,,,,,, ,
X,5,25,2022,481,92210,41.2076,-70.0631,102,325,1,-,,5, , ,3,2,C,,,,,,,, , ,,,,,,,,,,,,,,,,,483,,,,97.7,1000,100,85,5,5,3,10,,,,,,, ,
Z,5,25,2022,482,92212,41.2075,-70.0622,102,325,1,-,,5, , ,3,2,C,,,,,,,, , ,,,,,,,,,,,,,,,,,484,,,,97.6,1000,100,85,5,5,3,10,,,,,,, ,
X,5,25,2022,483,92215,41.2071,-70.0602,103,325,1,-,,5, , ,3,2,C,,,,,,,, , ,,,,,,,,,,,,,,,,,485,,,,97.6,1000,100,85,5,5,3,10,,,,,,, ,
X,5,25,2022,484,92220,41.2067,-70.0576,101,327,1,-,,5, , ,3,2,C,,,,,,,, , ,,,,,,,,,,,,,,,,,486,,,,97.3,1000,100,85,5,5,3,9,,,,,,, ,
X,5,25,2022,485,92225,41.2063,-70.0547,100,329,1,-,,5, , ,3,2,C,,,,,,,, , ,,,,,,,,,,,,,,,,,487,,,,96.4,1000,100,85,5,5,3,9,,,,,,, ,
X,5,25,2022,486,92230,41.2059,-70.0516,99,330,1,-,,5, , ,3,2,C,,,,,,,, , ,,,,,,,,,,,,,,,,,488,,,,96.4,1000,100,85,5,5,3,9,,,,,,, ,
X,5,25,2022,487,92235,41.2055,-70.0487,100,327,1,-,,5, , ,3,2,C,,,,,,,, , ,,,,,,,,,,,,,,,,,489,,,,96.8,1000,100,85,5,5,3,10,,,,,,, ,
X,5,25,2022,488,92240,41.2051,-70.0457,99,325,1,-,,5, , ,3,2,C,,,,,,,, , ,,,,,,,,,,,,,,,,,490,,,,97.5,1000,100,85,5,5,3,10,,,,,,, ,
X,5,25,2022,489,92245,41.2048,-70.0431,99,323,1,-,,5, , ,3,2,C,,,,,,,, , ,,,,,,,,,,,,,,,,,491,,,,98.2,1000,100,85,5,5,3,10,,,,,,, ,
X,5,25,2022,490,92250,41.2043,-70.0398,99,321,1,-,,5, , ,3,2,C,,,,,,,, , ,,,,,,,,,,,,,,,,,492,,,,98.4,1000,100,85,5,5,3,10,,,,,,, ,
X,5,25,2022,491,92255,41.204,-70.0371,100,320,1,-,,5, , ,3,2,C,,,,,,,, , ,,,,,,,,,,,,,,,,,493,,,,98.7,1000,100,85,5,5,3,10,,,,,,, ,
X,5,25,2022,492,92300,41.2035,-70.0337,100,319,1,-,,5, , ,3,2,C,,,,,,,, , ,,,,,,,,,,,,,,,,,494,,,,99.2,1000,100,85,5,5,3,10,,,,,,, ,
Z,5,25,2022,493,92302,41.2034,-70.0331,100,318,1,-,,5, , ,3,2,C,,,,,,,, , ,,,,,,,,,,,,,,,,,495,,,,99.4,1000,100,85,5,5,3,10,,,,,,, ,
X,5,25,2022,494,92305,41.2031,-70.0307,100,317,1,-,,5, , ,3,2,C,,,,,,,, , ,,,,,,,,,,,,,,,,,496,,,,99.6,1000,100,85,5,5,3,10,,,,,,, ,
X,5,25,2022,495,92310,41.2026,-70.0277,101,316,1,-,,5, , ,3,2,C,,,,,,,, , ,,,,,,,,,,,,,,,,,497,,,,99.6,1000,100,85,5,5,3,10,,,,,,, ,
S,5,25,2022,496,92311,41.2026,-70.0277,101,316,1,-,,5, , ,2,2,C,5,,,,,,, , ,,,,,,,,,,,,,,,,,498,,,,99.6,1000,100,85,5,5,3,10,,,,,,, ,
X,5,25,2022,497,92315,41.2022,-70.0247,99,316,1,-,,5, , ,2,2,C,,,,,,,, , ,,,,,,,,,,,,,,,,,499,,,,99.6,1000,100,85,5,5,3,9,,,,,,, ,
X,5,25,2022,498,92320,41.2019,-70.022,99,314,1,-,,5, , ,2,2,C,,,,,,,, , ,,,,,,,,,,,,,,,,,500,,,,99.8,1000,100,85,5,5,3,10,,,,,,, ,
X,5,25,2022,499,92325,41.2015,-70.0188,98,308,1,-,,5, , ,2,2,C,,,,,,,, , ,,,,,,,,,,,,,,,,,501,,,,101.3,1000,100,85,5,5,3,10,,,,,,, ,
X,5,25,2022,500,92330,41.2011,-70.0157,99,305,1,-,,5, , ,2,2,C,,,,,,,, , ,,,,,,,,,,,,,,,,,502,,,,101.9,1000,100,85,5,5,3,10,,,,,,, ,
X,5,25,2022,501,92335,41.2007,-70.0126,99,301,1,-,,5, , ,2,2,C,,,,,,,, , ,,,,,,,,,,,,,,,,,503,,,,102.3,1000,100,85,5,5,3,10,,,,,,, ,
X,5,25,2022,502,92340,41.2003,-70.0095,99,300,1,-,,5, , ,2,2,C,,,,,,,, , ,,,,,,,,,,,,,,,,,504,,,,101.7,1000,100,85,5,5,3,10,,,,,,, ,
X,5,25,2022,503,92345,41.1999,-70.0065,100,302,1,-,,5, , ,2,2,C,,,,,,,, , ,,,,,,,,,,,,,,,,,505,,,,100.7,1000,100,85,5,5,3,9,,,,,,, ,
X,5,25,2022,504,92350,41.1995,-70.0036,100,303,1,-,,5, , ,2,2,C,,,,,,,, , ,,,,,,,,,,,,,,,,,506,,,,100.2,1000,100,85,5,5,3,9,,,,,,, ,
Z,5,25,2022,505,92351,41.1994,-70.0025,101,306,1,-,,5, , ,2,2,C,,,,,,,, , ,,,,,,,,,,,,,,,,,507,,,,99.1,1000,100,85,5,5,3,9,,,,,,, ,
X,5,25,2022,506,92355,41.199,-70.0003,100,310,1,-,,5, , ,2,2,C,,,,,,,, , ,,,,,,,,,,,,,,,,,508,,,,97.7,1000,100,85,5,5,3,9,,,,,,, ,
X,5,25,2022,507,92400,41.1986,-69.9974,100,309,1,-,,5, , ,2,2,C,,,,,,,, , ,,,,,,,,,,,,,,,,,509,,,,98.1,1000,100,85,5,5,3,10,,,,,,, ,
X,5,25,2022,508,92405,41.1982,-69.9944,99,306,1,-,,5, , ,2,2,C,,,,,,,, , ,,,,,,,,,,,,,,,,,510,,,,98.7,1000,100,85,5,5,3,10,,,,,,, ,
X,5,25,2022,509,92410,41.1978,-69.9914,100,307,1,-,,5, , ,2,2,C,,,,,,,, , ,,,,,,,,,,,,,,,,,511,,,,98.6,1000,100,85,5,5,3,9,,,,,,, ,
Z,5,25,2022,510,92416,41.1973,-69.9877,99,311,1,-,,5, , ,2,2,C,,,,,,,, , ,,,,,,,,,,,,,,,,,512,,,,97.4,1000,100,85,5,5,3,10,,,,,,, ,
X,5,25,2022,511,92420,41.1971,-69.9856,98,312,1,-,,5, , ,2,2,C,,,,,,,, , ,,,,,,,,,,,,,,,,,513,,,,97,1000,100,85,5,5,3,10,,,,,,, ,
X,5,25,2022,512,92425,41.1968,-69.9828,97,310,1,-,,5, , ,2,2,C,,,,,,,, , ,,,,,,,,,,,,,,,,,514,,,,98.1,1000,100,85,5,5,3,10,,,,,,, ,
X,5,25,2022,513,92430,41.1965,-69.9797,97,306,1,-,,5, , ,2,2,C,,,,,,,, , ,,,,,,,,,,,,,,,,,515,,,,99,1000,100,85,5,5,3,10,,,,,,, ,
X,5,25,2022,514,92435,41.1962,-69.9767,96,305,1,-,,5, , ,2,2,C,,,,,,,, , ,,,,,,,,,,,,,,,,,516,,,,98.8,1000,100,85,5,5,3,10,,,,,,, ,
X,5,25,2022,515,92440,41.1959,-69.9735,97,305,1,-,,5, , ,2,2,C,,,,,,,, , ,,,,,,,,,,,,,,,,,517,,,,98.6,1000,100,85,5,5,3,10,,,,,,, ,
Z,5,25,2022,516,92441,41.1959,-69.9729,97,305,1,-,,5, , ,2,2,C,,,,,,,, , ,,,,,,,,,,,,,,,,,518,,,,98.7,1000,100,85,5,5,3,10,,,,,,, ,
X,5,25,2022,517,92445,41.1957,-69.9708,97,304,1,-,,5, , ,2,2,C,,,,,,,, , ,,,,,,,,,,,,,,,,,519,,,,98.7,1000,100,85,5,5,3,10,,,,,,, ,
X,5,25,2022,518,92450,41.1954,-69.9678,97,302,1,-,,5, , ,2,2,C,,,,,,,, , ,,,,,,,,,,,,,,,,,520,,,,99.2,1000,100,85,5,5,3,10,,,,,,, ,
X,5,25,2022,519,92455,41.195,-69.9646,98,302,1,-,,5, , ,2,2,C,,,,,,,, , ,,,,,,,,,,,,,,,,,521,,,,99.2,1000,100,85,5,5,3,10,,,,,,, ,
X,5,25,2022,520,92500,41.1947,-69.9614,98,300,1,-,,5, , ,2,2,C,,,,,,,, , ,,,,,,,,,,,,,,,,,522,,,,100,1000,100,85,5,5,3,10,,,,,,, ,
X,5,25,2022,521,92505,41.1944,-69.9584,98,299,1,-,,5, , ,2,2,C,,,,,,,, , ,,,,,,,,,,,,,,,,,523,,,,99.5,1000,100,85,5,5,3,10,,,,,,, ,
X,5,25,2022,522,92510,41.194,-69.9554,98,299,1,-,,5, , ,2,2,C,,,,,,,, , ,,,,,,,,,,,,,,,,,524,,,,99.6,1000,100,85,5,5,3,10,,,,,,, ,
X,5,25,2022,523,92515,41.1937,-69.9524,98,299,1,-,,5, , ,2,2,C,,,,,,,, , ,,,,,,,,,,,,,,,,,525,,,,99.3,1000,100,85,5,5,3,10,,,,,,, ,
X,5,25,2022,524,92520,41.1933,-69.9495,99,298,1,-,,5, , ,2,2,C,,,,,,,, , ,,,,,,,,,,,,,,,,,526,,,,99.4,1000,100,85,5,5,3,10,,,,,,, ,
X,5,25,2022,525,92525,41.193,-69.9465,98,297,1,-,,5, , ,2,2,C,,,,,,,, , ,,,,,,,,,,,,,,,,,527,,,,99.6,1000,100,85,5,5,3,10,,,,,,, ,
X,5,25,2022,526,92530,41.1926,-69.9435,99,297,1,-,,5, , ,2,2,C,,,,,,,, , ,,,,,,,,,,,,,,,,,528,,,,99.5,1000,100,85,5,5,3,10,,,,,,, ,
X,5,25,2022,527,92535,41.1922,-69.9403,99,297,1,-,,5, , ,2,2,C,,,,,,,, , ,,,,,,,,,,,,,,,,,529,,,,99.6,1000,100,85,5,5,3,10,,,,,,, ,
Z,5,25,2022,528,92535,41.1922,-69.9403,99,297,1,-,,5, , ,2,2,C,,,,,,,, , ,,,,,,,,,,,,,,,,,530,,,,99.6,1000,100,85,5,5,3,10,,,,,,, ,
X,5,25,2022,529,92540,41.1918,-69.9373,99,297,1,-,,5, , ,2,2,C,,,,,,,, , ,,,,,,,,,,,,,,,,,531,,,,99.4,1000,100,85,5,5,3,10,,,,,,, ,
X,5,25,2022,530,92545,41.1915,-69.9343,98,296,1,-,,5, , ,2,2,C,,,,,,,, , ,,,,,,,,,,,,,,,,,532,,,,99.5,1000,100,85,5,5,3,10,,,,,,, ,
X,5,25,2022,531,92550,41.1912,-69.9316,97,296,1,-,,5, , ,2,2,C,,,,,,,, , ,,,,,,,,,,,,,,,,,533,,,,99.8,1000,100,85,5,5,3,10,,,,,,, ,
X,5,25,2022,532,92555,41.1909,-69.9284,96,297,1,-,,5, , ,2,2,C,,,,,,,, , ,,,,,,,,,,,,,,,,,534,,,,99.4,1000,100,85,5,5,3,10,,,,,,, ,
X,5,25,2022,533,92600,41.1907,-69.9254,96,299,1,-,,5, , ,2,2,C,,,,,,,, , ,,,,,,,,,,,,,,,,,535,,,,98.9,1000,100,85,5,5,3,10,,,,,,, ,
X,5,25,2022,534,92605,41.1904,-69.9223,95,300,1,-,,5, , ,2,2,C,,,,,,,, , ,,,,,,,,,,,,,,,,,536,,,,98.6,1000,100,85,5,5,3,10,,,,,,, ,
X,5,25,2022,535,92610,41.1902,-69.9193,95,300,1,-,,5, , ,2,2,C,,,,,,,, , ,,,,,,,,,,,,,,,,,537,,,,98.5,1000,100,85,5,5,3,10,,,,,,, ,
X,5,25,2022,536,92615,41.1899,-69.9162,95,299,1,-,,5, , ,2,2,C,,,,,,,, , ,,,,,,,,,,,,,,,,,538,,,,99.2,1000,100,85,5,5,3,10,,,,,,, ,
X,5,25,2022,537,92620,41.1897,-69.9134,96,298,1,-,,5, , ,2,2,C,,,,,,,, , ,,,,,,,,,,,,,,,,,539,,,,99.5,1000,100,85,5,5,3,10,,,,,,, ,
X,5,25,2022,538,92625,41.1895,-69.9101,96,297,1,-,,5, , ,2,2,C,,,,,,,, , ,,,,,,,,,,,,,,,,,540,,,,99.3,1000,100,85,5,5,3,10,,,,,,, ,
Z,5,25,2022,539,92629,41.1893,-69.9077,96,296,1,-,,5, , ,2,2,C,,,,,,,, , ,,,,,,,,,,,,,,,,,541,,,,99.5,1000,100,85,5,5,3,10,,,,,,, ,
X,5,25,2022,540,92630,41.1892,-69.9072,96,296,1,-,,5, , ,2,2,C,,,,,,,, , ,,,,,,,,,,,,,,,,,542,,,,99.3,1000,100,85,5,5,3,10,,,,,,, ,
X,5,25,2022,541,92635,41.189,-69.904,96,296,1,-,,5, , ,2,2,C,,,,,,,, , ,,,,,,,,,,,,,,,,,543,,,,99.2,1000,100,85,5,5,3,10,,,,,,, ,
Z,5,25,2022,542,92637,41.1889,-69.903,96,296,1,-,,5, , ,2,2,C,,,,,,,, , ,,,,,,,,,,,,,,,,,544,,,,99,1000,100,85,5,5,3,10,,,,,,, ,
X,5,25,2022,543,92640,41.1887,-69.901,96,296,1,-,,5, , ,2,2,C,,,,,,,, , ,,,,,,,,,,,,,,,,,545,,,,99,1000,100,85,5,5,3,10,,,,,,, ,
X,5,25,2022,544,92645,41.1884,-69.898,96,294,1,-,,5, , ,2,2,C,,,,,,,, , ,,,,,,,,,,,,,,,,,546,,,,99.4,1000,100,85,5,5,3,10,,,,,,, ,
X,5,25,2022,545,92650,41.1882,-69.8954,96,293,1,-,,5, , ,2,2,C,,,,,,,, , ,,,,,,,,,,,,,,,,,547,,,,99.1,1000,100,85,5,5,3,10,,,,,,, ,
X,5,25,2022,546,92655,41.1879,-69.8921,97,293,1,-,,5, , ,2,2,C,,,,,,,, , ,,,,,,,,,,,,,,,,,548,,,,99.3,1000,100,85,5,5,3,10,,,,,,, ,
X,5,25,2022,547,92700,41.1876,-69.8891,95,292,1,-,,5, , ,2,2,C,,,,,,,, , ,,,,,,,,,,,,,,,,,549,,,,99.7,1000,100,85,5,5,3,10,,,,,,, ,
X,5,25,2022,548,92705,41.1874,-69.886,93,290,1,-,,5, , ,2,2,C,,,,,,,, , ,,,,,,,,,,,,,,,,,550,,,,99.6,1000,100,85,5,5,3,10,,,,,,, ,
X,5,25,2022,549,92710,41.1873,-69.883,92,290,1,-,,5, , ,2,2,C,,,,,,,, , ,,,,,,,,,,,,,,,,,551,,,,99.6,1000,100,85,5,5,3,10,,,,,,, ,
X,5,25,2022,550,92715,41.1872,-69.8802,92,291,1,-,,5, , ,2,2,C,,,,,,,, , ,,,,,,,,,,,,,,,,,552,,,,99.2,1000,100,85,5,5,3,9,,,,,,, ,
X,5,25,2022,551,92720,41.1871,-69.8769,92,291,1,-,,5, , ,2,2,C,,,,,,,, , ,,,,,,,,,,,,,,,,,553,,,,99.2,1000,100,85,5,5,3,10,,,,,,, ,
X,5,25,2022,552,92725,41.1871,-69.8738,91,290,1,-,,5, , ,2,2,C,,,,,,,, , ,,,,,,,,,,,,,,,,,554,,,,99.7,1000,100,85,5,5,3,10,,,,,,, ,
Z,5,25,2022,553,92727,41.187,-69.8724,91,290,1,-,,5, , ,2,2,C,,,,,,,, , ,,,,,,,,,,,,,,,,,555,,,,99.6,1000,100,85,5,5,3,9,,,,,,, ,
X,5,25,2022,554,92730,41.187,-69.8706,91,289,1,-,,5, , ,2,2,C,,,,,,,, , ,,,,,,,,,,,,,,,,,556,,,,99.9,1000,100,85,5,5,3,10,,,,,,, ,
X,5,25,2022,555,92735,41.1869,-69.8675,91,289,1,-,,5, , ,2,2,C,,,,,,,, , ,,,,,,,,,,,,,,,,,557,,,,99.9,1000,100,85,5,5,3,10,,,,,,, ,
X,5,25,2022,556,92740,41.1869,-69.8645,92,290,1,-,,5, , ,2,2,C,,,,,,,, , ,,,,,,,,,,,,,,,,,558,,,,99.8,1000,100,85,5,5,3,10,,,,,,, ,
X,5,25,2022,557,92745,41.1868,-69.8614,92,291,1,-,,5, , ,2,2,C,,,,,,,, , ,,,,,,,,,,,,,,,,,559,,,,99.9,1000,100,85,5,5,3,10,,,,,,, ,
X,5,25,2022,558,92750,41.1867,-69.8588,92,291,1,-,,5, , ,2,2,C,,,,,,,, , ,,,,,,,,,,,,,,,,,560,,,,99.9,1000,100,85,5,5,3,10,,,,,,, ,
X,5,25,2022,559,92755,41.1866,-69.8555,90,290,1,-,,5, , ,2,2,C,,,,,,,, , ,,,,,,,,,,,,,,,,,561,,,,99.4,1000,100,85,5,5,3,10,,,,,,, ,
X,5,25,2022,560,92800,41.1866,-69.8524,88,289,1,-,,5, , ,2,2,C,,,,,,,, , ,,,,,,,,,,,,,,,,,562,,,,99.6,1000,100,85,5,5,3,9,,,,,,, ,
X,5,25,2022,561,92805,41.1868,-69.8494,85,289,1,-,,5, , ,2,2,C,,,,,,,, , ,,,,,,,,,,,,,,,,,563,,,,100.5,1000,100,85,5,5,3,10,,,,,,, ,
X,5,25,2022,562,92810,41.187,-69.8463,82,288,1,-,,5, , ,2,2,C,,,,,,,, , ,,,,,,,,,,,,,,,,,564,,,,100.1,1000,100,85,5,5,3,10,,,,,,, ,
X,5,25,2022,563,92815,41.1873,-69.8433,81,288,1,-,,5, , ,2,2,C,,,,,,,, , ,,,,,,,,,,,,,,,,,565,,,,99.9,1000,100,85,5,5,3,10,,,,,,, ,
X,5,25,2022,564,92820,41.1877,-69.8402,81,289,1,-,,5, , ,2,2,C,,,,,,,, , ,,,,,,,,,,,,,,,,,566,,,,100,1000,100,85,5,5,3,9,,,,,,, ,
Z,5,25,2022,565,92821,41.1878,-69.8395,81,290,1,-,,5, , ,2,2,C,,,,,,,, , ,,,,,,,,,,,,,,,,,567,,,,99.5,1000,100,85,5,5,3,9,,,,,,, ,
X,5,25,2022,566,92825,41.188,-69.8372,81,290,1,-,,5, , ,2,2,C,,,,,,,, , ,,,,,,,,,,,,,,,,,568,,,,99.6,1000,100,85,5,5,3,9,,,,,,, ,
X,5,25,2022,567,92830,41.1883,-69.8341,83,290,1,-,,5, , ,2,2,C,,,,,,,, , ,,,,,,,,,,,,,,,,,569,,,,99.4,1000,100,85,5,5,3,9,,,,,,, ,
X,5,25,2022,568,92835,41.1885,-69.831,86,288,1,-,,5, , ,2,2,C,,,,,,,, , ,,,,,,,,,,,,,,,,,570,,,,99.9,1000,100,85,5,5,3,9,,,,,,, ,
X,5,25,2022,569,92840,41.1886,-69.828,88,290,1,-,,5, , ,2,2,C,,,,,,,, , ,,,,,,,,,,,,,,,,,571,,,,99.6,1000,100,85,5,5,3,9,,,,,,, ,
X,5,25,2022,570,92845,41.1886,-69.8254,89,291,1,-,,5, , ,2,2,C,,,,,,,, , ,,,,,,,,,,,,,,,,,572,,,,99.2,1000,100,85,5,5,3,10,,,,,,, ,
X,5,25,2022,571,92850,41.1887,-69.8223,89,294,1,-,,5, , ,2,2,C,,,,,,,, , ,,,,,,,,,,,,,,,,,573,,,,97.6,1000,100,85,5,5,3,10,,,,,,, ,
X,5,25,2022,572,92855,41.1886,-69.8194,91,294,1,-,,5, , ,2,2,C,,,,,,,, , ,,,,,,,,,,,,,,,,,574,,,,97.4,1000,100,85,5,5,3,10,,,,,,, ,
X,5,25,2022,573,92900,41.1885,-69.8161,96,291,1,-,,5, , ,2,2,C,,,,,,,, , ,,,,,,,,,,,,,,,,,575,,,,98.5,1000,100,85,5,5,3,10,,,,,,, ,
X,5,25,2022,574,92905,41.1882,-69.813,98,285,1,-,,5, , ,2,2,C,,,,,,,, , ,,,,,,,,,,,,,,,,,576,,,,100.4,1000,100,85,5,5,3,10,,,,,,, ,
X,5,25,2022,575,92910,41.1878,-69.8098,98,283,1,-,,5, , ,2,2,C,,,,,,,, , ,,,,,,,,,,,,,,,,,577,,,,100.4,1000,100,85,5,5,3,10,,,,,,, ,
Z,5,25,2022,576,92911,41.1878,-69.8094,98,283,1,-,,5, , ,2,2,C,,,,,,,, , ,,,,,,,,,,,,,,,,,578,,,,100.3,1000,100,85,5,5,3,10,,,,,,, ,
X,5,25,2022,577,92915,41.1875,-69.8071,98,289,1,-,,5, , ,2,2,C,,,,,,,, , ,,,,,,,,,,,,,,,,,579,,,,98.3,1000,100,85,5,5,3,10,,,,,,, ,
X,5,25,2022,578,92920,41.1871,-69.804,98,295,1,-,,5, , ,2,2,C,,,,,,,, , ,,,,,,,,,,,,,,,,,580,,,,96.4,1000,100,85,5,5,3,10,,,,,,, ,
X,5,25,2022,579,92925,41.1868,-69.8013,98,296,1,-,,5, , ,2,2,C,,,,,,,, , ,,,,,,,,,,,,,,,,,581,,,,96.8,1000,100,85,5,5,3,10,,,,,,, ,
X,5,25,2022,580,92930,41.1865,-69.7981,98,291,1,-,,5, , ,2,2,C,,,,,,,, , ,,,,,,,,,,,,,,,,,582,,,,98.3,1000,100,85,5,5,3,10,,,,,,, ,
X,5,25,2022,581,92935,41.1861,-69.7952,99,292,1,-,,5, , ,2,2,C,,,,,,,, , ,,,,,,,,,,,,,,,,,583,,,,97.3,1000,100,85,5,5,3,10,,,,,,, ,
X,5,25,2022,582,92940,41.1856,-69.7923,110,298,1,-,,5, , ,2,2,C,,,,,,,, , ,,,,,,,,,,,,,,,,,584,,,,95.5,1000,100,85,5,5,3,10,,,,,,, ,
X,5,25,2022,583,92945,41.1845,-69.7898,126,309,1,-,,5, , ,2,2,C,,,,,,,, , ,,,,,,,,,,,,,,,,,585,,,,92.5,1000,100,85,5,5,3,10,,,,,,, ,
X,5,25,2022,584,92950,41.1831,-69.7877,139,318,1,-,,5, , ,2,2,C,,,,,,,, , ,,,,,,,,,,,,,,,,,586,,,,92,1000,100,85,5,5,3,9,,,,,,, ,
X,5,25,2022,585,92955,41.1813,-69.7861,149,323,1,-,,5, , ,2,2,C,,,,,,,, , ,,,,,,,,,,,,,,,,,587,,,,92.3,1000,100,85,5,5,3,9,,,,,,, ,
X,5,25,2022,586,93000,41.1793,-69.7847,155,329,1,-,,5, , ,2,2,C,,,,,,,, , ,,,,,,,,,,,,,,,,,588,,,,91.8,1000,100,85,5,5,3,9,,,,,,, ,
Z,5,25,2022,587,93001,41.1792,-69.7846,156,330,1,-,,5, , ,2,2,C,,,,,,,, , ,,,,,,,,,,,,,,,,,589,,,,91.9,1000,100,85,5,5,3,9,,,,,,, ,
X,5,25,2022,588,93005,41.1773,-69.7838,168,331,1,-,,5, , ,2,2,C,,,,,,,, , ,,,,,,,,,,,,,,,,,590,,,,94.3,1000,100,85,5,5,3,8,,,,,,, ,
X,5,25,2022,589,93010,41.1751,-69.7836,180,335,1,-,,5, , ,2,2,C,,,,,,,, , ,,,,,,,,,,,,,,,,,591,,,,96.1,1000,100,85,5,5,3,9,,,,,,, ,
X,5,25,2022,590,93015,41.1729,-69.7836,180,347,1,-,,5, , ,2,2,C,,,,,,,, , ,,,,,,,,,,,,,,,,,592,,,,95.5,1000,100,85,5,5,3,9,,,,,,, ,
X,5,25,2022,591,93020,41.1711,-69.7836,176,342,1,-,,5, , ,2,2,C,,,,,,,, , ,,,,,,,,,,,,,,,,,593,,,,96.9,1000,100,85,5,5,3,9,,,,,,, ,
X,5,25,2022,592,93025,41.1685,-69.7834,178,332,1,-,,5, , ,2,2,C,,,,,,,, , ,,,,,,,,,,,,,,,,,594,,,,101.5,1000,100,85,5,5,3,9,,,,,,, ,
X,5,25,2022,593,93027,41.1684,-69.7834,178,331,1,-,,5, , ,2,2,C,,,,,,,, , ,,,,,,,,,,,,,,,,,595,,,,101.6,1000,100,85,5,5,3,9,,,,,,, ,
S,5,25,2022,594,93030,41.1661,-69.7834,179,323,2,1,94,5,3,2,3,2,C,6,,,,,,, , ,,,,,,,,,,,,,,,,,596,,,,104.7,1000,100,85,5,5,3,9,,,,,BEGIN TRACKLINE,, ,
X,5,25,2022,595,93035,41.1636,-69.7834,179,324,2,2,94,5,3,2,3,2,C,,,,,,,, , ,,,,,,,,,,,,,,,,,597,,,,104.9,1000,100,85,5,5,3,10,,,,,,, ,
X,5,25,2022,596,93040,41.1612,-69.7834,179,323,2,2,94,5,3,2,3,2,C,,,,,,,, , ,,,,,,,,,,,,,,,,,598,,,,105,1000,100,85,5,5,3,9,,,,,,, ,
X,5,25,2022,597,93045,41.1589,-69.7834,180,320,2,2,94,5,3,2,3,2,C,,,,,,,, , ,,,,,,,,,,,,,,,,,599,,,,105.7,1000,100,85,5,5,3,9,,,,,,, ,
X,5,25,2022,598,93050,41.1563,-69.7834,179,317,2,2,94,5,3,2,3,2,C,,,,,,,, , ,,,,,,,,,,,,,,,,,600,,,,106,1000,100,85,5,5,3,9,,,,,,, ,
Z,5,25,2022,599,93050,41.1563,-69.7834,179,317,2,2,94,5,3,2,3,2,C,,,,,,,, , ,,,,,,,,,,,,,,,,,601,,,,106,1000,100,85,5,5,3,9,,,,,,, ,
X,5,25,2022,600,93055,41.1539,-69.7833,180,317,2,2,94,5,3,2,3,2,C,,,,,,,, , ,,,,,,,,,,,,,,,,,602,,,,105,1000,100,85,5,5,3,9,,,,,,, ,
X,5,25,2022,601,93100,41.1513,-69.7833,179,315,2,2,94,5,3,2,3,2,C,,,,,,,, , ,,,,,,,,,,,,,,,,,603,,,,104.4,1000,100,85,5,5,3,9,,,,,,, ,
Z,5,25,2022,602,93103,41.1499,-69.7833,179,314,2,2,94,5,3,2,3,2,C,,,,,,,, , ,,,,,,,,,,,,,,,,,604,,,,104.4,1000,100,85,5,5,3,9,,,,,,, ,
X,5,25,2022,603,93105,41.1489,-69.7833,179,312,2,2,94,5,3,2,3,2,C,,,,,,,, , ,,,,,,,,,,,,,,,,,605,,,,104.5,1000,100,85,5,5,3,9,,,,,,, ,
X,5,25,2022,604,93110,41.1465,-69.7833,180,311,2,2,94,5,3,2,3,2,C,,,,,,,, , ,,,,,,,,,,,,,,,,,606,,,,104.3,1000,100,85,5,5,3,9,,,,,,, ,
X,5,25,2022,605,93115,41.1443,-69.7834,180,311,2,2,94,5,3,2,3,2,C,,,,,,,, , ,,,,,,,,,,,,,,,,,607,,,,103.8,1000,100,85,5,5,3,9,,,,,,, ,
X,5,25,2022,606,93120,41.1419,-69.7834,180,311,2,2,94,5,3,2,3,2,C,,,,,,,, , ,,,,,,,,,,,,,,,,,608,,,,103.1,1000,100,85,5,5,3,9,,,,,,, ,
X,5,25,2022,607,93125,41.1396,-69.7834,180,310,2,2,94,5,3,2,3,2,C,,,,,,,, , ,,,,,,,,,,,,,,,,,609,,,,103,1000,100,85,5,5,3,9,,,,,,, ,
X,5,25,2022,608,93130,41.137,-69.7834,180,307,2,2,94,5,3,2,3,2,C,,,,,,,, , ,,,,,,,,,,,,,,,,,610,,,,104.1,1000,100,85,5,5,3,9,,,,,,, ,
X,5,25,2022,609,93135,41.1346,-69.7834,179,302,2,2,94,5,3,2,3,2,C,,,,,,,, , ,,,,,,,,,,,,,,,,,611,,,,104.4,1000,100,85,5,5,3,9,,,,,,, ,
X,5,25,2022,610,93140,41.132,-69.7834,180,300,2,2,94,5,3,2,3,2,C,,,,,,,, , ,,,,,,,,,,,,,,,,,612,,,,104.9,1000,100,85,5,5,3,9,,,,,,, ,
Z,5,25,2022,611,93140,41.1319,-69.7834,180,300,2,2,94,5,3,2,3,2,C,,,,,,,, , ,,,,,,,,,,,,,,,,,613,,,,104.8,1000,100,85,5,5,3,9,,,,,,, ,
X,5,25,2022,612,93145,41.1297,-69.7834,180,300,2,2,94,5,3,2,3,2,C,,,,,,,, , ,,,,,,,,,,,,,,,,,614,,,,104.2,1000,100,85,5,5,3,9,,,,,,, ,
X,5,25,2022,613,93150,41.1273,-69.7834,179,302,2,2,94,5,3,2,3,2,C,,,,,,,, , ,,,,,,,,,,,,,,,,,615,,,,103.1,1000,100,85,5,5,3,9,,,,,,, ,
Z,5,25,2022,614,93153,41.1259,-69.7834,179,303,2,2,94,5,3,2,3,2,C,,,,,,,, , ,,,,,,,,,,,,,,,,,616,,,,102.6,1000,100,85,5,5,3,9,,,,,,, ,
X,5,25,2022,615,93155,41.1249,-69.7834,179,303,2,2,94,5,3,2,3,2,C,,,,,,,, , ,,,,,,,,,,,,,,,,,617,,,,102.7,1000,100,85,5,5,3,9,,,,,,, ,
X,5,25,2022,616,93200,41.1226,-69.7834,179,303,2,2,94,5,3,2,3,2,C,,,,,,,, , ,,,,,,,,,,,,,,,,,618,,,,102.5,1000,100,85,5,5,3,9,,,,,,, ,
X,5,25,2022,617,93205,41.1202,-69.7834,180,300,2,2,94,5,3,2,3,2,C,,,,,,,, , ,,,,,,,,,,,,,,,,,619,,,,103.1,1000,100,85,5,5,3,10,,,,,,, ,
X,5,25,2022,618,93210,41.1177,-69.7834,180,297,2,2,94,5,3,2,3,2,C,,,,,,,, , ,,,,,,,,,,,,,,,,,620,,,,103.3,1000,100,85,5,5,3,9,,,,,,, ,
X,5,25,2022,619,93215,41.1153,-69.7834,179,301,2,2,94,5,3,2,3,2,C,,,,,,,, , ,,,,,,,,,,,,,,,,,621,,,,101.4,1000,100,85,5,5,3,9,,,,,,, ,
X,5,25,2022,620,93220,41.1131,-69.7834,180,306,2,2,94,5,3,2,3,2,C,,,,,,,, , ,,,,,,,,,,,,,,,,,622,,,,99.5,1000,100,85,5,5,3,9,,,,,,, ,
X,5,25,2022,621,93225,41.1108,-69.7834,180,307,2,2,94,5,3,2,3,2,C,,,,,,,, , ,,,,,,,,,,,,,,,,,623,,,,98.6,1000,100,85,5,5,3,9,,,,,,, ,
X,5,25,2022,622,93230,41.1084,-69.7835,180,303,2,2,94,5,3,2,3,2,C,,,,,,,, , ,,,,,,,,,,,,,,,,,624,,,,100.1,1000,100,85,5,5,3,9,,,,,,, ,
Z,5,25,2022,623,93230,41.1084,-69.7835,180,303,2,2,94,5,3,2,3,2,C,,,,,,,, , ,,,,,,,,,,,,,,,,,625,,,,100.1,1000,100,85,5,5,3,9,,,,,,, ,
X,5,25,2022,624,93235,41.1062,-69.7834,179,298,2,2,94,5,3,2,3,2,C,,,,,,,, , ,,,,,,,,,,,,,,,,,626,,,,101.4,1000,100,85,5,5,3,10,,,,,,, ,
X,5,25,2022,625,93240,41.1037,-69.7835,180,296,2,2,94,5,3,2,3,2,C,,,,,,,, , ,,,,,,,,,,,,,,,,,627,,,,102.6,1000,100,85,5,5,3,10,,,,,,, ,
Z,5,25,2022,626,93243,41.1025,-69.7835,180,297,2,2,94,5,3,2,3,2,C,,,,,,,, , ,,,,,,,,,,,,,,,,,628,,,,102.2,1000,100,85,5,5,3,11,,,,,,, ,
X,5,25,2022,627,93245,41.1013,-69.7835,179,299,2,2,94,5,3,2,3,2,C,,,,,,,, , ,,,,,,,,,,,,,,,,,629,,,,101.3,1000,100,85,5,5,3,11,,,,,,, ,
X,5,25,2022,628,93250,41.0991,-69.7835,179,303,2,2,94,5,3,2,3,2,C,,,,,,,, , ,,,,,,,,,,,,,,,,,630,,,,99.4,1000,100,85,5,5,3,10,,,,,,, ,
X,5,25,2022,629,93255,41.0968,-69.7834,179,305,2,2,94,5,3,2,3,2,C,,,,,,,, , ,,,,,,,,,,,,,,,,,631,,,,99,1000,100,85,5,5,3,10,,,,,,, ,
X,5,25,2022,630,93300,41.0945,-69.7834,179,306,2,2,94,5,3,2,3,2,C,,,,,,,, , ,,,,,,,,,,,,,,,,,632,,,,98.6,1000,100,85,5,5,3,10,,,,,,, ,
X,5,25,2022,631,93305,41.0922,-69.7834,179,302,2,2,94,5,3,2,3,2,C,,,,,,,, , ,,,,,,,,,,,,,,,,,633,,,,99.6,1000,100,85,5,5,3,10,,,,,,, ,
X,5,25,2022,632,93310,41.0899,-69.7834,180,301,2,2,94,5,3,2,3,2,C,,,,,,,, , ,,,,,,,,,,,,,,,,,634,,,,99.6,1000,100,85,5,5,3,10,,,,,,, ,
X,5,25,2022,633,93315,41.0877,-69.7834,180,308,2,2,94,5,3,2,3,2,C,,,,,,,, , ,,,,,,,,,,,,,,,,,635,,,,96.3,1000,100,85,5,5,3,10,,,,,,, ,
X,5,25,2022,634,93320,41.0853,-69.7835,180,311,2,2,94,5,3,2,3,2,C,,,,,,,, , ,,,,,,,,,,,,,,,,,636,,,,95.3,1000,100,85,5,5,3,11,,,,,,, ,
Z,5,25,2022,635,93324,41.0835,-69.7835,180,309,2,2,94,5,3,2,3,2,C,,,,,,,, , ,,,,,,,,,,,,,,,,,637,,,,96.7,1000,100,85,5,5,3,10,,,,,,, ,
X,5,25,2022,636,93325,41.0833,-69.7835,179,309,2,2,94,5,3,2,3,2,C,,,,,,,, , ,,,,,,,,,,,,,,,,,638,,,,96.7,1000,100,85,5,5,3,10,,,,,,, ,
X,5,25,2022,637,93330,41.0809,-69.7835,180,308,2,2,94,5,3,2,3,2,C,,,,,,,, , ,,,,,,,,,,,,,,,,,639,,,,96.5,1000,100,85,5,5,3,10,,,,,,, ,
Z,5,25,2022,638,93332,41.0801,-69.7835,180,309,2,2,94,5,3,2,3,2,C,,,,,,,, , ,,,,,,,,,,,,,,,,,640,,,,96.5,1000,100,85,5,5,3,10,,,,,,, ,
X,5,25,2022,639,93335,41.0786,-69.7835,180,311,2,2,94,5,3,2,3,2,C,,,,,,,, , ,,,,,,,,,,,,,,,,,641,,,,95.1,1000,100,85,5,5,3,10,,,,,,, ,
X,5,25,2022,640,93340,41.0764,-69.7835,179,315,2,2,94,5,3,2,3,2,C,,,,,,,, , ,,,,,,,,,,,,,,,,,642,,,,95,1000,100,85,5,5,3,10,,,,,,, ,
X,5,25,2022,641,93345,41.0747,-69.7835,179,314,2,2,94,5,3,2,3,2,C,,,,,,,, , ,,,,,,,,,,,,,,,,,643,,,,95,1000,100,85,5,5,3,10,,,,,,, ,
X,5,25,2022,642,93350,41.0722,-69.7835,180,311,2,2,94,5,3,2,3,2,C,,,,,,,, , ,,,,,,,,,,,,,,,,,644,,,,95.7,1000,100,85,5,5,3,10,,,,,,, ,
X,5,25,2022,643,93355,41.0699,-69.7835,180,311,2,2,94,5,3,2,3,2,C,,,,,,,, , ,,,,,,,,,,,,,,,,,645,,,,95.8,1000,100,85,5,5,3,10,,,,,,, ,
X,5,25,2022,644,93400,41.0677,-69.7835,180,313,2,2,94,5,3,2,3,2,C,,,,,,,, , ,,,,,,,,,,,,,,,,,646,,,,95.4,1000,100,85,5,5,3,10,,,,,,, ,
X,5,25,2022,645,93405,41.0655,-69.7835,180,314,2,2,94,5,3,2,3,2,C,,,,,,,, , ,,,,,,,,,,,,,,,,,647,,,,95.3,1000,100,85,5,5,3,11,,,,,,, ,
X,5,25,2022,646,93410,41.0633,-69.7835,179,314,2,2,94,5,3,2,3,2,C,,,,,,,, , ,,,,,,,,,,,,,,,,,648,,,,94.7,1000,100,85,5,5,3,10,,,,,,, ,
X,5,25,2022,647,93415,41.0611,-69.7835,179,312,2,2,94,5,3,2,3,2,C,,,,,,,, , ,,,,,,,,,,,,,,,,,649,,,,95.4,1000,100,85,5,5,3,10,,,,,,, ,
X,5,25,2022,648,93420,41.0589,-69.7835,180,309,2,2,94,5,3,2,3,2,C,,,,,,,, , ,,,,,,,,,,,,,,,,,650,,,,95.9,1000,100,85,5,5,3,10,,,,,,, ,
Z,5,25,2022,649,93422,41.0579,-69.7835,180,308,2,2,94,5,3,2,3,2,C,,,,,,,, , ,,,,,,,,,,,,,,,,,651,,,,96,1000,100,85,5,5,3,9,,,,,,, ,
X,5,25,2022,650,93425,41.0566,-69.7835,180,308,2,2,94,5,3,2,3,2,C,,,,,,,, , ,,,,,,,,,,,,,,,,,652,,,,96,1000,100,85,5,5,3,10,,,,,,, ,
X,5,25,2022,651,93430,41.0544,-69.7835,179,311,2,2,94,5,3,2,3,2,C,,,,,,,, , ,,,,,,,,,,,,,,,,,653,,,,95.9,1000,100,85,5,5,3,10,,,,,,, ,
X,5,25,2022,652,93435,41.0521,-69.7834,179,310,2,2,94,5,3,2,3,2,C,,,,,,,, , ,,,,,,,,,,,,,,,,,654,,,,95.9,1000,100,85,5,5,3,10,,,,,,, ,
X,5,25,2022,653,93440,41.0498,-69.7834,179,312,2,2,94,5,3,2,3,2,C,,,,,,,, , ,,,,,,,,,,,,,,,,,655,,,,96.2,1000,100,85,5,5,3,10,,,,,,, ,
X,5,25,2022,654,93445,41.0476,-69.7834,180,313,2,2,94,5,3,2,3,2,C,,,,,,,, , ,,,,,,,,,,,,,,,,,656,,,,95.5,1000,100,85,5,5,3,10,,,,,,, ,
X,5,25,2022,655,93450,41.0455,-69.7834,179,314,2,2,94,5,3,2,3,2,C,,,,,,,, , ,,,,,,,,,,,,,,,,,657,,,,94.7,1000,100,85,5,5,3,10,,,,,,, ,
X,5,25,2022,656,93455,41.0433,-69.7834,179,318,2,2,94,5,3,2,3,2,C,,,,,,,, , ,,,,,,,,,,,,,,,,,658,,,,94.1,1000,100,85,5,5,3,10,,,,,,, ,
X,5,25,2022,657,93500,41.0411,-69.7834,179,314,2,2,94,5,3,2,3,2,C,,,,,,,, , ,,,,,,,,,,,,,,,,,659,,,,94.8,1000,100,85,5,5,3,10,,,,,,, ,
X,5,25,2022,658,93505,41.0389,-69.7834,179,306,2,2,94,5,3,2,3,2,C,,,,,,,, , ,,,,,,,,,,,,,,,,,660,,,,96.2,1000,100,85,5,5,3,9,,,,,,, ,
X,5,25,2022,659,93510,41.0366,-69.7833,178,303,2,2,94,5,3,2,3,2,C,,,,,,,, , ,,,,,,,,,,,,,,,,,661,,,,97.3,1000,100,85,5,5,3,9,,,,,,, ,
Z,5,25,2022,660,93512,41.0358,-69.7833,178,303,2,2,94,5,3,2,3,2,C,,,,,,,, , ,,,,,,,,,,,,,,,,,662,,,,97.2,1000,100,85,5,5,3,9,,,,,,, ,
X,5,25,2022,661,93515,41.0348,-69.7833,178,302,2,2,94,5,3,2,3,2,C,,,,,,,, , ,,,,,,,,,,,,,,,,,663,,,,97,1000,100,85,5,5,3,9,,,,,,, ,
X,5,25,2022,662,93520,41.0322,-69.7832,179,304,2,2,94,5,3,2,3,2,C,,,,,,,, , ,,,,,,,,,,,,,,,,,664,,,,96.5,1000,100,85,5,5,3,9,,,,,,, ,
X,5,25,2022,663,93525,41.0301,-69.7833,180,307,2,2,94,5,3,2,3,2,C,,,,,,,, , ,,,,,,,,,,,,,,,,,665,,,,95.9,1000,100,85,5,5,3,9,,,,,,, ,
X,5,25,2022,664,93530,41.0278,-69.7833,179,306,2,2,94,5,3,2,3,2,C,,,,,,,, , ,,,,,,,,,,,,,,,,,666,,,,95.8,1000,100,85,5,5,3,9,,,,,,, ,
X,5,25,2022,665,93535,41.0255,-69.7832,178,303,2,2,94,5,3,2,3,2,C,,,,,,,, , ,,,,,,,,,,,,,,,,,667,,,,96.3,1000,100,85,5,5,3,9,,,,,,, ,
X,5,25,2022,666,93540,41.0233,-69.7831,179,302,2,2,94,5,3,2,3,2,C,,,,,,,, , ,,,,,,,,,,,,,,,,,668,,,,97.1,1000,100,85,5,5,3,9,,,,,,, ,
X,5,25,2022,667,93545,41.0212,-69.7832,180,302,2,2,94,5,3,2,3,2,C,,,,,,,, , ,,,,,,,,,,,,,,,,,669,,,,97,1000,100,85,5,5,3,9,,,,,,, ,
X,5,25,2022,668,93550,41.0188,-69.7832,181,303,2,2,94,5,3,2,3,2,C,,,,,,,, , ,,,,,,,,,,,,,,,,,670,,,,96.4,1000,100,85,5,5,3,9,,,,,,, ,
X,5,25,2022,669,93555,41.0167,-69.7832,180,302,2,2,94,5,3,2,3,2,C,,,,,,,, , ,,,,,,,,,,,,,,,,,671,,,,96.2,1000,100,85,5,5,3,9,,,,,,, ,
X,5,25,2022,670,93600,41.0142,-69.7833,179,301,2,2,94,5,3,2,3,2,C,,,,,,,, , ,,,,,,,,,,,,,,,,,672,,,,96.3,1000,100,85,5,5,3,9,,,,,,, ,
Z,5,25,2022,671,93602,41.0138,-69.7833,179,300,2,2,94,5,3,2,3,2,C,,,,,,,, , ,,,,,,,,,,,,,,,,,673,,,,96.4,1000,100,85,5,5,3,9,,,,,,, ,
X,5,25,2022,672,93605,41.012,-69.7832,179,300,2,2,94,5,3,2,3,2,C,,,,,,,, , ,,,,,,,,,,,,,,,,,674,,,,96.3,1000,100,85,5,5,3,9,,,,,,, ,
X,5,25,2022,673,93610,41.0098,-69.7832,179,299,2,2,94,5,3,2,3,2,C,,,,,,,, , ,,,,,,,,,,,,,,,,,675,,,,96.7,1000,100,85,5,5,3,9,,,,,,, ,
X,5,25,2022,674,93615,41.0075,-69.7832,179,298,2,2,94,5,3,2,3,2,C,,,,,,,, , ,,,,,,,,,,,,,,,,,676,,,,96.9,1000,100,85,5,5,3,9,,,,,,, ,
S,5,25,2022,675,93616,41.0075,-69.7832,179,298,2,2,94,5,3,2,3,2,C,7,,23,FG-U,1,,,1,9,0,,,,,,,,,,,,,,,,677,,,,96.9,1000,100,85,5,5,3,9,,,,,,, ,
X,5,25,2022,676,93620,41.0056,-69.7831,179,298,2,2,94,5,3,2,3,2,C,,,,,,,, , ,,,,,,,,,,,,,,,,,678,,,,96.9,1000,100,85,5,5,3,9,,,,,,, ,
X,5,25,2022,677,93625,41.0031,-69.7831,179,298,2,2,94,5,3,2,3,2,C,,,,,,,, , ,,,,,,,,,,,,,,,,,679,,,,96.8,1000,100,85,5,5,3,9,,,,,,, ,
X,5,25,2022,678,93630,41.0009,-69.7831,179,297,2,2,94,5,3,2,3,2,C,,,,,,,, , ,,,,,,,,,,,,,,,,,680,,,,97,1000,100,85,5,5,3,9,,,,,,, ,
X,5,25,2022,679,93635,40.9987,-69.783,180,296,2,2,94,5,3,2,3,2,C,,,,,,,, , ,,,,,,,,,,,,,,,,,681,,,,97.1,1000,100,85,5,5,3,9,,,,,,, ,
X,5,25,2022,680,93640,40.9964,-69.7831,180,300,2,2,94,5,3,2,3,2,C,,,,,,,, , ,,,,,,,,,,,,,,,,,682,,,,96.9,1000,100,85,5,5,3,9,,,,,,, ,
X,5,25,2022,681,93645,40.9942,-69.7831,180,299,2,2,94,5,3,2,3,2,C,,,,,,,, , ,,,,,,,,,,,,,,,,,683,,,,97,1000,100,85,5,5,3,9,,,,,,, ,
X,5,25,2022,682,93650,40.9919,-69.7831,180,297,2,2,94,5,3,2,3,2,C,,,,,,,, , ,,,,,,,,,,,,,,,,,684,,,,97,1000,100,85,5,5,3,9,,,,,,, ,
Z,5,25,2022,683,93651,40.9911,-69.7831,180,296,2,2,94,5,3,2,3,2,C,,,,,,,, , ,,,,,,,,,,,,,,,,,685,,,,96.8,1000,100,85,5,5,3,9,,,,,,, ,
X,5,25,2022,684,93655,40.9897,-69.7832,180,296,2,2,94,5,3,2,3,2,C,,,,,,,, , ,,,,,,,,,,,,,,,,,686,,,,97.3,1000,100,85,5,5,3,9,,,,,,, ,
X,5,25,2022,685,93700,40.9874,-69.7832,180,296,2,2,94,5,3,2,3,2,C,,,,,,,, , ,,,,,,,,,,,,,,,,,687,,,,97,1000,100,85,5,5,3,9,,,,,,, ,
X,5,25,2022,686,93705,40.9852,-69.7832,180,297,2,2,94,5,3,2,3,2,C,,,,,,,, , ,,,,,,,,,,,,,,,,,688,,,,97.1,1000,100,85,5,5,3,9,,,,,,, ,
S,5,25,2022,687,93709,40.9838,-69.7832,179,297,2,2,94,5,3,2,2,2,C,8,,,,,,, , ,,,,,,,,,,,,,,,,,689,,,,96.9,1000,100,85,5,5,3,9,,,,,,, ,
X,5,25,2022,688,93710,40.9829,-69.7832,179,296,2,2,94,5,3,2,2,2,C,,,,,,,, , ,,,,,,,,,,,,,,,,,690,,,,96.8,1000,100,85,5,5,3,10,,,,,,, ,
X,5,25,2022,689,93715,40.9805,-69.7832,180,296,2,2,94,5,3,2,2,2,C,,,,,,,, , ,,,,,,,,,,,,,,,,,691,,,,97.7,1000,100,85,5,5,3,9,,,,,,, ,
X,5,25,2022,690,93720,40.9784,-69.7832,179,295,2,2,94,5,3,2,2,2,C,,,,,,,, , ,,,,,,,,,,,,,,,,,692,,,,97.6,1000,100,85,5,5,3,9,,,,,,, ,
X,5,25,2022,691,93725,40.9761,-69.7832,180,293,2,2,94,5,3,2,2,2,C,,,,,,,, , ,,,,,,,,,,,,,,,,,693,,,,97.6,1000,100,85,5,5,3,9,,,,,,, ,
X,5,25,2022,692,93730,40.974,-69.7832,180,293,2,2,94,5,3,2,2,2,C,,,,,,,, , ,,,,,,,,,,,,,,,,,694,,,,97.4,1000,100,85,5,5,3,9,,,,,,, ,
X,5,25,2022,693,93735,40.9716,-69.7832,179,292,2,2,94,5,3,2,2,2,C,,,,,,,, , ,,,,,,,,,,,,,,,,,695,,,,97.4,1000,100,85,5,5,3,9,,,,,,, ,
X,5,25,2022,694,93740,40.9693,-69.7832,179,291,2,2,94,5,3,2,2,2,C,,,,,,,, , ,,,,,,,,,,,,,,,,,696,,,,97.6,1000,100,85,5,5,3,9,,,,,,, ,
S,5,25,2022,695,93741,40.9693,-69.7832,179,291,2,2,94,5,3,2,2,2,C,9,,40,SCFI,1,,,1,3,0,,,,,,,,,,,,,,,,697,,,,97.6,1000,100,85,5,5,3,9,,,,,,, ,
Z,5,25,2022,696,93741,40.9687,-69.7832,180,291,2,2,94,5,3,2,2,2,C,,,,,,,, , ,,,,,,,,,,,,,,,,,698,,,,97.7,1000,100,85,5,5,3,10,,,,,,, ,
X,5,25,2022,697,93745,40.967,-69.7832,180,290,2,2,94,5,3,2,2,2,C,,,,,,,, , ,,,,,,,,,,,,,,,,,699,,,,97.6,1000,100,85,5,5,3,8,,,,,,, ,
X,5,25,2022,698,93750,40.9647,-69.7832,180,289,2,2,94,5,3,2,2,2,C,,,,,,,, , ,,,,,,,,,,,,,,,,,700,,,,97.9,1000,100,85,5,5,3,8,,,,,,, ,
X,5,25,2022,699,93755,40.9625,-69.7832,180,294,2,2,94,5,3,2,2,2,C,,,,,,,, , ,,,,,,,,,,,,,,,,,701,,,,96.4,1000,100,85,5,5,3,8,,,,,,, ,
X,5,25,2022,700,93800,40.9604,-69.7833,180,300,2,2,94,5,3,2,2,2,C,,,,,,,, , ,,,,,,,,,,,,,,,,,702,,,,94.1,1000,100,85,5,5,3,8,,,,,,, ,
X,5,25,2022,701,93805,40.9582,-69.7833,180,302,2,2,94,5,3,2,2,2,C,,,,,,,, , ,,,,,,,,,,,,,,,,,703,,,,93.3,1000,100,85,5,5,3,8,,,,,,, ,
X,5,25,2022,702,93810,40.9561,-69.7833,180,303,2,2,94,5,3,2,2,2,C,,,,,,,, , ,,,,,,,,,,,,,,,,,704,,,,93.5,1000,100,85,5,5,3,8,,,,,,, ,
X,5,25,2022,703,93815,40.9539,-69.7833,180,302,2,2,94,5,3,2,2,2,C,,,,,,,, , ,,,,,,,,,,,,,,,,,705,,,,94.4,1000,100,85,5,5,3,8,,,,,,, ,
X,5,25,2022,704,93820,40.9517,-69.7833,180,303,2,2,94,5,3,2,2,2,C,,,,,,,, , ,,,,,,,,,,,,,,,,,706,,,,94.1,1000,100,85,5,5,3,9,,,,,,, ,
X,5,25,2022,705,93825,40.9495,-69.7833,179,306,2,2,94,5,3,2,2,2,C,,,,,,,, , ,,,,,,,,,,,,,,,,,707,,,,93.7,1000,100,85,5,5,3,8,,,,,,, ,
X,5,25,2022,706,93830,40.9473,-69.7833,179,306,2,2,94,5,3,2,2,2,C,,,,,,,, , ,,,,,,,,,,,,,,,,,708,,,,93.6,1000,100,85,5,5,3,9,,,,,,, ,
Z,5,25,2022,707,93831,40.9468,-69.7833,179,306,2,2,94,5,3,2,2,2,C,,,,,,,, , ,,,,,,,,,,,,,,,,,709,,,,94.2,1000,100,85,5,5,3,8,,,,,,, ,
X,5,25,2022,708,93835,40.9451,-69.7833,179,307,2,2,94,5,3,2,2,2,C,,,,,,,, , ,,,,,,,,,,,,,,,,,710,,,,94.8,1000,100,85,5,5,3,8,,,,,,, ,
X,5,25,2022,709,93840,40.9428,-69.7832,179,304,2,2,94,5,3,2,2,2,C,,,,,,,, , ,,,,,,,,,,,,,,,,,711,,,,95.1,1000,100,85,5,5,3,8,,,,,,, ,
X,5,25,2022,710,93845,40.9406,-69.7832,179,305,2,2,94,5,3,2,2,2,C,,,,,,,, , ,,,,,,,,,,,,,,,,,712,,,,94.9,1000,100,85,5,5,3,8,,,,,,, ,
X,5,25,2022,711,93850,40.9384,-69.7832,179,307,2,2,94,5,3,2,2,2,C,,,,,,,, , ,,,,,,,,,,,,,,,,,713,,,,94.3,1000,100,85,5,5,3,8,,,,,,, ,
X,5,25,2022,712,93855,40.9363,-69.7832,179,307,2,2,94,5,3,2,2,2,C,,,,,,,, , ,,,,,,,,,,,,,,,,,714,,,,94.3,1000,100,85,5,5,3,8,,,,,,, ,
X,5,25,2022,713,93900,40.9342,-69.7832,180,306,2,2,94,5,3,2,2,2,C,,,,,,,, , ,,,,,,,,,,,,,,,,,715,,,,95,1000,100,85,5,5,3,8,,,,,,, ,
X,5,25,2022,714,93905,40.932,-69.7832,180,307,2,2,94,5,3,2,2,2,C,,,,,,,, , ,,,,,,,,,,,,,,,,,716,,,,95.4,1000,100,85,5,5,3,8,,,,,,, ,
X,5,25,2022,715,93910,40.9298,-69.7833,180,309,2,2,94,5,3,2,2,2,C,,,,,,,, , ,,,,,,,,,,,,,,,,,717,,,,95,1000,100,85,5,5,3,8,,,,,,, ,
X,5,25,2022,716,93915,40.9276,-69.7833,180,312,2,2,94,5,3,2,2,2,C,,,,,,,, , ,,,,,,,,,,,,,,,,,718,,,,94.8,1000,100,85,5,5,3,8,,,,,,, ,
X,5,25,2022,717,93920,40.9254,-69.7833,179,310,2,2,94,5,3,2,2,2,C,,,,,,,, , ,,,,,,,,,,,,,,,,,719,,,,95,1000,100,85,5,5,3,8,,,,,,, ,
X,5,25,2022,718,93925,40.9232,-69.7833,179,308,2,2,94,5,3,2,2,2,C,,,,,,,, , ,,,,,,,,,,,,,,,,,720,,,,95.6,1000,100,85,5,5,3,8,,,,,,, ,
Z,5,25,2022,719,93925,40.9232,-69.7833,179,308,2,2,94,5,3,2,2,2,C,,,,,,,, , ,,,,,,,,,,,,,,,,,721,,,,95.6,1000,100,85,5,5,3,8,,,,,,, ,
X,5,25,2022,720,93930,40.921,-69.7833,179,307,2,2,94,5,3,2,2,2,C,,,,,,,, , ,,,,,,,,,,,,,,,,,722,,,,95.9,1000,100,85,5,5,3,8,,,,,,, ,
S,5,25,2022,721,93931,40.921,-69.7833,179,307,2,2,94,5,3,2,3,2,C,10,,,,,,, , ,,,,,,,,,,,,,,,,,723,,,,95.9,1000,100,85,5,5,3,8,,,,,,, ,
X,5,25,2022,722,93935,40.9193,-69.7833,179,307,2,2,94,5,3,2,3,2,C,,,,,,,, , ,,,,,,,,,,,,,,,,,724,,,,96.2,1000,100,85,5,5,3,9,,,,,,, ,
X,5,25,2022,723,93940,40.9165,-69.7832,179,304,2,2,94,5,3,2,3,2,C,,,,,,,, , ,,,,,,,,,,,,,,,,,725,,,,97.3,1000,100,85,5,5,3,8,,,,,,, ,
X,5,25,2022,724,93945,40.9142,-69.7832,180,304,2,2,94,5,3,2,3,2,C,,,,,,,, , ,,,,,,,,,,,,,,,,,726,,,,97.3,1000,100,85,5,5,3,8,,,,,,, ,
X,5,25,2022,725,93950,40.912,-69.7833,180,306,2,2,94,5,3,2,3,2,C,,,,,,,, , ,,,,,,,,,,,,,,,,,727,,,,96.5,1000,100,85,5,5,3,8,,,,,,, ,
X,5,25,2022,726,93955,40.9096,-69.7833,180,305,2,2,94,5,3,2,3,2,C,,,,,,,, , ,,,,,,,,,,,,,,,,,728,,,,97.2,1000,100,85,5,5,3,8,,,,,,, ,
X,5,25,2022,727,94000,40.9077,-69.7833,179,303,2,2,94,5,3,2,3,2,C,,,,,,,, , ,,,,,,,,,,,,,,,,,729,,,,98.2,1000,100,85,5,5,3,9,,,,,,, ,
X,5,25,2022,728,94005,40.9052,-69.7833,179,302,2,2,94,5,3,2,3,2,C,,,,,,,, , ,,,,,,,,,,,,,,,,,730,,,,98.3,1000,100,85,5,5,3,8,,,,,,, ,
X,5,25,2022,729,94010,40.9028,-69.7832,179,302,2,2,94,5,3,2,3,2,C,,,,,,,, , ,,,,,,,,,,,,,,,,,731,,,,97.4,1000,100,85,5,5,3,8,,,,,,, ,
Z,5,25,2022,730,94011,40.9026,-69.7832,179,302,2,2,94,5,3,2,3,2,C,,,,,,,, , ,,,,,,,,,,,,,,,,,732,,,,97.6,1000,100,85,5,5,3,8,,,,,,, ,
X,5,25,2022,731,94015,40.9006,-69.7832,179,303,2,2,94,5,3,2,3,2,C,,,,,,,, , ,,,,,,,,,,,,,,,,,733,,,,97.6,1000,100,85,5,5,3,8,,,,,,, ,
Z,5,25,2022,732,94019,40.8991,-69.7832,179,303,2,2,94,5,3,2,3,2,C,,,,,,,, , ,,,,,,,,,,,,,,,,,734,,,,97.7,1000,100,85,5,5,3,8,,,,,,, ,
X,5,25,2022,733,94020,40.8983,-69.7832,179,302,2,2,94,5,3,2,3,2,C,,,,,,,, , ,,,,,,,,,,,,,,,,,735,,,,98.3,1000,100,85,5,5,3,8,,,,,,, ,
X,5,25,2022,734,94025,40.896,-69.7831,179,299,2,2,94,5,3,2,3,2,C,,,,,,,, , ,,,,,,,,,,,,,,,,,736,,,,98.4,1000,100,85,5,5,3,8,,,,,,, ,
X,5,25,2022,735,94030,40.8941,-69.7831,179,298,2,2,94,5,3,2,3,2,C,,,,,,,, , ,,,,,,,,,,,,,,,,,737,,,,98.7,1000,100,85,5,5,3,8,,,,,,, ,
X,5,25,2022,736,94035,40.8916,-69.7831,179,300,2,2,94,5,3,2,3,2,C,,,,,,,, , ,,,,,,,,,,,,,,,,,738,,,,97.2,1000,100,85,5,5,3,8,,,,,,, ,
X,5,25,2022,737,94040,40.8893,-69.7831,180,305,2,2,94,5,3,2,3,2,C,,,,,,,, , ,,,,,,,,,,,,,,,,,739,,,,95.8,1000,100,85,5,5,3,8,,,,,,, ,
X,5,25,2022,738,94045,40.8871,-69.7831,179,305,2,2,94,5,3,2,3,2,C,,,,,,,, , ,,,,,,,,,,,,,,,,,740,,,,95.7,1000,100,85,5,5,3,8,,,,,,, ,
X,5,25,2022,739,94050,40.8849,-69.7831,179,305,2,2,94,5,3,2,3,2,C,,,,,,,, , ,,,,,,,,,,,,,,,,,741,,,,95.9,1000,100,85,5,5,3,8,,,,,,, ,
X,5,25,2022,740,94055,40.883,-69.7831,180,305,2,2,94,5,3,2,3,2,C,,,,,,,, , ,,,,,,,,,,,,,,,,,742,,,,96.2,1000,100,85,5,5,3,8,,,,,,, ,
X,5,25,2022,741,94100,40.8805,-69.7831,180,307,2,2,94,5,3,2,3,2,C,,,,,,,, , ,,,,,,,,,,,,,,,,,743,,,,95.5,1000,100,85,5,5,3,8,,,,,,, ,
Z,5,25,2022,742,94100,40.8801,-69.7831,180,307,2,2,94,5,3,2,3,2,C,,,,,,,, , ,,,,,,,,,,,,,,,,,744,,,,95.7,1000,100,85,5,5,3,8,,,,,,, ,
X,5,25,2022,743,94105,40.8782,-69.7831,180,307,2,2,94,5,3,2,3,2,C,,,,,,,, , ,,,,,,,,,,,,,,,,,745,,,,95.7,1000,100,85,5,5,3,8,,,,,,, ,
X,5,25,2022,744,94110,40.8759,-69.7831,180,309,2,2,94,5,3,2,3,2,C,,,,,,,, , ,,,,,,,,,,,,,,,,,746,,,,95.8,1000,100,85,5,5,3,8,,,,,,, ,
X,5,25,2022,745,94115,40.8737,-69.7831,179,309,2,2,94,5,3,2,3,2,C,,,,,,,, , ,,,,,,,,,,,,,,,,,747,,,,95.9,1000,100,85,5,5,3,8,,,,,,, ,
Z,5,25,2022,746,94117,40.8728,-69.7831,179,309,2,2,94,5,3,2,3,2,C,,,,,,,, , ,,,,,,,,,,,,,,,,,748,,,,95.7,1000,100,85,5,5,3,8,,,,,,, ,
X,5,25,2022,747,94120,40.8715,-69.7831,179,309,2,2,94,5,3,2,3,2,C,,,,,,,, , ,,,,,,,,,,,,,,,,,749,,,,95.8,1000,100,85,5,5,3,8,,,,,,, ,
X,5,25,2022,748,94125,40.8694,-69.7831,181,310,2,2,94,5,3,2,3,2,C,,,,,,,, , ,,,,,,,,,,,,,,,,,750,,,,95.9,1000,100,85,5,5,3,9,,,,,,, ,
X,5,25,2022,749,94130,40.8672,-69.7832,181,311,2,2,94,5,3,2,3,2,C,,,,,,,, , ,,,,,,,,,,,,,,,,,751,,,,96.3,1000,100,85,5,5,3,8,,,,,,, ,
X,5,25,2022,750,94135,40.8649,-69.7832,181,310,2,2,94,5,3,2,3,2,C,,,,,,,, , ,,,,,,,,,,,,,,,,,752,,,,96.4,1000,100,85,5,5,3,8,,,,,,, ,
X,5,25,2022,751,94140,40.8627,-69.7833,182,309,2,2,94,5,3,2,3,2,C,,,,,,,, , ,,,,,,,,,,,,,,,,,753,,,,97,1000,100,85,5,5,3,8,,,,,,, ,
X,5,25,2022,752,94145,40.8604,-69.7835,181,309,2,2,94,5,3,2,3,2,C,,,,,,,, , ,,,,,,,,,,,,,,,,,754,,,,96.7,1000,100,85,5,5,3,8,,,,,,, ,
X,5,25,2022,753,94150,40.8581,-69.7835,180,309,2,2,94,5,3,2,3,2,C,,,,,,,, , ,,,,,,,,,,,,,,,,,755,,,,96.4,1000,100,85,5,5,3,8,,,,,,, ,
Z,5,25,2022,754,94150,40.8579,-69.7835,180,309,2,2,94,5,3,2,3,2,C,,,,,,,, , ,,,,,,,,,,,,,,,,,756,,,,96.5,1000,100,85,5,5,3,8,,,,,,, ,
X,5,25,2022,755,94155,40.8562,-69.7835,181,309,2,2,94,5,3,2,3,2,C,,,,,,,, , ,,,,,,,,,,,,,,,,,757,,,,96.7,1000,100,85,5,5,3,8,,,,,,, ,
X,5,25,2022,756,94200,40.8537,-69.7836,179,311,2,2,94,5,3,2,3,2,C,,,,,,,, , ,,,,,,,,,,,,,,,,,758,,,,96.3,1000,100,85,5,5,3,8,,,,,,, ,
Z,5,25,2022,757,94203,40.8524,-69.7835,179,310,2,2,94,5,3,2,3,2,C,,,,,,,, , ,,,,,,,,,,,,,,,,,759,,,,96.3,1000,100,85,5,5,3,8,,,,,,, ,
X,5,25,2022,758,94205,40.8515,-69.7835,179,310,2,2,94,5,3,2,3,2,C,,,,,,,, , ,,,,,,,,,,,,,,,,,760,,,,96.2,1000,100,85,5,5,3,8,,,,,,, ,
X,5,25,2022,759,94210,40.8492,-69.7835,178,311,2,2,94,5,3,2,3,2,C,,,,,,,, , ,,,,,,,,,,,,,,,,,761,,,,96,1000,100,85,5,5,3,8,,,,,,, ,
X,5,25,2022,760,94215,40.847,-69.7834,178,310,2,2,94,5,3,2,3,2,C,,,,,,,, , ,,,,,,,,,,,,,,,,,762,,,,96.5,1000,100,85,5,5,3,8,,,,,,, ,
X,5,25,2022,761,94220,40.8448,-69.7833,178,310,2,2,94,5,3,2,3,2,C,,,,,,,, , ,,,,,,,,,,,,,,,,,763,,,,96.3,1000,100,85,5,5,3,8,,,,,,, ,
X,5,25,2022,762,94225,40.8424,-69.7833,179,310,2,2,94,5,3,2,3,2,C,,,,,,,, , ,,,,,,,,,,,,,,,,,764,,,,96.7,1000,100,85,5,5,3,8,,,,,,, ,
X,5,25,2022,763,94230,40.8404,-69.7833,179,310,2,2,94,5,3,2,3,2,C,,,,,,,, , ,,,,,,,,,,,,,,,,,765,,,,96.7,1000,100,85,5,5,3,8,,,,,,, ,
X,5,25,2022,764,94235,40.8381,-69.7832,179,310,2,2,94,5,3,2,3,2,C,,,,,,,, , ,,,,,,,,,,,,,,,,,766,,,,97,1000,100,85,5,5,3,8,,,,,,, ,
X,5,25,2022,765,94240,40.8357,-69.7832,179,311,2,2,94,5,3,2,3,2,C,,,,,,,, , ,,,,,,,,,,,,,,,,,767,,,,96.9,1000,100,85,5,5,3,8,,,,,,, ,
Z,5,25,2022,766,94240,40.8357,-69.7832,179,311,2,2,94,5,3,2,3,2,C,,,,,,,, , ,,,,,,,,,,,,,,,,,768,,,,96.9,1000,100,85,5,5,3,8,,,,,,, ,
X,5,25,2022,767,94245,40.8336,-69.7832,180,311,2,2,94,5,3,2,3,2,C,,,,,,,, , ,,,,,,,,,,,,,,,,,769,,,,97.1,1000,100,85,5,5,3,8,,,,,,, ,
X,5,25,2022,768,94250,40.8312,-69.7832,180,311,2,2,94,5,3,2,3,2,C,,,,,,,, , ,,,,,,,,,,,,,,,,,770,,,,96.7,1000,100,85,5,5,3,8,,,,,,, ,
Z,5,25,2022,769,94252,40.8302,-69.7832,179,312,2,2,94,5,3,2,3,2,C,,,,,,,, , ,,,,,,,,,,,,,,,,,771,,,,96.5,1000,100,85,5,5,3,8,,,,,,, ,
X,5,25,2022,770,94255,40.8295,-69.7832,180,312,2,2,94,5,3,2,3,2,C,,,,,,,, , ,,,,,,,,,,,,,,,,,772,,,,96.4,1000,100,85,5,5,3,8,,,,,,, ,
X,5,25,2022,771,94300,40.8269,-69.7833,180,311,2,2,94,5,3,2,3,2,C,,,,,,,, , ,,,,,,,,,,,,,,,,,773,,,,96.6,1000,100,85,5,5,3,8,,,,,,, ,
X,5,25,2022,772,94305,40.8246,-69.7833,180,311,2,2,94,5,3,2,3,2,C,,,,,,,, , ,,,,,,,,,,,,,,,,,774,,,,96.9,1000,100,85,5,5,3,8,,,,,,, ,
X,5,25,2022,773,94310,40.8224,-69.7833,180,312,2,2,94,5,3,2,3,2,C,,,,,,,, , ,,,,,,,,,,,,,,,,,775,,,,97.1,1000,100,85,5,5,3,8,,,,,,, ,
X,5,25,2022,774,94315,40.8201,-69.7833,180,312,2,2,94,5,3,2,3,2,C,,,,,,,, , ,,,,,,,,,,,,,,,,,776,,,,97,1000,100,85,5,5,3,8,,,,,,, ,
X,5,25,2022,775,94320,40.8178,-69.7833,180,313,2,2,94,5,3,2,3,2,C,,,,,,,, , ,,,,,,,,,,,,,,,,,777,,,,97.2,1000,100,85,5,5,3,8,,,,,,, ,
X,5,25,2022,776,94325,40.8156,-69.7834,180,313,2,2,94,5,3,2,3,2,C,,,,,,,, , ,,,,,,,,,,,,,,,,,778,,,,97,1000,100,85,5,5,3,8,,,,,,, ,
X,5,25,2022,777,94330,40.8133,-69.7834,180,312,2,2,94,5,3,2,3,2,C,,,,,,,, , ,,,,,,,,,,,,,,,,,779,,,,97,1000,100,85,5,5,3,8,,,,,,, ,
Z,5,25,2022,778,94334,40.8116,-69.7834,179,313,2,2,94,5,3,2,3,2,C,,,,,,,, , ,,,,,,,,,,,,,,,,,780,,,,96.8,1000,100,85,5,5,3,8,,,,,,, ,
X,5,25,2022,779,94335,40.8112,-69.7834,179,313,2,2,94,5,3,2,3,2,C,,,,,,,, , ,,,,,,,,,,,,,,,,,781,,,,96.8,1000,100,85,5,5,3,8,,,,,,, ,
X,5,25,2022,780,94340,40.8089,-69.7834,179,315,2,2,94,5,3,2,3,2,C,,,,,,,, , ,,,,,,,,,,,,,,,,,782,,,,96.9,1000,100,85,5,5,3,8,,,,,,, ,
Z,5,25,2022,781,94342,40.8079,-69.7834,179,314,2,2,94,5,3,2,3,2,C,,,,,,,, , ,,,,,,,,,,,,,,,,,783,,,,96.6,1000,100,85,5,5,3,8,,,,,,, ,
S,5,25,2022,782,94344,40.8079,-69.7834,179,314,2,2,94,5,3,2,3,2,C,11,,21,BASH,1,,,1,3,0,,,,,,,,,,,,,,,,784,,,,96.6,1000,100,85,5,5,3,8,,,,,,, ,
X,5,25,2022,783,94345,40.8065,-69.7834,179,314,2,2,94,5,3,2,3,2,C,,,,,,,, , ,,,,,,,,,,,,,,,,,785,,,,96.8,1000,100,85,5,5,3,8,,,,,,, ,
X,5,25,2022,784,94350,40.8043,-69.7834,179,313,2,2,94,5,3,2,3,2,C,,,,,,,, , ,,,,,,,,,,,,,,,,,786,,,,97.1,1000,100,85,5,5,3,8,,,,,,, ,
X,5,25,2022,785,94355,40.8021,-69.7834,179,311,2,2,94,5,3,2,3,2,C,,,,,,,, , ,,,,,,,,,,,,,,,,,787,,,,97.6,1000,100,85,5,5,3,8,,,,,,, ,
X,5,25,2022,786,94400,40.8001,-69.7833,179,311,2,2,94,5,3,2,3,2,C,,,,,,,, , ,,,,,,,,,,,,,,,,,788,,,,97.7,1000,100,85,5,5,3,8,,,,,,, ,
X,5,25,2022,787,94405,40.7976,-69.7833,179,311,2,2,94,5,3,2,3,2,C,,,,,,,, , ,,,,,,,,,,,,,,,,,789,,,,98.2,1000,100,85,5,5,3,8,,,,,,, ,
X,5,25,2022,788,94410,40.7953,-69.7833,179,311,2,2,94,5,3,2,3,2,C,,,,,,,, , ,,,,,,,,,,,,,,,,,790,,,,97.9,1000,100,85,5,5,3,8,,,,,,, ,
X,5,25,2022,789,94415,40.793,-69.7833,179,311,2,2,94,5,3,2,3,2,C,,,,,,,, , ,,,,,,,,,,,,,,,,,791,,,,98,1000,100,85,5,5,3,8,,,,,,, ,
X,5,25,2022,790,94420,40.7907,-69.7832,179,309,2,2,94,5,3,2,3,2,C,,,,,,,, , ,,,,,,,,,,,,,,,,,792,,,,99.1,1000,100,85,5,5,3,8,,,,,,, ,
X,5,25,2022,791,94425,40.7884,-69.7832,180,306,2,2,94,5,3,2,3,2,C,,,,,,,, , ,,,,,,,,,,,,,,,,,793,,,,100,1000,100,85,5,5,3,8,,,,,,, ,
X,5,25,2022,792,94430,40.7862,-69.7833,180,305,2,2,94,5,3,2,3,2,C,,,,,,,, , ,,,,,,,,,,,,,,,,,794,,,,99.9,1000,100,85,5,5,3,8,,,,,,, ,
Z,5,25,2022,793,94432,40.7851,-69.7833,180,305,2,2,94,5,3,2,3,2,C,,,,,,,, , ,,,,,,,,,,,,,,,,,795,,,,99.8,1000,100,85,5,5,3,8,,,,,,, ,
X,5,25,2022,794,94435,40.7838,-69.7833,180,306,2,2,94,5,3,2,3,2,C,,,,,,,, , ,,,,,,,,,,,,,,,,,796,,,,99.5,1000,100,85,5,5,3,8,,,,,,, ,
X,5,25,2022,795,94440,40.7815,-69.7833,180,307,2,2,94,5,3,2,3,2,C,,,,,,,, , ,,,,,,,,,,,,,,,,,797,,,,99.3,1000,100,85,5,5,3,8,,,,,,, ,
X,5,25,2022,796,94445,40.7792,-69.7834,180,306,2,2,94,5,3,2,3,2,C,,,,,,,, , ,,,,,,,,,,,,,,,,,798,,,,99.4,1000,100,85,5,5,3,8,,,,,,, ,
X,5,25,2022,797,94450,40.7769,-69.7834,180,305,2,2,94,5,3,2,3,2,C,,,,,,,, , ,,,,,,,,,,,,,,,,,799,,,,99.7,1000,100,85,5,5,3,8,,,,,,, ,
P,5,25,2022,798,94453,40.7755,-69.7834,179,304,2,2,94,5,3,2,3,2,C,12,67,,BASH,1,,,1,3,0,,,,,,,,,,,,,,,,800,,,,99.7,1000,100,85,5,5,3,8,,,,,,, ,
X,5,25,2022,799,94455,40.7745,-69.7834,179,304,2,2,94,5,3,2,3,2,C,,,,,,,, , ,,,,,,,,,,,,,,,,,801,,,,99.7,1000,100,85,5,5,3,8,,,,,,, ,
X,5,25,2022,800,94500,40.7723,-69.7834,180,304,2,2,94,5,3,2,3,2,C,,,,,,,, , ,,,,,,,,,,,,,,,,,802,,,,99.7,1000,100,85,5,5,3,8,,,,,,, ,
X,5,25,2022,801,94505,40.77,-69.7834,180,304,2,2,94,5,3,2,3,2,C,,,,,,,, , ,,,,,,,,,,,,,,,,,803,,,,99.4,1000,100,85,5,5,3,8,,,,,,, ,
X,5,25,2022,802,94510,40.7677,-69.7834,179,304,2,2,94,5,3,2,3,2,C,,,,,,,, , ,,,,,,,,,,,,,,,,,804,,,,99.1,1000,100,85,5,5,3,8,,,,,,, ,
X,5,25,2022,803,94515,40.7654,-69.7834,178,306,2,2,94,5,3,2,3,2,C,,,,,,,, , ,,,,,,,,,,,,,,,,,805,,,,98.2,1000,100,85,5,5,3,8,,,,,,, ,
X,5,25,2022,804,94520,40.763,-69.7833,178,307,2,2,94,5,3,2,3,2,C,,,,,,,, , ,,,,,,,,,,,,,,,,,806,,,,98,1000,100,85,5,5,3,8,,,,,,, ,
Z,5,25,2022,805,94522,40.7622,-69.7833,179,307,2,2,94,5,3,2,3,2,C,,,,,,,, , ,,,,,,,,,,,,,,,,,807,,,,98.5,1000,100,85,5,5,3,8,,,,,,, ,
X,5,25,2022,806,94525,40.761,-69.7833,179,307,2,2,94,5,3,2,3,2,C,,,,,,,, , ,,,,,,,,,,,,,,,,,808,,,,98.9,1000,100,85,5,5,3,8,,,,,,, ,
X,5,25,2022,807,94530,40.7585,-69.7832,179,304,2,2,94,5,3,2,3,2,C,,,,,,,, , ,,,,,,,,,,,,,,,,,809,,,,99.7,1000,100,85,5,5,3,8,,,,,,, ,
X,5,25,2022,808,94535,40.7563,-69.7832,180,303,2,2,94,5,3,2,3,2,C,,,,,,,, , ,,,,,,,,,,,,,,,,,810,,,,99.9,1000,100,85,5,5,3,8,,,,,,, ,
X,5,25,2022,809,94540,40.7539,-69.7832,180,304,2,2,94,5,3,2,3,2,C,,,,,,,, , ,,,,,,,,,,,,,,,,,811,,,,99.6,1000,100,85,5,5,3,8,,,,,,, ,
X,5,25,2022,810,94545,40.7516,-69.7833,180,305,2,2,94,5,3,2,3,2,C,,,,,,,, , ,,,,,,,,,,,,,,,,,812,,,,99.1,1000,100,85,5,5,3,8,,,,,,, ,
X,5,25,2022,811,94550,40.7493,-69.7833,180,306,2,2,94,5,3,2,3,2,C,,,,,,,, , ,,,,,,,,,,,,,,,,,813,,,,98.2,1000,100,85,5,5,3,8,,,,,,, ,
X,5,25,2022,812,94555,40.7472,-69.7833,179,305,2,2,94,5,3,2,3,2,C,,,,,,,, , ,,,,,,,,,,,,,,,,,814,,,,98.5,1000,100,85,5,5,3,8,,,,,,, ,
X,5,25,2022,813,94600,40.7448,-69.7833,180,303,2,2,94,5,3,2,3,2,C,,,,,,,, , ,,,,,,,,,,,,,,,,,815,,,,99.2,1000,100,85,5,5,3,8,,,,,,, ,
X,5,25,2022,814,94605,40.7424,-69.7833,180,302,2,2,94,5,3,2,3,2,C,,,,,,,, , ,,,,,,,,,,,,,,,,,816,,,,99.7,1000,100,85,5,5,3,8,,,,,,, ,
X,5,25,2022,815,94610,40.74,-69.7833,179,302,2,2,94,5,3,2,3,2,C,,,,,,,, , ,,,,,,,,,,,,,,,,,817,,,,99.5,1000,100,85,5,5,3,8,,,,,,, ,
Z,5,25,2022,816,94612,40.7394,-69.7833,179,303,2,2,94,5,3,2,3,2,C,,,,,,,, , ,,,,,,,,,,,,,,,,,818,,,,99.4,1000,100,85,5,5,3,8,,,,,,, ,
X,5,25,2022,817,94615,40.7377,-69.7833,180,303,2,2,94,5,3,2,3,2,C,,,,,,,, , ,,,,,,,,,,,,,,,,,819,,,,99.2,1000,100,85,5,5,3,8,,,,,,, ,
X,5,25,2022,818,94620,40.736,-69.7833,179,304,2,2,94,5,3,2,3,2,C,,,,,,,, , ,,,,,,,,,,,,,,,,,820,,,,99.2,1000,100,85,5,5,3,8,,,,,,, ,
X,5,25,2022,819,94625,40.7333,-69.7833,179,303,2,2,94,5,3,2,3,2,C,,,,,,,, , ,,,,,,,,,,,,,,,,,821,,,,99.3,1000,100,85,5,5,3,8,,,,,,, ,
X,5,25,2022,820,94630,40.7309,-69.7833,179,300,2,2,94,5,3,2,3,2,C,,,,,,,, , ,,,,,,,,,,,,,,,,,822,,,,99.9,1000,100,85,5,5,3,8,,,,,,, ,
X,5,25,2022,821,94635,40.7286,-69.7832,179,299,2,2,94,5,3,2,3,2,C,,,,,,,, , ,,,,,,,,,,,,,,,,,823,,,,100.3,1000,100,85,5,5,3,8,,,,,,, ,
X,5,25,2022,822,94640,40.7263,-69.7832,180,300,2,2,94,5,3,2,3,2,C,,,,,,,, , ,,,,,,,,,,,,,,,,,824,,,,100,1000,100,85,5,5,3,8,,,,,,, ,
X,5,25,2022,823,94645,40.724,-69.7833,180,301,2,2,94,5,3,2,3,2,C,,,,,,,, , ,,,,,,,,,,,,,,,,,825,,,,99.6,1000,100,85,5,5,3,8,,,,,,, ,
X,5,25,2022,824,94650,40.7217,-69.7833,180,301,2,2,94,5,3,2,3,2,C,,,,,,,, , ,,,,,,,,,,,,,,,,,826,,,,99.7,1000,100,85,5,5,3,8,,,,,,, ,
X,5,25,2022,825,94655,40.7194,-69.7834,180,301,2,2,94,5,3,2,3,2,C,,,,,,,, , ,,,,,,,,,,,,,,,,,827,,,,99.9,1000,100,85,5,5,3,8,,,,,,, ,
X,5,25,2022,826,94700,40.717,-69.7834,179,300,2,2,94,5,3,2,3,2,C,,,,,,,, , ,,,,,,,,,,,,,,,,,828,,,,99.4,1000,100,85,5,5,3,8,,,,,,, ,
Z,5,25,2022,827,94701,40.7162,-69.7833,178,300,2,2,94,5,3,2,3,2,C,,,,,,,, , ,,,,,,,,,,,,,,,,,829,,,,99.5,1000,100,85,5,5,3,8,,,,,,, ,
X,5,25,2022,828,94705,40.7147,-69.7833,177,300,2,2,94,5,3,2,3,2,C,,,,,,,, , ,,,,,,,,,,,,,,,,,830,,,,99.3,1000,100,85,5,5,3,8,,,,,,, ,
X,5,25,2022,829,94710,40.7124,-69.7831,178,301,2,2,94,5,3,2,3,2,C,,,,,,,, , ,,,,,,,,,,,,,,,,,831,,,,99,1000,100,85,5,5,3,8,,,,,,, ,
X,5,25,2022,830,94715,40.71,-69.7831,180,300,2,2,94,5,3,2,3,2,C,,,,,,,, , ,,,,,,,,,,,,,,,,,832,,,,99.6,1000,100,85,5,5,3,8,,,,,,, ,
X,5,25,2022,831,94720,40.7077,-69.7831,180,300,2,2,94,5,3,2,3,2,C,,,,,,,, , ,,,,,,,,,,,,,,,,,833,,,,100,1000,100,85,5,5,3,8,,,,,,, ,
X,5,25,2022,832,94725,40.7056,-69.7831,180,299,2,2,94,5,3,2,3,2,C,,,,,,,, , ,,,,,,,,,,,,,,,,,834,,,,99.6,1000,100,85,5,5,3,8,,,,,,, ,
