rectype,month,day,year,eventno,time,lat,long,heading,alt,legtype,legstage,legno,visiblty,glarel,glarer,beaufort,cloud,wx,sightno,strip,speccode,number,numcalf,anhead,photos,idrel,confidnc,behav1,behav2,behav3,behav4,behav5,behav6,behav7,behav8,behav9,behav10,behav11,behav12,behav13,behav14,behav15,psightings,ssightings,pnum,snum,legflag,view,refno,stratum,utc,radalt,gpsspeed,setalt,setvel,lensfl,ggf,int,gpsq,gpssats,roll,pitch,yaw,maghead,notes,edits,glarev,ph_qual
S,5,20,2022,444,113050,41.2105,-71.1916,181,299,1,-,,, , , ,, ,3,,,,,, , ,,,,,,,,,,,,,,,,,1,2,,,,T,444,,,,120.4,1000,100,85,5,5,3,10,,,,,,GOING ON WATCH, ,
X,5,20,2022,445,113050,41.21,-71.1916,181,298,1,-,,, , , ,, ,,,,,,, , ,,,,,,,,,,,,,,,,,1,2,,,,T,445,,,,119.9,1000,100,85,5,5,3,10,,,,,,, ,
X,5,20,2022,446,113052,41.209,-71.1916,181,298, , ,,, , , ,, ,,,,,,, , ,,,,,,,,,,,,,,,,,1,2,,,,F,446,,,,119.3,1000,100,85,5,5,3,10,,,,,,, ,
X,5,20,2022,447,113057,41.2062,-71.1916,177,297, , ,,, , , ,, ,,,,,,, , ,,,,,,,,,,,,,,,,,1,2,,,,F,447,,,,116.8,1000,100,85,5,5,3,10,,,,,,, ,
X,5,20,2022,448,113102,41.2036,-71.1913,172,299, , ,,, , , ,, ,,,,,,, , ,,,,,,,,,,,,,,,,,1,2,,,,F,448,,,,113.6,1000,100,85,5,5,3,10,,,,,,, ,
X,5,20,2022,449,113107,41.201,-71.1908,171,302, , ,,, , , ,, ,,,,,,, , ,,,,,,,,,,,,,,,,,1,2,,,,T,449,,,,111,1000,100,85,5,5,3,10,,,,,,, ,
P,5,20,2022,450,113108,41.201,-71.1908,171,302, , ,,, , , ,, ,4,,,,,, , ,,,,,,,,,,,,,,,,,2,2,,,,T,450,,,,111,1000,100,85,5,5,3,10,,,,,,, ,
X,5,20,2022,451,113108,41.2002,-71.1906,171,302, , ,,, , , ,, ,,,,,,, , ,,,,,,,,,,,,,,,,,2,2,,,,T,451,,,,110.5,1000,100,85,5,5,3,10,,,,,,, ,
X,5,20,2022,452,113112,41.1985,-71.1903,171,300, , ,,, , , ,, ,,,,,,, , ,,,,,,,,,,,,,,,,,2,2,,,,F,452,,,,109.3,1000,100,85,5,5,3,10,,,,,,, ,
X,5,20,2022,453,113117,41.1961,-71.1898,173,298, , ,,, , , ,, ,,,,,,, , ,,,,,,,,,,,,,,,,,2,2,,,,F,453,,,,106.6,1000,100,85,5,5,3,10,,,,,,, ,
X,5,20,2022,454,113122,41.1937,-71.1895,174,300, , ,,, , , ,, ,,,,,,, , ,,,,,,,,,,,,,,,,,2,2,,,,F,454,,,,102.7,1000,100,85,5,5,3,10,,,,,,, ,
X,5,20,2022,455,113127,41.1914,-71.1892,174,303, , ,,, , , ,, ,,,,,,, , ,,,,,,,,,,,,,,,,,2,2,,,,F,455,,,,98.9,1000,100,85,5,5,3,10,,,,,,, ,
X,5,20,2022,456,113132,41.1891,-71.1889,172,307, , ,,, , , ,, ,,,,,,, , ,,,,,,,,,,,,,,,,,2,2,,,,F,456,,,,95.4,1000,100,85,5,5,3,10,,,,,,, ,
X,5,20,2022,457,113137,41.1869,-71.1885,169,315, , ,,, , , ,, ,,,,,,, , ,,,,,,,,,,,,,,,,,2,2,,,,F,457,,,,90.5,1000,100,85,5,5,3,10,,,,,,, ,
X,5,20,2022,458,113142,41.1849,-71.1879,166,317, , ,,, , , ,, ,,,,,,, , ,,,,,,,,,,,,,,,,,2,2,,,,F,458,,,,87.8,1000,100,85,5,5,3,10,,,,,,, ,
Z,5,20,2022,459,113143,41.1845,-71.1878,166,317, , ,,, , , ,, ,,,,,,, , ,,,,,,,,,,,,,,,,,2,2,,,,F,459,,,,87.9,1000,100,85,5,5,3,9,,,,,,, ,
X,5,20,2022,460,113147,41.1832,-71.1874,166,314, , ,,, , , ,, ,,,,,,, , ,,,,,,,,,,,,,,,,,2,2,,,,F,460,,,,88.3,1000,100,85,5,5,3,10,,,,,,, ,
X,5,20,2022,461,113152,41.1809,-71.1867,168,312, , ,,, , , ,, ,,,,,,, , ,,,,,,,,,,,,,,,,,2,2,,,,F,461,,,,87.9,1000,100,85,5,5,3,10,,,,,,, ,
X,5,20,2022,462,113157,41.179,-71.1861,166,313, , ,,, , , ,, ,,,,,,, , ,,,,,,,,,,,,,,,,,2,2,,,,F,462,,,,85.7,1000,100,85,5,5,3,10,,,,,,, ,
X,5,20,2022,463,113202,41.1771,-71.1854,166,313, , ,,, , , ,, ,,,,,,, , ,,,,,,,,,,,,,,,,,2,2,,,,T,463,,,,84.7,1000,100,85,5,5,3,9,,,,,,, ,
S,5,20,2022,464,113204,41.1766,-71.1853,168,312, , ,,, , , ,, ,5,,,,,, , ,,,,,,,,,,,,,,,,,2,3,,,,T,464,,,,84.6,1000,100,85,5,5,3,9,,,,,,, ,
X,5,20,2022,465,113204,41.1762,-71.1852,169,312, , ,,, , , ,, ,,,,,,, , ,,,,,,,,,,,,,,,,,2,3,,,,T,465,,,,84.8,1000,100,85,5,5,3,9,,,,,,, ,
X,5,20,2022,466,113207,41.1751,-71.185,169,308, , ,,, , , ,, ,,,,,,, , ,,,,,,,,,,,,,,,,,2,3,,,,F,466,,,,85.6,1000,100,85,5,5,3,10,,,,,,, ,
X,5,20,2022,467,113212,41.1732,-71.1845,168,304, , ,,, , , ,, ,,,,,,, , ,,,,,,,,,,,,,,,,,2,3,,,,F,467,,,,85.6,1000,100,85,5,5,3,10,,,,,,, ,
X,5,20,2022,468,113217,41.1712,-71.184,169,306, , ,,, , , ,, ,,,,,,, , ,,,,,,,,,,,,,,,,,2,3,,,,F,468,,,,84.8,1000,100,85,5,5,3,9,,,,,,, ,
X,5,20,2022,469,113222,41.1693,-71.1837,178,307, , ,,, , , ,, ,,,,,,, , ,,,,,,,,,,,,,,,,,2,3,,,,T,469,,,,84.7,1000,100,85,5,5,3,10,,,,,,, ,
S,5,20,2022,470,113224,41.1684,-71.1837,178,307, , ,,, , , ,, ,6,,,,,, , ,,,,,,,,,,,,,,,,,2,4,,,,T,470,,,,84.7,1000,100,85,5,5,3,10,,,,,,BEGIN LINE, ,
X,5,20,2022,471,113225,41.1682,-71.1837,178,307, , ,,, , , ,, ,,,,,,, , ,,,,,,,,,,,,,,,,,2,4,,,,T,471,,,,84.8,1000,100,85,5,5,3,10,,,,,,, ,
X,5,20,2022,472,113227,41.1673,-71.1837,178,307, , ,,, , , ,, ,,,,,,, , ,,,,,,,,,,,,,,,,,2,4,,,,F,472,,,,84.8,1000,100,85,5,5,3,10,,,,,,, ,
X,5,20,2022,473,113232,41.1658,-71.1837,181,306, , ,,, , , ,, ,,,,,,, , ,,,,,,,,,,,,,,,,,2,4,,,,F,473,,,,85.3,1000,100,85,5,5,3,10,,,,,,, ,
X,5,20,2022,474,113237,41.1635,-71.1837,180,306, , ,,, , , ,, ,,,,,,, , ,,,,,,,,,,,,,,,,,2,4,,,,F,474,,,,85.6,1000,100,85,5,5,3,10,,,,,,, ,
X,5,20,2022,475,113242,41.1615,-71.1838,181,312, , ,,, , , ,, ,,,,,,, , ,,,,,,,,,,,,,,,,,2,4,,,,F,475,,,,83.5,1000,100,85,5,5,3,10,,,,,,, ,
X,5,20,2022,476,113247,41.1595,-71.1838,180,319, , ,,, , , ,, ,,,,,,, , ,,,,,,,,,,,,,,,,,2,4,,,,F,476,,,,80.9,1000,100,85,5,5,3,10,,,,,,, ,
X,5,20,2022,477,113252,41.1577,-71.1838,179,323, , ,,, , , ,, ,,,,,,, , ,,,,,,,,,,,,,,,,,2,4,,,,T,477,,,,80.5,1000,100,85,5,5,3,10,,,,,,, ,
S,5,20,2022,478,113255,41.1573,-71.1837,179,323, , ,,, , , ,, ,7,,BASH,1,,,1,3,0,,,,,,,,,,,,,,,,2,5,,,,T,478,,,,80.8,1000,100,85,5,5,3,10,,,,,,30 DEGREES, ,
X,5,20,2022,479,113255,41.1565,-71.1837,180,321, , ,,, , , ,, ,,,,,,, , ,,,,,,,,,,,,,,,,,2,5,,,,T,479,,,,81.7,1000,100,85,5,5,3,10,,,,,,, ,
X,5,20,2022,480,113257,41.1558,-71.1837,180,320, , ,,, , , ,, ,,,,,,, , ,,,,,,,,,,,,,,,,,2,5,,,,F,480,,,,82.5,1000,100,85,5,5,3,10,,,,,,, ,
X,5,20,2022,481,113302,41.1538,-71.1837,179,318, , ,,, , , ,, ,,,,,,, , ,,,,,,,,,,,,,,,,,2,5,,,,F,481,,,,83.6,1000,100,85,5,5,3,10,,,,,,, ,
X,5,20,2022,482,113307,41.1519,-71.1837,180,318, , ,,, , , ,, ,,,,,,, , ,,,,,,,,,,,,,,,,,2,5,,,,F,482,,,,84.8,1000,100,85,5,5,3,10,,,,,,, ,
X,5,20,2022,483,113312,41.15,-71.1837,179,316, , ,,, , , ,, ,,,,,,, , ,,,,,,,,,,,,,,,,,2,5,,,,F,483,,,,85.8,1000,100,85,5,5,3,10,,,,,,, ,
X,5,20,2022,484,113317,41.1481,-71.1837,179,319, , ,,, , , ,, ,,,,,,, , ,,,,,,,,,,,,,,,,,2,5,,,,F,484,,,,85.8,1000,100,85,5,5,3,10,,,,,,, ,
Z,5,20,2022,485,113318,41.1475,-71.1836,179,320, , ,,, , , ,, ,,,,,,, , ,,,,,,,,,,,,,,,,,2,5,,,,F,485,,,,85.6,1000,100,85,5,5,3,10,,,,,,, ,
X,5,20,2022,486,113322,41.1459,-71.1836,178,322, , ,,, , , ,, ,,,,,,, , ,,,,,,,,,,,,,,,,,2,5,,,,F,486,,,,85.4,1000,100,85,5,5,3,10,,,,,,, ,
X,5,20,2022,487,113327,41.144,-71.1835,178,321, , ,,, , , ,, ,,,,,,, , ,,,,,,,,,,,,,,,,,2,5,,,,F,487,,,,86.4,1000,100,85,5,5,3,10,,,,,,, ,
X,5,20,2022,488,113332,41.1419,-71.1835,178,321, , ,,, , , ,, ,,,,,,, , ,,,,,,,,,,,,,,,,,2,5,,,,F,488,,,,87,1000,100,85,5,5,3,10,,,,,,, ,
X,5,20,2022,489,113337,41.1399,-71.1834,179,324, , ,,, , , ,, ,,,,,,, , ,,,,,,,,,,,,,,,,,2,5,,,,F,489,,,,86.7,1000,100,85,5,5,3,10,,,,,,, ,
X,5,20,2022,490,113342,41.1381,-71.1834,180,325, , ,,, , , ,, ,,,,,,, , ,,,,,,,,,,,,,,,,,2,5,,,,F,490,,,,87.4,1000,100,85,5,5,3,10,,,,,,, ,
X,5,20,2022,491,113347,41.136,-71.1834,179,323, , ,,, , , ,, ,,,,,,, , ,,,,,,,,,,,,,,,,,2,5,,,,F,491,,,,88.3,1000,100,85,5,5,3,10,,,,,,, ,
X,5,20,2022,492,113352,41.1341,-71.1834,180,324, , ,,, , , ,, ,,,,,,, , ,,,,,,,,,,,,,,,,,2,5,,,,F,492,,,,87.9,1000,100,85,5,5,3,10,,,,,,, ,
X,5,20,2022,493,113357,41.1319,-71.1834,179,327, , ,,, , , ,, ,,,,,,, , ,,,,,,,,,,,,,,,,,2,5,,,,F,493,,,,87.5,1000,100,85,5,5,3,10,,,,,,, ,
X,5,20,2022,494,113402,41.1298,-71.1833,177,327, , ,,, , , ,, ,,,,,,, , ,,,,,,,,,,,,,,,,,2,5,,,,F,494,,,,88.5,1000,100,85,5,5,3,10,,,,,,, ,
X,5,20,2022,495,113407,41.1277,-71.1833,179,329, , ,,, , , ,, ,,,,,,, , ,,,,,,,,,,,,,,,,,2,5,,,,F,495,,,,89.9,1000,100,85,5,5,3,10,,,,,,, ,
Z,5,20,2022,496,113408,41.1274,-71.1833,179,330, , ,,, , , ,, ,,,,,,, , ,,,,,,,,,,,,,,,,,2,5,,,,F,496,,,,89.9,1000,100,85,5,5,3,10,,,,,,, ,
X,5,20,2022,497,113412,41.1256,-71.1833,180,332, , ,,, , , ,, ,,,,,,, , ,,,,,,,,,,,,,,,,,2,5,,,,F,497,,,,90.6,1000,100,85,5,5,3,10,,,,,,, ,
X,5,20,2022,498,113417,41.1237,-71.1833,179,332, , ,,, , , ,, ,,,,,,, , ,,,,,,,,,,,,,,,,,2,5,,,,F,498,,,,91.7,1000,100,85,5,5,3,10,,,,,,, ,
X,5,20,2022,499,113422,41.1215,-71.1833,180,332, , ,,, , , ,, ,,,,,,, , ,,,,,,,,,,,,,,,,,2,5,,,,F,499,,,,93.2,1000,100,85,5,5,3,10,,,,,,, ,
X,5,20,2022,500,113427,41.1192,-71.1833,180,336, , ,,, , , ,, ,,,,,,, , ,,,,,,,,,,,,,,,,,2,5,,,,F,500,,,,93.2,1000,100,85,5,5,3,10,,,,,,, ,
X,5,20,2022,501,113432,41.117,-71.1834,180,335, , ,,, , , ,, ,,,,,,, , ,,,,,,,,,,,,,,,,,2,5,,,,F,501,,,,94.9,1000,100,85,5,5,3,10,,,,,,, ,
X,5,20,2022,502,113437,41.1148,-71.1834,180,334, , ,,, , , ,, ,,,,,,, , ,,,,,,,,,,,,,,,,,2,5,,,,F,502,,,,96.4,1000,100,85,5,5,3,10,,,,,,, ,
X,5,20,2022,503,113442,41.1125,-71.1834,180,332, , ,,, , , ,, ,,,,,,, , ,,,,,,,,,,,,,,,,,2,5,,,,F,503,,,,98.2,1000,100,85,5,5,3,10,,,,,,, ,
X,5,20,2022,504,113447,41.1103,-71.1834,180,328, , ,,, , , ,, ,,,,,,, , ,,,,,,,,,,,,,,,,,2,5,,,,F,504,,,,100.3,1000,100,85,5,5,3,10,,,,,,, ,
X,5,20,2022,505,113452,41.108,-71.1834,179,327, , ,,, , , ,, ,,,,,,, , ,,,,,,,,,,,,,,,,,2,5,,,,F,505,,,,101.1,1000,100,85,5,5,3,10,,,,,,, ,
X,5,20,2022,506,113457,41.1056,-71.1834,180,327, , ,,, , , ,, ,,,,,,, , ,,,,,,,,,,,,,,,,,2,5,,,,F,506,,,,101.7,1000,100,85,5,5,3,10,,,,,,, ,
Z,5,20,2022,507,113457,41.1053,-71.1834,180,326, , ,,, , , ,, ,,,,,,, , ,,,,,,,,,,,,,,,,,2,5,,,,F,507,,,,101.9,1000,100,85,5,5,3,10,,,,,,, ,
X,5,20,2022,508,113502,41.1033,-71.1834,180,324, , ,,, , , ,, ,,,,,,, , ,,,,,,,,,,,,,,,,,2,5,,,,F,508,,,,103.2,1000,100,85,5,5,3,10,,,,,,, ,
X,5,20,2022,509,113507,41.1008,-71.1834,179,323, , ,,, , , ,, ,,,,,,, , ,,,,,,,,,,,,,,,,,2,5,,,,F,509,,,,103.7,1000,100,85,5,5,3,10,,,,,,, ,
Z,5,20,2022,510,113510,41.0995,-71.1834,179,323, , ,,, , , ,, ,,,,,,, , ,,,,,,,,,,,,,,,,,2,5,,,,F,510,,,,103.7,1000,100,85,5,5,3,10,,,,,,, ,
X,5,20,2022,511,113512,41.0985,-71.1834,180,323, , ,,, , , ,, ,,,,,,, , ,,,,,,,,,,,,,,,,,2,5,,,,F,511,,,,103.9,1000,100,85,5,5,3,10,,,,,,, ,
X,5,20,2022,512,113517,41.0963,-71.1834,180,323, , ,,, , , ,, ,,,,,,, , ,,,,,,,,,,,,,,,,,2,5,,,,F,512,,,,104.1,1000,100,85,5,5,3,10,,,,,,, ,
X,5,20,2022,513,113522,41.0935,-71.1834,180,322, , ,,, , , ,, ,,,,,,, , ,,,,,,,,,,,,,,,,,2,5,,,,F,513,,,,104.6,1000,100,85,5,5,3,10,,,,,,, ,
X,5,20,2022,514,113527,41.0911,-71.1835,180,322, , ,,, , , ,, ,,,,,,, , ,,,,,,,,,,,,,,,,,2,5,,,,F,514,,,,104.6,1000,100,85,5,5,3,10,,,,,,, ,
X,5,20,2022,515,113532,41.0887,-71.1835,179,323, , ,,, , , ,, ,,,,,,, , ,,,,,,,,,,,,,,,,,2,5,,,,F,515,,,,104.2,1000,100,85,5,5,3,10,,,,,,, ,
X,5,20,2022,516,113537,41.0863,-71.1834,179,320, , ,,, , , ,, ,,,,,,, , ,,,,,,,,,,,,,,,,,2,5,,,,F,516,,,,105.6,1000,100,85,5,5,3,10,,,,,,, ,
X,5,20,2022,517,113542,41.0839,-71.1835,180,316, , ,,, , , ,, ,,,,,,, , ,,,,,,,,,,,,,,,,,2,5,,,,F,517,,,,106.6,1000,100,85,5,5,3,10,,,,,,, ,
X,5,20,2022,518,113547,41.0813,-71.1835,181,316, , ,,, , , ,, ,,,,,,, , ,,,,,,,,,,,,,,,,,2,5,,,,F,518,,,,106.9,1000,100,85,5,5,3,10,,,,,,, ,
Z,5,20,2022,519,113547,41.0812,-71.1835,181,316, , ,,, , , ,, ,,,,,,, , ,,,,,,,,,,,,,,,,,2,5,,,,F,519,,,,106.8,1000,100,85,5,5,3,10,,,,,,, ,
X,5,20,2022,520,113552,41.079,-71.1836,181,319, , ,,, , , ,, ,,,,,,, , ,,,,,,,,,,,,,,,,,2,5,,,,F,520,,,,105.6,1000,100,85,5,5,3,10,,,,,,, ,
X,5,20,2022,521,113557,41.0764,-71.1836,179,322, , ,,, , , ,, ,,,,,,, , ,,,,,,,,,,,,,,,,,2,5,,,,T,521,,,,104.6,1000,100,85,5,5,3,10,,,,,,, ,
S,5,20,2022,522,113559,41.0764,-71.1836,179,322, , ,,, , , ,, ,8,,,,,, , ,,,,,,,,,,,,,,,,,2,6,,,,T,522,,,,104.6,1000,100,85,5,5,3,10,,,,,,, ,
X,5,20,2022,523,113600,41.0752,-71.1836,180,323, , ,,, , , ,, ,,,,,,, , ,,,,,,,,,,,,,,,,,2,6,,,,T,523,,,,104.4,1000,100,85,5,5,3,10,,,,,,, ,
Z,5,20,2022,524,113600,41.0752,-71.1836,180,323, , ,,, , , ,, ,,,,,,, , ,,,,,,,,,,,,,,,,,2,6,,,,F,524,,,,104.4,1000,100,85,5,5,3,10,,,,,,, ,
X,5,20,2022,525,113602,41.074,-71.1836,180,324, , ,,, , , ,, ,,,,,,, , ,,,,,,,,,,,,,,,,,2,6,,,,F,525,,,,104.3,1000,100,85,5,5,3,10,,,,,,, ,
X,5,20,2022,526,113607,41.0716,-71.1836,180,318, , ,,, , , ,, ,,,,,,, , ,,,,,,,,,,,,,,,,,2,6,,,,F,526,,,,106.1,1000,100,85,5,5,3,10,,,,,,, ,
X,5,20,2022,527,113612,41.0691,-71.1837,180,314, , ,,, , , ,, ,,,,,,, , ,,,,,,,,,,,,,,,,,2,6,,,,F,527,,,,107,1000,100,85,5,5,3,10,,,,,,, ,
X,5,20,2022,528,113617,41.0667,-71.1837,179,317, , ,,, , , ,, ,,,,,,, , ,,,,,,,,,,,,,,,,,2,6,,,,F,528,,,,105.9,1000,100,85,5,5,3,10,,,,,,, ,
X,5,20,2022,529,113622,41.0643,-71.1837,179,319, , ,,, , , ,, ,,,,,,, , ,,,,,,,,,,,,,,,,,2,6,,,,F,529,,,,105,1000,100,85,5,5,3,10,,,,,,, ,
X,5,20,2022,530,113627,41.0618,-71.1837,180,318, , ,,, , , ,, ,,,,,,, , ,,,,,,,,,,,,,,,,,2,6,,,,F,530,,,,105.4,1000,100,85,5,5,3,10,,,,,,, ,
X,5,20,2022,531,113632,41.0593,-71.1836,179,313, , ,,, , , ,, ,,,,,,, , ,,,,,,,,,,,,,,,,,2,6,,,,F,531,,,,106.7,1000,100,85,5,5,3,10,,,,,,, ,
X,5,20,2022,532,113637,41.0568,-71.1836,179,310, , ,,, , , ,, ,,,,,,, , ,,,,,,,,,,,,,,,,,2,6,,,,F,532,,,,107.4,1000,100,85,5,5,3,10,,,,,,, ,
X,5,20,2022,533,113642,41.0544,-71.1835,178,309, , ,,, , , ,, ,,,,,,, , ,,,,,,,,,,,,,,,,,2,6,,,,F,533,,,,107.3,1000,100,85,5,5,3,10,,,,,,, ,
X,5,20,2022,534,113647,41.0522,-71.1835,178,307, , ,,, , , ,, ,,,,,,, , ,,,,,,,,,,,,,,,,,2,6,,,,F,534,,,,107.2,1000,100,85,5,5,3,10,,,,,,, ,
X,5,20,2022,535,113652,41.0495,-71.1834,179,309, , ,,, , , ,, ,,,,,,, , ,,,,,,,,,,,,,,,,,2,6,,,,F,535,,,,106.5,1000,100,85,5,5,3,10,,,,,,, ,
Z,5,20,2022,536,113654,41.0485,-71.1834,179,309, , ,,, , , ,, ,,,,,,, , ,,,,,,,,,,,,,,,,,2,6,,,,F,536,,,,106.4,1000,100,85,5,5,3,10,,,,,,, ,
X,5,20,2022,537,113657,41.0469,-71.1834,180,310, , ,,, , , ,, ,,,,,,, , ,,,,,,,,,,,,,,,,,2,6,,,,F,537,,,,105.7,1000,100,85,5,5,3,10,,,,,,, ,
X,5,20,2022,538,113702,41.0445,-71.1834,180,310, , ,,, , , ,, ,,,,,,, , ,,,,,,,,,,,,,,,,,2,6,,,,F,538,,,,105.7,1000,100,85,5,5,3,10,,,,,,, ,
X,5,20,2022,539,113707,41.042,-71.1835,181,309, , ,,, , , ,, ,,,,,,, , ,,,,,,,,,,,,,,,,,2,6,,,,T,539,,,,106.1,1000,100,85,5,5,3,10,,,,,,, ,
S,5,20,2022,540,113710,41.042,-71.1835,181,309, , ,,, , , ,, ,9,,,,,, , ,,,,,,,,,,,,,,,,,2,7,,,,T,540,,,,106.1,1000,100,85,5,5,N,10,,,,,,, ,
X,5,20,2022,541,113710,41.0404,-71.1835,181,307, , ,,, , , ,, ,,,,,,, , ,,,,,,,,,,,,,,,,,2,7,,,,T,541,,,,106.7,1000,100,85,5,5,3,10,,,,,,, ,
X,5,20,2022,542,113712,41.0396,-71.1836,181,306, , ,,, , , ,, ,,,,,,, , ,,,,,,,,,,,,,,,,,2,7,,,,F,542,,,,106.8,1000,100,85,5,5,3,10,,,,,,, ,
X,5,20,2022,543,113717,41.0371,-71.1837,181,305, , ,,, , , ,, ,,,,,,, , ,,,,,,,,,,,,,,,,,2,7,,,,F,543,,,,107.1,1000,100,85,5,5,3,10,,,,,,, ,
X,5,20,2022,544,113722,41.0347,-71.1837,180,306, , ,,, , , ,, ,,,,,,, , ,,,,,,,,,,,,,,,,,2,7,,,,F,544,,,,106.1,1000,100,85,5,5,3,10,,,,,,, ,
X,5,20,2022,545,113727,41.0323,-71.1838,180,310, , ,,, , , ,, ,,,,,,, , ,,,,,,,,,,,,,,,,,2,7,,,,F,545,,,,104.8,1000,100,85,5,5,3,10,,,,,,, ,
X,5,20,2022,546,113732,41.0299,-71.1838,180,312, , ,,, , , ,, ,,,,,,, , ,,,,,,,,,,,,,,,,,2,7,,,,F,546,,,,103.9,1000,100,85,5,5,3,10,,,,,,, ,
X,5,20,2022,547,113737,41.0273,-71.1838,180,308, , ,,, , , ,, ,,,,,,, , ,,,,,,,,,,,,,,,,,2,7,,,,T,547,,,,105.5,1000,100,85,5,5,3,10,,,,,,, ,
P,5,20,2022,548,113740,41.0264,-71.1838,180,305, , ,,, , , ,, ,10,,,,,, , ,,,,,,,,,,,,,,,,,3,7,,,,T,548,,,,106.5,1000,100,85,5,5,3,10,,,,,,, ,
X,5,20,2022,549,113740,41.0259,-71.1838,180,304, , ,,, , , ,, ,,,,,,, , ,,,,,,,,,,,,,,,,,3,7,,,,T,549,,,,106.7,1000,100,85,5,5,3,10,,,,,,, ,
X,5,20,2022,550,113742,41.0249,-71.1838,180,304, , ,,, , , ,, ,,,,,,, , ,,,,,,,,,,,,,,,,,3,7,,,,T,550,,,,106.6,1000,100,85,5,5,3,10,,,,,,, ,
S,5,20,2022,551,113744,41.0244,-71.1839,180,304, , ,,, , , ,, ,11,,,,,, , ,,,,,,,,,,,,,,,,,3,8,,,,T,551,,,,106.6,1000,100,85,5,5,3,10,,,,,,, ,
X,5,20,2022,552,113745,41.0234,-71.1839,180,305, , ,,, , , ,, ,,,,,,, , ,,,,,,,,,,,,,,,,,3,8,,,,T,552,,,,106.2,1000,100,85,5,5,3,10,,,,,,, ,
X,5,20,2022,553,113747,41.0224,-71.1839,180,307, , ,,, , , ,, ,,,,,,, , ,,,,,,,,,,,,,,,,,3,8,,,,F,553,,,,105.7,1000,100,85,5,5,3,10,,,,,,, ,
X,5,20,2022,554,113752,41.0201,-71.1839,180,306, , ,,, , , ,, ,,,,,,, , ,,,,,,,,,,,,,,,,,3,8,,,,F,554,,,,105.9,1000,100,85,5,5,3,10,,,,,,, ,
X,5,20,2022,555,113757,41.0175,-71.184,181,305, , ,,, , , ,, ,,,,,,, , ,,,,,,,,,,,,,,,,,3,8,,,,F,555,,,,105.7,1000,100,85,5,5,3,10,,,,,,, ,
X,5,20,2022,556,113802,41.0151,-71.1841,182,305, , ,,, , , ,, ,,,,,,, , ,,,,,,,,,,,,,,,,,3,8,,,,F,556,,,,105.5,1000,100,85,5,5,3,10,,,,,,, ,
X,5,20,2022,557,113807,41.0126,-71.1842,182,306, , ,,, , , ,, ,,,,,,, , ,,,,,,,,,,,,,,,,,3,8,,,,F,557,,,,105,1000,100,85,5,5,3,10,,,,,,, ,
X,5,20,2022,558,113812,41.0103,-71.1843,179,311, , ,,, , , ,, ,,,,,,, , ,,,,,,,,,,,,,,,,,3,8,,,,F,558,,,,103.2,1000,100,85,5,5,3,10,,,,,,, ,
X,5,20,2022,559,113817,41.008,-71.1843,179,315, , ,,, , , ,, ,,,,,,, , ,,,,,,,,,,,,,,,,,3,8,,,,F,559,,,,102.1,1000,100,85,5,5,3,10,,,,,,, ,
X,5,20,2022,560,113822,41.0056,-71.1842,179,312, , ,,, , , ,, ,,,,,,, , ,,,,,,,,,,,,,,,,,3,8,,,,F,560,,,,103.3,1000,100,85,5,5,3,10,,,,,,, ,
X,5,20,2022,561,113827,41.003,-71.1842,179,307, , ,,, , , ,, ,,,,,,, , ,,,,,,,,,,,,,,,,,3,8,,,,F,561,,,,104.9,1000,100,85,5,5,3,10,,,,,,, ,
Z,5,20,2022,562,113829,41.0023,-71.1842,179,306, , ,,, , , ,, ,,,,,,, , ,,,,,,,,,,,,,,,,,3,8,,,,F,562,,,,105.1,1000,100,85,5,5,3,10,,,,,,, ,
X,5,20,2022,563,113832,41.0006,-71.1842,180,306, , ,,, , , ,, ,,,,,,, , ,,,,,,,,,,,,,,,,,3,8,,,,F,563,,,,104.9,1000,100,85,5,5,3,10,,,,,,, ,
X,5,20,2022,564,113837,40.9983,-71.1842,179,307, , ,,, , , ,, ,,,,,,, , ,,,,,,,,,,,,,,,,,3,8,,,,T,564,,,,104.6,1000,100,85,5,5,3,10,,,,,,, ,
S,5,20,2022,565,113839,40.9983,-71.1842,179,307, , ,,, , , ,, ,12,,,,,, , ,,,,,,,,,,,,,,,,,3,9,,,,T,565,,,,104.6,1000,100,85,5,5,3,10,,,,,,, ,
X,5,20,2022,566,113839,40.997,-71.1842,179,308, , ,,, , , ,, ,,,,,,, , ,,,,,,,,,,,,,,,,,3,9,,,,T,566,,,,104.1,1000,100,85,5,5,3,10,,,,,,, ,
X,5,20,2022,567,113842,40.9959,-71.1842,179,308, , ,,, , , ,, ,,,,,,, , ,,,,,,,,,,,,,,,,,3,9,,,,F,567,,,,104,1000,100,85,5,5,3,10,,,,,,, ,
X,5,20,2022,568,113847,40.9933,-71.1842,178,308, , ,,, , , ,, ,,,,,,, , ,,,,,,,,,,,,,,,,,3,9,,,,F,568,,,,104.3,1000,100,85,5,5,3,10,,,,,,, ,
Z,5,20,2022,569,113849,40.9921,-71.1841,178,310, , ,,, , , ,, ,,,,,,, , ,,,,,,,,,,,,,,,,,3,9,,,,F,569,,,,103.6,1000,100,85,5,5,3,10,,,,,,, ,
X,5,20,2022,570,113852,40.9909,-71.1841,178,312, , ,,, , , ,, ,,,,,,, , ,,,,,,,,,,,,,,,,,3,9,,,,F,570,,,,103,1000,100,85,5,5,3,10,,,,,,, ,
X,5,20,2022,571,113857,40.9886,-71.1841,179,314, , ,,, , , ,, ,,,,,,, , ,,,,,,,,,,,,,,,,,3,9,,,,F,571,,,,102.3,1000,100,85,5,5,3,10,,,,,,, ,
X,5,20,2022,572,113902,40.9862,-71.1841,180,310, , ,,, , , ,, ,,,,,,, , ,,,,,,,,,,,,,,,,,3,9,,,,F,572,,,,103.6,1000,100,85,5,5,3,10,,,,,,, ,
X,5,20,2022,573,113907,40.9838,-71.1841,179,307, , ,,, , , ,, ,,,,,,, , ,,,,,,,,,,,,,,,,,3,9,,,,F,573,,,,104.7,1000,100,85,5,5,3,10,,,,,,, ,
X,5,20,2022,574,113912,40.9813,-71.1841,180,303, , ,,, , , ,, ,,,,,,, , ,,,,,,,,,,,,,,,,,3,9,,,,F,574,,,,105.7,1000,100,85,5,5,3,10,,,,,,, ,
X,5,20,2022,575,113917,40.9789,-71.1841,179,300, , ,,, , , ,, ,,,,,,, , ,,,,,,,,,,,,,,,,,3,9,,,,F,575,,,,106.1,1000,100,85,5,5,3,10,,,,,,, ,
X,5,20,2022,576,113922,40.9767,-71.1841,179,304, , ,,, , , ,, ,,,,,,, , ,,,,,,,,,,,,,,,,,3,9,,,,F,576,,,,104.9,1000,100,85,5,5,3,10,,,,,,, ,
X,5,20,2022,577,113927,40.974,-71.184,178,302, , ,,, , , ,, ,,,,,,, , ,,,,,,,,,,,,,,,,,3,9,,,,F,577,,,,105.8,1000,100,85,5,5,3,10,,,,,,, ,
Z,5,20,2022,578,113931,40.972,-71.184,179,300, , ,,, , , ,, ,,,,,,, , ,,,,,,,,,,,,,,,,,3,9,,,,F,578,,,,106,1000,100,85,5,5,3,10,,,,,,, ,
X,5,20,2022,579,113932,40.9717,-71.184,179,300, , ,,, , , ,, ,,,,,,, , ,,,,,,,,,,,,,,,,,3,9,,,,F,579,,,,105.8,1000,100,85,5,5,3,10,,,,,,, ,
X,5,20,2022,580,113937,40.9691,-71.1839,179,301, , ,,, , , ,, ,,,,,,, , ,,,,,,,,,,,,,,,,,3,9,,,,F,580,,,,105.3,1000,100,85,5,5,3,10,,,,,,, ,
Z,5,20,2022,581,113939,40.9681,-71.1839,179,301, , ,,, , , ,, ,,,,,,, , ,,,,,,,,,,,,,,,,,3,9,,,,F,581,,,,105.4,1000,100,85,5,5,3,10,,,,,,, ,
X,5,20,2022,582,113942,40.9667,-71.1839,179,302, , ,,, , , ,, ,,,,,,, , ,,,,,,,,,,,,,,,,,3,9,,,,F,582,,,,105,1000,100,85,5,5,3,10,,,,,,, ,
X,5,20,2022,583,113947,40.9644,-71.1839,179,306, , ,,, , , ,, ,,,,,,, , ,,,,,,,,,,,,,,,,,3,9,,,,F,583,,,,103.8,1000,100,85,5,5,3,10,,,,,,, ,
X,5,20,2022,584,113952,40.962,-71.1839,180,308, , ,,, , , ,, ,,,,,,, , ,,,,,,,,,,,,,,,,,3,9,,,,F,584,,,,103.5,1000,100,85,5,5,3,10,,,,,,, ,
X,5,20,2022,585,113957,40.9596,-71.1839,180,311, , ,,, , , ,, ,,,,,,, , ,,,,,,,,,,,,,,,,,3,9,,,,F,585,,,,102.5,1000,100,85,5,5,3,10,,,,,,, ,
X,5,20,2022,586,114002,40.9571,-71.1839,179,314, , ,,, , , ,, ,,,,,,, , ,,,,,,,,,,,,,,,,,3,9,,,,F,586,,,,102,1000,100,85,5,5,3,10,,,,,,, ,
X,5,20,2022,587,114007,40.9547,-71.1839,179,312, , ,,, , , ,, ,,,,,,, , ,,,,,,,,,,,,,,,,,3,9,,,,F,587,,,,102.8,1000,100,85,5,5,3,10,,,,,,, ,
X,5,20,2022,588,114012,40.9523,-71.1839,179,310, , ,,, , , ,, ,,,,,,, , ,,,,,,,,,,,,,,,,,3,9,,,,F,588,,,,103.7,1000,100,85,5,5,3,10,,,,,,, ,
X,5,20,2022,589,114017,40.9502,-71.1838,177,311, , ,,, , , ,, ,,,,,,, , ,,,,,,,,,,,,,,,,,3,9,,,,F,589,,,,103.4,1000,100,85,5,5,3,10,,,,,,, ,
X,5,20,2022,590,114022,40.9477,-71.1837,179,313, , ,,, , , ,, ,,,,,,, , ,,,,,,,,,,,,,,,,,3,9,,,,F,590,,,,102.6,1000,100,85,5,5,3,10,,,,,,, ,
X,5,20,2022,591,114027,40.9452,-71.1836,178,314, , ,,, , , ,, ,,,,,,, , ,,,,,,,,,,,,,,,,,3,9,,,,F,591,,,,102,1000,100,85,5,5,3,10,,,,,,, ,
Z,5,20,2022,592,114029,40.9441,-71.1836,178,315, , ,,, , , ,, ,,,,,,, , ,,,,,,,,,,,,,,,,,3,9,,,,F,592,,,,102.1,1000,100,85,5,5,3,10,,,,,,, ,
X,5,20,2022,593,114032,40.9428,-71.1836,178,315, , ,,, , , ,, ,,,,,,, , ,,,,,,,,,,,,,,,,,3,9,,,,F,593,,,,102.1,1000,100,85,5,5,3,10,,,,,,, ,
X,5,20,2022,594,114037,40.9405,-71.1835,178,317, , ,,, , , ,, ,,,,,,, , ,,,,,,,,,,,,,,,,,3,9,,,,F,594,,,,101.5,1000,100,85,5,5,3,10,,,,,,, ,
X,5,20,2022,595,114042,40.9381,-71.1834,178,313, , ,,, , , ,, ,,,,,,, , ,,,,,,,,,,,,,,,,,3,9,,,,F,595,,,,103.3,1000,100,85,5,5,3,10,,,,,,, ,
X,5,20,2022,596,114047,40.9357,-71.1834,180,307, , ,,, , , ,, ,,,,,,, , ,,,,,,,,,,,,,,,,,3,9,,,,F,596,,,,105.3,1000,100,85,5,5,3,10,,,,,,, ,
X,5,20,2022,597,114052,40.9335,-71.1834,180,305, , ,,, , , ,, ,,,,,,, , ,,,,,,,,,,,,,,,,,3,9,,,,F,597,,,,105.9,1000,100,85,5,5,3,10,,,,,,, ,
X,5,20,2022,598,114057,40.9309,-71.1834,180,308, , ,,, , , ,, ,,,,,,, , ,,,,,,,,,,,,,,,,,3,9,,,,F,598,,,,104.5,1000,100,85,5,5,3,10,,,,,,, ,
X,5,20,2022,599,114102,40.9285,-71.1835,181,311, , ,,, , , ,, ,,,,,,, , ,,,,,,,,,,,,,,,,,3,9,,,,F,599,,,,103.8,1000,100,85,5,5,3,10,,,,,,, ,
X,5,20,2022,600,114107,40.9261,-71.1836,181,312, , ,,, , , ,, ,,,,,,, , ,,,,,,,,,,,,,,,,,3,9,,,,F,600,,,,103.5,1000,100,85,5,5,3,10,,,,,,, ,
X,5,20,2022,601,114112,40.9236,-71.1837,180,312, , ,,, , , ,, ,,,,,,, , ,,,,,,,,,,,,,,,,,3,9,,,,F,601,,,,103.8,1000,100,85,5,5,3,10,,,,,,, ,
Z,5,20,2022,602,114115,40.9222,-71.1837,180,309, , ,,, , , ,, ,,,,,,, , ,,,,,,,,,,,,,,,,,3,9,,,,F,602,,,,104.9,1000,100,85,5,5,3,10,,,,,,, ,
X,5,20,2022,603,114117,40.9212,-71.1837,180,306, , ,,, , , ,, ,,,,,,, , ,,,,,,,,,,,,,,,,,3,9,,,,T,603,,,,105.7,1000,100,85,5,5,3,10,,,,,,, ,
S,5,20,2022,604,114121,40.9202,-71.1837,181,304, , ,,, , , ,, ,13,,,,,, , ,,,,,,,,,,,,,,,,,3,10,,,,T,604,,,,106,1000,100,85,5,5,3,10,,,,,,, ,
X,5,20,2022,605,114121,40.9189,-71.1838,181,304, , ,,, , , ,, ,,,,,,, , ,,,,,,,,,,,,,,,,,3,10,,,,T,605,,,,105.5,1000,100,85,5,5,3,10,,,,,,, ,
X,5,20,2022,606,114122,40.9189,-71.1838,181,304, , ,,, , , ,, ,,,,,,, , ,,,,,,,,,,,,,,,,,3,10,,,,F,606,,,,105.5,1000,100,85,5,5,3,10,,,,,,, ,
X,5,20,2022,607,114127,40.9164,-71.1839,182,303, , ,,, , , ,, ,,,,,,, , ,,,,,,,,,,,,,,,,,3,10,,,,F,607,,,,105.7,1000,100,85,5,5,3,10,,,,,,, ,
X,5,20,2022,608,114132,40.9139,-71.1841,183,304, , ,,, , , ,, ,,,,,,, , ,,,,,,,,,,,,,,,,,3,10,,,,F,608,,,,105.1,1000,100,85,5,5,3,10,,,,,,, ,
X,5,20,2022,609,114137,40.9114,-71.1843,184,306, , ,,, , , ,, ,,,,,,, , ,,,,,,,,,,,,,,,,,3,10,,,,F,609,,,,104.5,1000,100,85,5,5,3,10,,,,,,, ,
X,5,20,2022,610,114142,40.909,-71.1843,173,312, , ,,, , , ,, ,,,,,,, , ,,,,,,,,,,,,,,,,,3,10,,,,F,610,,,,102,1000,100,85,5,5,3,10,,,,,,, ,
X,5,20,2022,611,114147,40.9068,-71.1836,159,323, , ,,, , , ,, ,,,,,,, , ,,,,,,,,,,,,,,,,,3,10,,,,F,611,,,,98.4,1000,100,85,5,5,3,10,,,,,,, ,
X,5,20,2022,612,114152,40.905,-71.1823,142,327, , ,,, , , ,, ,,,,,,, , ,,,,,,,,,,,,,,,,,3,10,,,,F,612,,,,97.8,1000,100,85,5,5,3,9,,,,,,, ,
X,5,20,2022,613,114157,40.9034,-71.1801,123,326, , ,,, , , ,, ,,,,,,, , ,,,,,,,,,,,,,,,,,3,10,,,,F,613,,,,100.3,1000,100,85,5,5,3,9,,,,,,, ,
X,5,20,2022,614,114202,40.9025,-71.1771,100,322, , ,,, , , ,, ,,,,,,, , ,,,,,,,,,,,,,,,,,3,10,,,,F,614,,,,103.7,1000,100,85,5,5,3,9,,,,,,, ,
X,5,20,2022,615,114207,40.9024,-71.1739,88,319, , ,,, , , ,, ,,,,,,, , ,,,,,,,,,,,,,,,,,3,10,,,,F,615,,,,106,1000,100,85,5,5,3,9,,,,,,, ,
X,5,20,2022,616,114212,40.9022,-71.1706,103,316, , ,,, , , ,, ,,,,,,, , ,,,,,,,,,,,,,,,,,3,10,,,,F,616,,,,104.3,1000,100,85,5,5,3,9,,,,,,, ,
Z,5,20,2022,617,114213,40.9021,-71.1701,105,316, , ,,, , , ,, ,,,,,,, , ,,,,,,,,,,,,,,,,,3,10,,,,F,617,,,,104.1,1000,100,85,5,5,3,9,,,,,,, ,
X,5,20,2022,618,114217,40.9013,-71.1677,122,316, , ,,, , , ,, ,,,,,,, , ,,,,,,,,,,,,,,,,,3,10,,,,F,618,,,,102.4,1000,100,85,5,5,3,9,,,,,,, ,
X,5,20,2022,619,114222,40.8997,-71.1654,140,312, , ,,, , , ,, ,,,,,,, , ,,,,,,,,,,,,,,,,,3,10,,,,F,619,,,,102.4,1000,100,85,5,5,3,10,,,,,,, ,
X,5,20,2022,620,114227,40.8979,-71.1638,152,308, , ,,, , , ,, ,,,,,,, , ,,,,,,,,,,,,,,,,,3,10,,,,F,620,,,,103.7,1000,100,85,5,5,3,10,,,,,,, ,
X,5,20,2022,621,114232,40.8955,-71.1623,155,317, , ,,, , , ,, ,,,,,,, , ,,,,,,,,,,,,,,,,,3,10,,,,F,621,,,,101.2,1000,100,85,5,5,3,9,,,,,,, ,
X,5,20,2022,622,114237,40.8934,-71.161,155,323, , ,,, , , ,, ,,,,,,, , ,,,,,,,,,,,,,,,,,3,10,,,,F,622,,,,100.8,1000,100,85,5,5,3,9,,,,,,, ,
X,5,20,2022,623,114242,40.8913,-71.1598,156,325, , ,,, , , ,, ,,,,,,, , ,,,,,,,,,,,,,,,,,3,10,,,,F,623,,,,100.5,1000,100,85,5,5,3,10,,,,,,, ,
X,5,20,2022,624,114247,40.8891,-71.1586,157,324, , ,,, , , ,, ,,,,,,, , ,,,,,,,,,,,,,,,,,3,10,,,,F,624,,,,102,1000,100,85,5,5,3,9,,,,,,, ,
X,5,20,2022,625,114252,40.8869,-71.1574,158,320, , ,,, , , ,, ,,,,,,, , ,,,,,,,,,,,,,,,,,3,10,,,,F,625,,,,103.5,1000,100,85,5,5,3,10,,,,,,, ,
X,5,20,2022,626,114257,40.8847,-71.1564,160,317, , ,,, , , ,, ,,,,,,, , ,,,,,,,,,,,,,,,,,3,10,,,,F,626,,,,104.7,1000,100,85,5,5,3,10,,,,,,, ,
X,5,20,2022,627,114302,40.8823,-71.1553,162,316, , ,,, , , ,, ,,,,,,, , ,,,,,,,,,,,,,,,,,3,10,,,,F,627,,,,105.2,1000,100,85,5,5,3,10,,,,,,, ,
Z,5,20,2022,628,114302,40.8822,-71.1553,162,316, , ,,, , , ,, ,,,,,,, , ,,,,,,,,,,,,,,,,,3,10,,,,F,628,,,,105.1,1000,100,85,5,5,3,10,,,,,,, ,
X,5,20,2022,629,114307,40.8801,-71.1544,163,316, , ,,, , , ,, ,,,,,,, , ,,,,,,,,,,,,,,,,,3,10,,,,F,629,,,,104.7,1000,100,85,5,5,3,10,,,,,,, ,
X,5,20,2022,630,114312,40.8776,-71.1535,165,314, , ,,, , , ,, ,,,,,,, , ,,,,,,,,,,,,,,,,,3,10,,,,F,630,,,,105.1,1000,100,85,5,5,3,10,,,,,,, ,
Z,5,20,2022,631,114315,40.8765,-71.1531,166,313, , ,,, , , ,, ,,,,,,, , ,,,,,,,,,,,,,,,,,3,10,,,,F,631,,,,105.1,1000,100,85,5,5,3,10,,,,,,, ,
X,5,20,2022,632,114317,40.8753,-71.1527,167,312, , ,,, , , ,, ,,,,,,, , ,,,,,,,,,,,,,,,,,3,10,,,,F,632,,,,105.5,1000,100,85,5,5,3,10,,,,,,, ,
X,5,20,2022,633,114322,40.8731,-71.1521,167,311, , ,,, , , ,, ,,,,,,, , ,,,,,,,,,,,,,,,,,3,10,,,,F,633,,,,105.5,1000,100,85,5,5,3,10,,,,,,, ,
X,5,20,2022,634,114327,40.8706,-71.1514,168,310, , ,,, , , ,, ,,,,,,, , ,,,,,,,,,,,,,,,,,3,10,,,,F,634,,,,106.5,1000,100,85,5,5,3,10,,,,,,, ,
X,5,20,2022,635,114332,40.8682,-71.1508,169,306, , ,,, , , ,, ,,,,,,, , ,,,,,,,,,,,,,,,,,3,10,,,,F,635,,,,107.1,1000,100,85,5,5,3,10,,,,,,, ,
X,5,20,2022,636,114337,40.8657,-71.1502,170,305, , ,,, , , ,, ,,,,,,, , ,,,,,,,,,,,,,,,,,3,10,,,,F,636,,,,107.1,1000,100,85,5,5,3,10,,,,,,, ,
X,5,20,2022,637,114342,40.8633,-71.1497,170,305, , ,,, , , ,, ,,,,,,, , ,,,,,,,,,,,,,,,,,3,10,,,,F,637,,,,106.9,1000,100,85,5,5,3,10,,,,,,, ,
X,5,20,2022,638,114347,40.8607,-71.1492,171,304, , ,,, , , ,, ,,,,,,, , ,,,,,,,,,,,,,,,,,3,10,,,,F,638,,,,107,1000,100,85,5,5,3,10,,,,,,, ,
X,5,20,2022,639,114352,40.8584,-71.1487,172,304, , ,,, , , ,, ,,,,,,, , ,,,,,,,,,,,,,,,,,3,10,,,,F,639,,,,107.2,1000,100,85,5,5,3,10,,,,,,, ,
Z,5,20,2022,640,114352,40.8584,-71.1487,172,304, , ,,, , , ,, ,,,,,,, , ,,,,,,,,,,,,,,,,,3,10,,,,F,640,,,,107.2,1000,100,85,5,5,3,10,,,,,,, ,
X,5,20,2022,641,114357,40.856,-71.1484,173,300, , ,,, , , ,, ,,,,,,, , ,,,,,,,,,,,,,,,,,3,10,,,,F,641,,,,108.5,1000,100,85,5,5,3,10,,,,,,, ,
X,5,20,2022,642,114402,40.8535,-71.1481,176,294, , ,,, , , ,, ,,,,,,, , ,,,,,,,,,,,,,,,,,3,10,,,,F,642,,,,110.1,1000,100,85,5,5,3,10,,,,,,, ,
Z,5,20,2022,643,114405,40.8519,-71.1479,176,302, , ,,, , , ,, ,,,,,,, , ,,,,,,,,,,,,,,,,,3,10,,,,F,643,,,,107.3,1000,100,85,5,5,3,10,,,,,,, ,
X,5,20,2022,644,114407,40.8508,-71.1479,176,311, , ,,, , , ,, ,,,,,,, , ,,,,,,,,,,,,,,,,,3,10,,,,F,644,,,,104.2,1000,100,85,5,5,3,10,,,,,,, ,
X,5,20,2022,645,114412,40.8484,-71.1476,175,321, , ,,, , , ,, ,,,,,,, , ,,,,,,,,,,,,,,,,,3,10,,,,F,645,,,,102,1000,100,85,5,5,3,10,,,,,,, ,
X,5,20,2022,646,114417,40.846,-71.1473,173,321, , ,,, , , ,, ,,,,,,, , ,,,,,,,,,,,,,,,,,3,10,,,,F,646,,,,102.5,1000,100,85,5,5,3,10,,,,,,, ,
X,5,20,2022,647,114422,40.8437,-71.1469,170,324, , ,,, , , ,, ,,,,,,, , ,,,,,,,,,,,,,,,,,3,10,,,,F,647,,,,101.5,1000,100,85,5,5,3,10,,,,,,, ,
X,5,20,2022,648,114427,40.8415,-71.1464,167,326, , ,,, , , ,, ,,,,,,, , ,,,,,,,,,,,,,,,,,3,10,,,,F,648,,,,101.4,1000,100,85,5,5,3,10,,,,,,, ,
X,5,20,2022,649,114432,40.8392,-71.1457,166,325, , ,,, , , ,, ,,,,,,, , ,,,,,,,,,,,,,,,,,3,10,,,,F,649,,,,102,1000,100,85,5,5,3,10,,,,,,, ,
X,5,20,2022,650,114437,40.8369,-71.1449,163,325, , ,,, , , ,, ,,,,,,, , ,,,,,,,,,,,,,,,,,3,10,,,,F,650,,,,102.3,1000,100,85,5,5,3,10,,,,,,, ,
X,5,20,2022,651,114442,40.8345,-71.1439,161,325, , ,,, , , ,, ,,,,,,, , ,,,,,,,,,,,,,,,,,3,10,,,,F,651,,,,102.7,1000,100,85,5,5,3,10,,,,,,, ,
Z,5,20,2022,652,114442,40.8345,-71.1439,161,325, , ,,, , , ,, ,,,,,,, , ,,,,,,,,,,,,,,,,,3,10,,,,F,652,,,,102.7,1000,100,85,5,5,3,10,,,,,,, ,
X,5,20,2022,653,114447,40.8324,-71.1429,160,326, , ,,, , , ,, ,,,,,,, , ,,,,,,,,,,,,,,,,,3,10,,,,F,653,,,,102.8,1000,100,85,5,5,3,10,,,,,,, ,
X,5,20,2022,654,114452,40.83,-71.1418,159,330, , ,,, , , ,, ,,,,,,, , ,,,,,,,,,,,,,,,,,3,10,,,,F,654,,,,102.5,1000,100,85,5,5,3,10,,,,,,, ,
Z,5,20,2022,655,114454,40.8289,-71.1412,159,333, , ,,, , , ,, ,,,,,,, , ,,,,,,,,,,,,,,,,,3,10,,,,F,655,,,,102.1,1000,100,85,5,5,3,10,,,,,,, ,
X,5,20,2022,656,114457,40.8279,-71.1407,159,334, , ,,, , , ,, ,,,,,,, , ,,,,,,,,,,,,,,,,,3,10,,,,F,656,,,,102.3,1000,100,85,5,5,3,9,,,,,,, ,
X,5,20,2022,657,114502,40.8256,-71.1395,158,333, , ,,, , , ,, ,,,,,,, , ,,,,,,,,,,,,,,,,,3,10,,,,F,657,,,,103.3,1000,100,85,5,5,3,10,,,,,,, ,
X,5,20,2022,658,114507,40.8233,-71.1384,158,329, , ,,, , , ,, ,,,,,,, , ,,,,,,,,,,,,,,,,,3,10,,,,F,658,,,,104.8,1000,100,85,5,5,3,10,,,,,,, ,
X,5,20,2022,659,114512,40.821,-71.1372,158,326, , ,,, , , ,, ,,,,,,, , ,,,,,,,,,,,,,,,,,3,10,,,,F,659,,,,105.8,1000,100,85,5,5,3,10,,,,,,, ,
X,5,20,2022,660,114517,40.8187,-71.1361,159,324, , ,,, , , ,, ,,,,,,, , ,,,,,,,,,,,,,,,,,3,10,,,,F,660,,,,106.2,1000,100,85,5,5,3,10,,,,,,, ,
X,5,20,2022,661,114522,40.8165,-71.135,159,322, , ,,, , , ,, ,,,,,,, , ,,,,,,,,,,,,,,,,,3,10,,,,F,661,,,,106.9,1000,100,85,5,5,3,10,,,,,,, ,
X,5,20,2022,662,114527,40.8143,-71.134,160,321, , ,,, , , ,, ,,,,,,, , ,,,,,,,,,,,,,,,,,3,10,,,,F,662,,,,107.1,1000,100,85,5,5,3,10,,,,,,, ,
X,5,20,2022,663,114532,40.8118,-71.1328,160,321, , ,,, , , ,, ,,,,,,, , ,,,,,,,,,,,,,,,,,3,10,,,,F,663,,,,107.3,1000,100,85,5,5,3,9,,,,,,, ,
Z,5,20,2022,664,114536,40.8099,-71.1319,160,317, , ,,, , , ,, ,,,,,,, , ,,,,,,,,,,,,,,,,,3,10,,,,F,664,,,,107.4,1000,100,85,5,5,3,10,,,,,,, ,
X,5,20,2022,665,114537,40.8095,-71.1317,160,317, , ,,, , , ,, ,,,,,,, , ,,,,,,,,,,,,,,,,,3,10,,,,F,665,,,,107.8,1000,100,85,5,5,3,10,,,,,,, ,
X,5,20,2022,666,114542,40.8071,-71.1305,159,315, , ,,, , , ,, ,,,,,,, , ,,,,,,,,,,,,,,,,,3,10,,,,F,666,,,,107.8,1000,100,85,5,5,3,9,,,,,,, ,
Z,5,20,2022,667,114544,40.8061,-71.1301,159,318, , ,,, , , ,, ,,,,,,, , ,,,,,,,,,,,,,,,,,3,10,,,,F,667,,,,107.1,1000,100,85,5,5,3,10,,,,,,, ,
X,5,20,2022,668,114547,40.8047,-71.1294,159,320, , ,,, , , ,, ,,,,,,, , ,,,,,,,,,,,,,,,,,3,10,,,,F,668,,,,106.3,1000,100,85,5,5,3,10,,,,,,, ,
X,5,20,2022,669,114552,40.8028,-71.1284,157,322, , ,,, , , ,, ,,,,,,, , ,,,,,,,,,,,,,,,,,3,10,,,,F,669,,,,105.5,1000,100,85,5,5,3,10,,,,,,, ,
X,5,20,2022,670,114557,40.8004,-71.1269,153,324, , ,,, , , ,, ,,,,,,, , ,,,,,,,,,,,,,,,,,3,10,,,,F,670,,,,105,1000,100,85,5,5,3,10,,,,,,, ,
X,5,20,2022,671,114602,40.7983,-71.1256,153,324, , ,,, , , ,, ,,,,,,, , ,,,,,,,,,,,,,,,,,3,10,,,,F,671,,,,105,1000,100,85,5,5,3,9,,,,,,, ,
X,5,20,2022,672,114607,40.796,-71.124,151,324, , ,,, , , ,, ,,,,,,, , ,,,,,,,,,,,,,,,,,3,10,,,,F,672,,,,105.3,1000,100,85,5,5,3,10,,,,,,, ,
X,5,20,2022,673,114612,40.7939,-71.1222,140,322, , ,,, , , ,, ,,,,,,, , ,,,,,,,,,,,,,,,,,3,10,,,,F,673,,,,106.1,1000,100,85,5,5,3,9,,,,,,, ,
X,5,20,2022,674,114617,40.7925,-71.1203,127,327, , ,,, , , ,, ,,,,,,, , ,,,,,,,,,,,,,,,,,3,10,,,,F,674,,,,104.8,1000,100,85,5,5,3,9,,,,,,, ,
X,5,20,2022,675,114622,40.7911,-71.1172,116,325, , ,,, , , ,, ,,,,,,, , ,,,,,,,,,,,,,,,,,3,10,,,,F,675,,,,107.6,1000,100,85,5,5,3,9,,,,,,, ,
X,5,20,2022,676,114627,40.7902,-71.1146,110,312, , ,,, , , ,, ,,,,,,, , ,,,,,,,,,,,,,,,,,3,10,,,,F,676,,,,111.3,1000,100,85,5,5,3,8,,,,,,, ,
X,5,20,2022,677,114632,40.7893,-71.1107,106,308, , ,,, , , ,, ,,,,,,, , ,,,,,,,,,,,,,,,,,3,10,,,,F,677,,,,111.5,1000,100,85,5,5,3,9,,,,,,, ,
Z,5,20,2022,678,114634,40.7891,-71.1097,107,307, , ,,, , , ,, ,,,,,,, , ,,,,,,,,,,,,,,,,,3,10,,,,F,678,,,,112.2,1000,100,85,5,5,3,9,,,,,,, ,
X,5,20,2022,679,114637,40.7885,-71.1074,109,304, , ,,, , , ,, ,,,,,,, , ,,,,,,,,,,,,,,,,,3,10,,,,F,679,,,,112,1000,100,85,5,5,3,9,,,,,,, ,
X,5,20,2022,680,114642,40.7877,-71.1042,108,314, , ,,, , , ,, ,,,,,,, , ,,,,,,,,,,,,,,,,,3,10,,,,F,680,,,,109.2,1000,100,85,5,5,3,9,,,,,,, ,
X,5,20,2022,681,114647,40.787,-71.1017,108,320, , ,,, , , ,, ,,,,,,, , ,,,,,,,,,,,,,,,,,3,10,,,,F,681,,,,107.7,1000,100,85,5,5,3,10,,,,,,, ,
X,5,20,2022,682,114652,40.7863,-71.0988,108,322, , ,,, , , ,, ,,,,,,, , ,,,,,,,,,,,,,,,,,3,10,,,,F,682,,,,108.3,1000,100,85,5,5,3,9,,,,,,, ,
X,5,20,2022,683,114657,40.7853,-71.095,109,322, , ,,, , , ,, ,,,,,,, , ,,,,,,,,,,,,,,,,,3,10,,,,F,683,,,,107.7,1000,100,85,5,5,3,9,,,,,,, ,
X,5,20,2022,684,114702,40.7844,-71.0919,110,322, , ,,, , , ,, ,,,,,,, , ,,,,,,,,,,,,,,,,,3,10,,,,F,684,,,,107.9,1000,100,85,5,5,3,10,,,,,,, ,
X,5,20,2022,685,114707,40.7835,-71.0888,110,326, , ,,, , , ,, ,,,,,,, , ,,,,,,,,,,,,,,,,,3,10,,,,F,685,,,,108.1,1000,100,85,5,5,3,10,,,,,,, ,
X,5,20,2022,686,114712,40.7827,-71.0857,109,329, , ,,, , , ,, ,,,,,,, , ,,,,,,,,,,,,,,,,,3,10,,,,F,686,,,,108.4,1000,100,85,5,5,3,9,,,,,,, ,
X,5,20,2022,687,114717,40.7818,-71.0825,108,332, , ,,, , , ,, ,,,,,,, , ,,,,,,,,,,,,,,,,,3,10,,,,F,687,,,,108.1,1000,100,85,5,5,3,10,,,,,,, ,
X,5,20,2022,688,114722,40.781,-71.0793,107,335, , ,,, , , ,, ,,,,,,, , ,,,,,,,,,,,,,,,,,3,10,,,,F,688,,,,108.2,1000,100,85,5,5,3,10,,,,,,, ,
Z,5,20,2022,689,114724,40.7807,-71.0781,107,336, , ,,, , , ,, ,,,,,,, , ,,,,,,,,,,,,,,,,,3,10,,,,F,689,,,,107.7,1000,100,85,5,5,3,9,,,,,,, ,
X,5,20,2022,690,114727,40.7803,-71.0762,106,334, , ,,, , , ,, ,,,,,,, , ,,,,,,,,,,,,,,,,,3,10,,,,F,690,,,,107.9,1000,100,85,5,5,3,9,,,,,,, ,
X,5,20,2022,691,114732,40.7796,-71.073,104,338, , ,,, , , ,, ,,,,,,, , ,,,,,,,,,,,,,,,,,3,10,,,,F,691,,,,108.4,1000,100,85,5,5,3,10,,,,,,, ,
X,5,20,2022,692,114737,40.779,-71.0698,104,335, , ,,, , , ,, ,,,,,,, , ,,,,,,,,,,,,,,,,,3,10,,,,F,692,,,,108.8,1000,100,85,5,5,3,9,,,,,,, ,
X,5,20,2022,693,114742,40.7784,-71.0666,103,331, , ,,, , , ,, ,,,,,,, , ,,,,,,,,,,,,,,,,,3,10,,,,F,693,,,,108.8,1000,100,85,5,5,3,9,,,,,,, ,
X,5,20,2022,694,114747,40.778,-71.0633,91,331, , ,,, , , ,, ,,,,,,, , ,,,,,,,,,,,,,,,,,3,10,,,,F,694,,,,110.1,1000,100,85,5,5,3,9,,,,,,, ,
X,5,20,2022,695,114752,40.7783,-71.0601,74,335, , ,,, , , ,, ,,,,,,, , ,,,,,,,,,,,,,,,,,3,10,,,,F,695,,,,111.3,1000,100,85,5,5,3,10,,,,,,, ,
X,5,20,2022,696,114757,40.7794,-71.057,56,335, , ,,, , , ,, ,,,,,,, , ,,,,,,,,,,,,,,,,,3,10,,,,F,696,,,,113.8,1000,100,85,5,5,3,10,,,,,,, ,
X,5,20,2022,697,114802,40.7812,-71.0545,39,332, , ,,, , , ,, ,,,,,,, , ,,,,,,,,,,,,,,,,,3,10,,,,F,697,,,,116.7,1000,100,85,5,5,3,9,,,,,,, ,
X,5,20,2022,698,114807,40.7835,-71.0525,28,330, , ,,, , , ,, ,,,,,,, , ,,,,,,,,,,,,,,,,,3,10,,,,F,698,,,,118.8,1000,100,85,5,5,3,9,,,,,,, ,
X,5,20,2022,699,114812,40.7861,-71.0509,20,334, , ,,, , , ,, ,,,,,,, , ,,,,,,,,,,,,,,,,,3,10,,,,F,699,,,,118.2,1000,100,85,5,5,3,9,,,,,,, ,
Z,5,20,2022,700,114814,40.7871,-71.0505,16,336, , ,,, , , ,, ,,,,,,, , ,,,,,,,,,,,,,,,,,3,10,,,,F,700,,,,118.1,1000,100,85,5,5,3,9,,,,,,, ,
X,5,20,2022,701,114817,40.7886,-71.05,10,339, , ,,, , , ,, ,,,,,,, , ,,,,,,,,,,,,,,,,,3,10,,,,F,701,,,,117.6,1000,100,85,5,5,3,9,,,,,,, ,
X,5,20,2022,702,114822,40.7914,-71.0496,5,337, , ,,, , , ,, ,,,,,,, , ,,,,,,,,,,,,,,,,,3,10,,,,F,702,,,,118.5,1000,100,85,5,5,3,9,,,,,,, ,
X,5,20,2022,703,114827,40.7941,-71.0494,1,331, , ,,, , , ,, ,,,,,,, , ,,,,,,,,,,,,,,,,,3,10,,,,F,703,,,,120.2,1000,100,85,5,5,3,8,,,,,,, ,
X,5,20,2022,704,114832,40.797,-71.0493,359,328, , ,,, , , ,, ,,,,,,, , ,,,,,,,,,,,,,,,,,3,10,,,,F,704,,,,117.2,1000,100,85,5,5,3,8,,,,,,, ,
X,5,20,2022,705,114837,40.7997,-71.0493,0,327, , ,,, , , ,, ,,,,,,, , ,,,,,,,,,,,,,,,,,3,10,,,,F,705,,,,111.7,1000,100,85,5,5,3,9,,,,,,, ,
X,5,20,2022,706,114842,40.8022,-71.0493,0,324, , ,,, , , ,, ,,,,,,, , ,,,,,,,,,,,,,,,,,3,10,,,,F,706,,,,107.5,1000,100,85,5,5,3,8,,,,,,, ,
X,5,20,2022,707,114847,40.8044,-71.0493,358,319, , ,,, , , ,, ,,,,,,, , ,,,,,,,,,,,,,,,,,3,10,,,,F,707,,,,105.4,1000,100,85,5,5,3,8,,,,,,, ,
X,5,20,2022,708,114852,40.8067,-71.0494,359,318, , ,,, , , ,, ,,,,,,, , ,,,,,,,,,,,,,,,,,3,10,,,,T,708,,,,100.5,1000,100,85,5,5,3,8,,,,,,, ,
S,5,20,2022,709,114852,40.8067,-71.0494,359,318, , ,,, , , ,, ,14,,,,,, , ,,,,,,,,,,,,,,,,,3,11,,,,T,709,,,,100.5,1000,100,85,5,5,3,8,,,,,,, ,
X,5,20,2022,710,114852,40.8072,-71.0494,359,318, , ,,, , , ,, ,,,,,,, , ,,,,,,,,,,,,,,,,,3,11,,,,T,710,,,,100.3,1000,100,85,5,5,3,8,,,,,,, ,
X,5,20,2022,711,114857,40.8093,-71.0494,0,319, , ,,, , , ,, ,,,,,,, , ,,,,,,,,,,,,,,,,,3,11,,,,F,711,,,,97.9,1000,100,85,5,5,3,8,,,,,,, ,
X,5,20,2022,712,114902,40.8113,-71.0493,1,317, , ,,, , , ,, ,,,,,,, , ,,,,,,,,,,,,,,,,,3,11,,,,F,712,,,,97.9,1000,100,85,5,5,3,8,,,,,,, ,
X,5,20,2022,713,114907,40.8137,-71.0493,0,315, , ,,, , , ,, ,,,,,,, , ,,,,,,,,,,,,,,,,,3,11,,,,F,713,,,,98,1000,100,85,5,5,3,8,,,,,,, ,
X,5,20,2022,714,114912,40.816,-71.0493,359,315, , ,,, , , ,, ,,,,,,, , ,,,,,,,,,,,,,,,,,3,11,,,,F,714,,,,97.7,1000,100,85,5,5,3,8,,,,,,, ,
X,5,20,2022,715,114917,40.8184,-71.0493,359,310, , ,,, , , ,, ,,,,,,, , ,,,,,,,,,,,,,,,,,3,11,,,,F,715,,,,99.1,1000,100,85,5,5,3,8,,,,,,, ,
Z,5,20,2022,716,114920,40.8195,-71.0493,0,310, , ,,, , , ,, ,,,,,,, , ,,,,,,,,,,,,,,,,,3,11,,,,F,716,,,,98.1,1000,100,85,5,5,3,8,,,,,,, ,
X,5,20,2022,717,114922,40.8207,-71.0493,0,313, , ,,, , , ,, ,,,,,,, , ,,,,,,,,,,,,,,,,,3,11,,,,F,717,,,,97.4,1000,100,85,5,5,3,8,,,,,,, ,
X,5,20,2022,718,114927,40.8225,-71.0493,359,313, , ,,, , , ,, ,,,,,,, , ,,,,,,,,,,,,,,,,,3,11,,,,F,718,,,,97,1000,100,85,5,5,3,8,,,,,,, ,
X,5,20,2022,719,114932,40.8251,-71.0494,359,308, , ,,, , , ,, ,,,,,,, , ,,,,,,,,,,,,,,,,,3,11,,,,F,719,,,,98.2,1000,100,85,5,5,3,9,,,,,,, ,
X,5,20,2022,720,114937,40.8274,-71.0494,359,305, , ,,, , , ,, ,,,,,,, , ,,,,,,,,,,,,,,,,,3,11,,,,F,720,,,,99.3,1000,100,85,5,5,3,9,,,,,,, ,
X,5,20,2022,721,114942,40.8297,-71.0494,359,303, , ,,, , , ,, ,,,,,,, , ,,,,,,,,,,,,,,,,,3,11,,,,F,721,,,,100.2,1000,100,85,5,5,3,9,,,,,,, ,
X,5,20,2022,722,114947,40.832,-71.0494,0,304, , ,,, , , ,, ,,,,,,, , ,,,,,,,,,,,,,,,,,3,11,,,,F,722,,,,99.2,1000,100,85,5,5,3,9,,,,,,, ,
X,5,20,2022,723,114952,40.8344,-71.0493,1,304, , ,,, , , ,, ,,,,,,, , ,,,,,,,,,,,,,,,,,3,11,,,,F,723,,,,98.8,1000,100,85,5,5,3,8,,,,,,, ,
X,5,20,2022,724,114957,40.8367,-71.0493,0,303, , ,,, , , ,, ,,,,,,, , ,,,,,,,,,,,,,,,,,3,11,,,,F,724,,,,98.5,1000,100,85,5,5,3,8,,,,,,, ,
Z,5,20,2022,725,114957,40.8367,-71.0493,0,303, , ,,, , , ,, ,,,,,,, , ,,,,,,,,,,,,,,,,,3,11,,,,F,725,,,,98.5,1000,100,85,5,5,3,8,,,,,,, ,
X,5,20,2022,726,115002,40.8387,-71.0493,359,303, , ,,, , , ,, ,,,,,,, , ,,,,,,,,,,,,,,,,,3,11,,,,F,726,,,,98.2,1000,100,85,5,5,3,7,,,,,,, ,
X,5,20,2022,727,115007,40.8412,-71.0493,359,302, , ,,, , , ,, ,,,,,,, , ,,,,,,,,,,,,,,,,,3,11,,,,F,727,,,,98.4,1000,100,85,5,5,3,9,,,,,,, ,
Z,5,20,2022,728,115010,40.8425,-71.0493,359,301, , ,,, , , ,, ,,,,,,, , ,,,,,,,,,,,,,,,,,3,11,,,,F,728,,,,98.7,1000,100,85,5,5,3,9,,,,,,, ,
X,5,20,2022,729,115012,40.8435,-71.0493,359,299, , ,,, , , ,, ,,,,,,, , ,,,,,,,,,,,,,,,,,3,11,,,,F,729,,,,100.1,1000,100,85,5,5,3,9,,,,,,, ,
X,5,20,2022,730,115017,40.8459,-71.0493,0,293, , ,,, , , ,, ,,,,,,, , ,,,,,,,,,,,,,,,,,3,11,,,,F,730,,,,102.2,1000,100,85,5,5,3,9,,,,,,, ,
X,5,20,2022,731,115022,40.8481,-71.0493,0,298, , ,,, , , ,, ,,,,,,, , ,,,,,,,,,,,,,,,,,3,11,,,,F,731,,,,98.9,1000,100,85,5,5,3,9,,,,,,, ,
X,5,20,2022,732,115027,40.8504,-71.0493,358,309, , ,,, , , ,, ,,,,,,, , ,,,,,,,,,,,,,,,,,3,11,,,,F,732,,,,95.5,1000,100,85,5,5,3,9,,,,,,, ,
X,5,20,2022,733,115032,40.8525,-71.0493,358,311, , ,,, , , ,, ,,,,,,, , ,,,,,,,,,,,,,,,,,3,11,,,,F,733,,,,95.1,1000,100,85,5,5,3,9,,,,,,, ,
X,5,20,2022,734,115037,40.8547,-71.0494,359,310, , ,,, , , ,, ,,,,,,, , ,,,,,,,,,,,,,,,,,3,11,,,,F,734,,,,96.1,1000,100,85,5,5,3,8,,,,,,, ,
X,5,20,2022,735,115042,40.857,-71.0494,359,308, , ,,, , , ,, ,,,,,,, , ,,,,,,,,,,,,,,,,,3,11,,,,F,735,,,,96.8,1000,100,85,5,5,3,8,,,,,,, ,
X,5,20,2022,736,115047,40.8593,-71.0494,358,310, , ,,, , , ,, ,,,,,,, , ,,,,,,,,,,,,,,,,,3,11,,,,F,736,,,,96.6,1000,100,85,5,5,3,9,,,,,,, ,
Z,5,20,2022,737,115047,40.8593,-71.0494,358,310, , ,,, , , ,, ,,,,,,, , ,,,,,,,,,,,,,,,,,3,11,,,,F,737,,,,96.6,1000,100,85,5,5,3,9,,,,,,, ,
X,5,20,2022,738,115052,40.8615,-71.0495,358,312, , ,,, , , ,, ,,,,,,, , ,,,,,,,,,,,,,,,,,3,11,,,,F,738,,,,96.5,1000,100,85,5,5,3,8,,,,,,, ,
X,5,20,2022,739,115057,40.8638,-71.0496,359,312, , ,,, , , ,, ,,,,,,, , ,,,,,,,,,,,,,,,,,3,11,,,,F,739,,,,96.1,1000,100,85,5,5,3,8,,,,,,, ,
Z,5,20,2022,740,115059,40.8649,-71.0496,359,313, , ,,, , , ,, ,,,,,,, , ,,,,,,,,,,,,,,,,,3,11,,,,F,740,,,,96.9,1000,100,85,5,5,3,7,,,,,,, ,
X,5,20,2022,741,115102,40.8656,-71.0496,0,313, , ,,, , , ,, ,,,,,,, , ,,,,,,,,,,,,,,,,,3,11,,,,F,741,,,,97.1,1000,100,85,5,5,3,8,,,,,,, ,
X,5,20,2022,742,115107,40.8683,-71.0496,0,317, , ,,, , , ,, ,,,,,,, , ,,,,,,,,,,,,,,,,,3,11,,,,T,742,,,,97.1,1000,100,85,5,5,3,8,,,,,,, ,
S,5,20,2022,743,115111,40.8683,-71.0496,0,317, , ,,, , , ,, ,15,,,,,, , ,,,,,,,,,,,,,,,,,3,12,,,,T,743,,,,97.1,1000,100,85,5,5,N,7,,,,,,, ,
X,5,20,2022,744,115111,40.8703,-71.0495,359,319, , ,,, , , ,, ,,,,,,, , ,,,,,,,,,,,,,,,,,3,12,,,,T,744,,,,96.6,1000,100,85,5,5,3,8,,,,,,, ,
X,5,20,2022,745,115112,40.8705,-71.0495,359,319, , ,,, , , ,, ,,,,,,, , ,,,,,,,,,,,,,,,,,3,12,,,,F,745,,,,96.8,1000,100,85,5,5,3,8,,,,,,, ,
X,5,20,2022,746,115117,40.8726,-71.0496,359,317, , ,,, , , ,, ,,,,,,, , ,,,,,,,,,,,,,,,,,3,12,,,,F,746,,,,98.5,1000,100,85,5,5,3,9,,,,,,, ,
X,5,20,2022,747,115122,40.8751,-71.0496,359,316, , ,,, , , ,, ,,,,,,, , ,,,,,,,,,,,,,,,,,3,12,,,,F,747,,,,99.7,1000,100,85,5,5,3,8,,,,,,, ,
X,5,20,2022,748,115127,40.8774,-71.0496,0,315, , ,,, , , ,, ,,,,,,, , ,,,,,,,,,,,,,,,,,3,12,,,,F,748,,,,100.4,1000,100,85,5,5,3,9,,,,,,, ,
X,5,20,2022,749,115132,40.8797,-71.0496,0,316, , ,,, , , ,, ,,,,,,, , ,,,,,,,,,,,,,,,,,3,12,,,,F,749,,,,100.8,1000,100,85,5,5,3,9,,,,,,, ,
X,5,20,2022,750,115137,40.8819,-71.0495,0,319, , ,,, , , ,, ,,,,,,, , ,,,,,,,,,,,,,,,,,3,12,,,,F,750,,,,100.2,1000,100,85,5,5,3,9,,,,,,, ,
X,5,20,2022,751,115142,40.8841,-71.0495,359,324, , ,,, , , ,, ,,,,,,, , ,,,,,,,,,,,,,,,,,3,12,,,,T,751,,,,99.3,1000,100,85,5,5,3,8,,,,,,, ,
S,5,20,2022,752,115145,40.8841,-71.0495,359,324, , ,,, , , ,, ,16,,,,,, , ,,,,,,,,,,,,,,,,,3,13,,,,T,752,,,,99.3,1000,100,85,5,5,3,8,,,,,,, ,
X,5,20,2022,753,115145,40.8859,-71.0495,0,323, , ,,, , , ,, ,,,,,,, , ,,,,,,,,,,,,,,,,,3,13,,,,T,753,,,,99.7,1000,100,85,5,5,3,9,,,,,,, ,
X,5,20,2022,754,115147,40.8866,-71.0495,0,322, , ,,, , , ,, ,,,,,,, , ,,,,,,,,,,,,,,,,,3,13,,,,F,754,,,,100.5,1000,100,85,5,5,3,9,,,,,,, ,
X,5,20,2022,755,115152,40.8889,-71.0494,1,323, , ,,, , , ,, ,,,,,,, , ,,,,,,,,,,,,,,,,,3,13,,,,F,755,,,,100.3,1000,100,85,5,5,3,9,,,,,,, ,
X,5,20,2022,756,115157,40.8912,-71.0494,359,327, , ,,, , , ,, ,,,,,,, , ,,,,,,,,,,,,,,,,,3,13,,,,F,756,,,,99.7,1000,100,85,5,5,3,9,,,,,,, ,
X,5,20,2022,757,115202,40.8935,-71.0494,1,328, , ,,, , , ,, ,,,,,,, , ,,,,,,,,,,,,,,,,,3,13,,,,F,757,,,,99.7,1000,100,85,5,5,3,9,,,,,,, ,
X,5,20,2022,758,115207,40.8958,-71.0493,1,329, , ,,, , , ,, ,,,,,,, , ,,,,,,,,,,,,,,,,,3,13,,,,F,758,,,,100.3,1000,100,85,5,5,3,9,,,,,,, ,
X,5,20,2022,759,115212,40.8983,-71.0492,1,331, , ,,, , , ,, ,,,,,,, , ,,,,,,,,,,,,,,,,,3,13,,,,T,759,,,,99.8,1000,100,85,5,5,3,9,,,,,,, ,
S,5,20,2022,760,115213,40.8983,-71.0492,1,331, , ,,, , , ,, ,17,,,,,, , ,,,,,,,,,,,,,,,,,3,14,,,,T,760,,,,99.8,1000,100,85,5,5,3,9,,,,,,, ,
X,5,20,2022,761,115213,40.8987,-71.0492,1,331, , ,,, , , ,, ,,,,,,, , ,,,,,,,,,,,,,,,,,3,14,,,,T,761,,,,99.6,1000,100,85,5,5,3,9,,,,,,, ,
X,5,20,2022,762,115217,40.9006,-71.0491,1,332, , ,,, , , ,, ,,,,,,, , ,,,,,,,,,,,,,,,,,3,14,,,,F,762,,,,99.5,1000,100,85,5,5,3,9,,,,,,, ,
X,5,20,2022,763,115222,40.9022,-71.0491,1,333, , ,,, , , ,, ,,,,,,, , ,,,,,,,,,,,,,,,,,3,14,,,,F,763,,,,100.1,1000,100,85,5,5,3,9,,,,,,, ,
X,5,20,2022,764,115227,40.9049,-71.049,0,334, , ,,, , , ,, ,,,,,,, , ,,,,,,,,,,,,,,,,,3,14,,,,F,764,,,,100.2,1000,100,85,5,5,3,9,,,,,,, ,
X,5,20,2022,765,115232,40.9075,-71.049,0,336, , ,,, , , ,, ,,,,,,, , ,,,,,,,,,,,,,,,,,3,14,,,,F,765,,,,99.7,1000,100,85,5,5,3,9,,,,,,, ,
Z,5,20,2022,766,115235,40.9089,-71.049,360,336, , ,,, , , ,, ,,,,,,, , ,,,,,,,,,,,,,,,,,3,14,,,,F,766,,,,99.6,1000,100,85,5,5,3,9,,,,,,, ,
X,5,20,2022,767,115237,40.9098,-71.049,359,336, , ,,, , , ,, ,,,,,,, , ,,,,,,,,,,,,,,,,,3,14,,,,F,767,,,,99.8,1000,100,85,5,5,3,9,,,,,,, ,
X,5,20,2022,768,115242,40.9121,-71.049,0,336, , ,,, , , ,, ,,,,,,, , ,,,,,,,,,,,,,,,,,3,14,,,,F,768,,,,100.1,1000,100,85,5,5,3,9,,,,,,, ,
X,5,20,2022,769,115247,40.9145,-71.049,1,336, , ,,, , , ,, ,,,,,,, , ,,,,,,,,,,,,,,,,,3,14,,,,F,769,,,,100.3,1000,100,85,5,5,3,9,,,,,,, ,
X,5,20,2022,770,115252,40.9161,-71.049,1,336, , ,,, , , ,, ,,,,,,, , ,,,,,,,,,,,,,,,,,3,14,,,,F,770,,,,100.7,1000,100,85,5,5,3,9,,,,,,, ,
X,5,20,2022,771,115254,40.9175,-71.0489,1,337, , ,,, , , ,, ,,,,,,, , ,,,,,,,,,,,,,,,,,3,14,,,,T,771,,,,100.9,1000,100,85,5,5,3,8,,,,,,, ,
S,5,20,2022,772,115254,40.9175,-71.0489,1,337, , ,,, , , ,, ,18,,UNSE,1,,,1,3,0,,,,,,,,,,,,,,,,3,15,,,,T,772,,,,100.9,1000,100,85,5,5,3,8,,,,,,70 DEGREES, ,
X,5,20,2022,773,115255,40.918,-71.0489,0,337, , ,,, , , ,, ,,,,,,, , ,,,,,,,,,,,,,,,,,3,15,,,,T,773,,,,101.1,1000,100,85,5,5,3,8,,,,,,, ,
X,5,20,2022,774,115257,40.919,-71.0489,0,338, , ,,, , , ,, ,,,,,,, , ,,,,,,,,,,,,,,,,,3,15,,,,F,774,,,,100.8,1000,100,85,5,5,3,8,,,,,,, ,
X,5,20,2022,775,115302,40.9215,-71.0489,0,339, , ,,, , , ,, ,,,,,,, , ,,,,,,,,,,,,,,,,,3,15,,,,F,775,,,,100.4,1000,100,85,5,5,3,8,,,,,,, ,
Z,5,20,2022,776,115304,40.9223,-71.0489,359,340, , ,,, , , ,, ,,,,,,, , ,,,,,,,,,,,,,,,,,3,15,,,,F,776,,,,100.5,1000,100,85,5,5,3,9,,,,,,, ,
X,5,20,2022,777,115307,40.9238,-71.0489,359,340, , ,,, , , ,, ,,,,,,, , ,,,,,,,,,,,,,,,,,3,15,,,,F,777,,,,100.1,1000,100,85,5,5,3,9,,,,,,, ,
X,5,20,2022,778,115312,40.9259,-71.049,358,341, , ,,, , , ,, ,,,,,,, , ,,,,,,,,,,,,,,,,,3,15,,,,F,778,,,,100,1000,100,85,5,5,3,9,,,,,,, ,
X,5,20,2022,779,115317,40.9282,-71.049,0,342, , ,,, , , ,, ,,,,,,, , ,,,,,,,,,,,,,,,,,3,15,,,,F,779,,,,100.3,1000,100,85,5,5,3,9,,,,,,, ,
X,5,20,2022,780,115322,40.9306,-71.0489,1,343, , ,,, , , ,, ,,,,,,, , ,,,,,,,,,,,,,,,,,3,15,,,,F,780,,,,100.3,1000,100,85,5,5,3,8,,,,,,, ,
X,5,20,2022,781,115327,40.933,-71.0489,0,345, , ,,, , , ,, ,,,,,,, , ,,,,,,,,,,,,,,,,,3,15,,,,F,781,,,,100.1,1000,100,85,5,5,3,9,,,,,,, ,
X,5,20,2022,782,115332,40.9354,-71.0489,359,347, , ,,, , , ,, ,,,,,,, , ,,,,,,,,,,,,,,,,,3,15,,,,F,782,,,,100.6,1000,100,85,5,5,3,9,,,,,,, ,
X,5,20,2022,783,115337,40.9375,-71.0489,0,344, , ,,, , , ,, ,,,,,,, , ,,,,,,,,,,,,,,,,,3,15,,,,F,783,,,,101.4,1000,100,85,5,5,3,9,,,,,,, ,
X,5,20,2022,784,115342,40.9401,-71.0489,0,337, , ,,, , , ,, ,,,,,,, , ,,,,,,,,,,,,,,,,,3,15,,,,F,784,,,,104.4,1000,100,85,5,5,3,8,,,,,,, ,
X,5,20,2022,785,115347,40.9422,-71.0489,359,334, , ,,, , , ,, ,,,,,,, , ,,,,,,,,,,,,,,,,,3,15,,,,F,785,,,,106.1,1000,100,85,5,5,3,9,,,,,,, ,
Z,5,20,2022,786,115349,40.9438,-71.0489,359,335, , ,,, , , ,, ,,,,,,, , ,,,,,,,,,,,,,,,,,3,15,,,,F,786,,,,105.3,1000,100,85,5,5,3,8,,,,,,, ,
X,5,20,2022,787,115352,40.945,-71.0489,0,336, , ,,, , , ,, ,,,,,,, , ,,,,,,,,,,,,,,,,,3,15,,,,F,787,,,,105.5,1000,100,85,5,5,3,8,,,,,,, ,
X,5,20,2022,788,115357,40.9474,-71.0489,0,337, , ,,, , , ,, ,,,,,,, , ,,,,,,,,,,,,,,,,,3,15,,,,F,788,,,,104.8,1000,100,85,5,5,3,9,,,,,,, ,
X,5,20,2022,789,115402,40.9499,-71.0488,0,334, , ,,, , , ,, ,,,,,,, , ,,,,,,,,,,,,,,,,,3,15,,,,F,789,,,,106.5,1000,100,85,5,5,3,9,,,,,,, ,
X,5,20,2022,790,115407,40.9524,-71.0488,359,331, , ,,, , , ,, ,,,,,,, , ,,,,,,,,,,,,,,,,,3,15,,,,F,790,,,,107.5,1000,100,85,5,5,3,9,,,,,,, ,
X,5,20,2022,791,115412,40.9546,-71.0488,359,328, , ,,, , , ,, ,,,,,,, , ,,,,,,,,,,,,,,,,,3,15,,,,F,791,,,,108.4,1000,100,85,5,5,3,9,,,,,,, ,
X,5,20,2022,792,115417,40.9573,-71.0488,359,325, , ,,, , , ,, ,,,,,,, , ,,,,,,,,,,,,,,,,,3,15,,,,T,792,,,,109.4,1000,100,85,5,5,3,9,,,,,,, ,
S,5,20,2022,793,115417,40.9573,-71.0488,359,325, , ,,, , , ,, ,19,,,,,, , ,,,,,,,,,,,,,,,,,3,16,,,,T,793,,,,109.4,1000,100,85,5,5,3,9,,,,,,, ,
X,5,20,2022,794,115417,40.9576,-71.0488,359,325, , ,,, , , ,, ,,,,,,, , ,,,,,,,,,,,,,,,,,3,16,,,,T,794,,,,109.6,1000,100,85,5,5,3,9,,,,,,, ,
X,5,20,2022,795,115422,40.9597,-71.0489,358,325, , ,,, , , ,, ,,,,,,, , ,,,,,,,,,,,,,,,,,3,16,,,,F,795,,,,108.6,1000,100,85,5,5,3,8,,,,,,, ,
X,5,20,2022,796,115427,40.9623,-71.0489,359,326, , ,,, , , ,, ,,,,,,, , ,,,,,,,,,,,,,,,,,3,16,,,,F,796,,,,108.4,1000,100,85,5,5,3,9,,,,,,, ,
X,5,20,2022,797,115432,40.9648,-71.0489,359,325, , ,,, , , ,, ,,,,,,, , ,,,,,,,,,,,,,,,,,3,16,,,,F,797,,,,108.4,1000,100,85,5,5,3,9,,,,,,, ,
X,5,20,2022,798,115437,40.9673,-71.049,359,325, , ,,, , , ,, ,,,,,,, , ,,,,,,,,,,,,,,,,,3,16,,,,F,798,,,,108.2,1000,100,85,5,5,3,9,,,,,,, ,
X,5,20,2022,799,115442,40.9698,-71.0489,0,323, , ,,, , , ,, ,,,,,,, , ,,,,,,,,,,,,,,,,,3,16,,,,F,799,,,,108.3,1000,100,85,5,5,3,9,,,,,,, ,
X,5,20,2022,800,115447,40.9725,-71.0489,359,323, , ,,, , , ,, ,,,,,,, , ,,,,,,,,,,,,,,,,,3,16,,,,F,800,,,,108.4,1000,100,85,5,5,3,9,,,,,,, ,
Z,5,20,2022,801,115447,40.9727,-71.0489,359,323, , ,,, , , ,, ,,,,,,, , ,,,,,,,,,,,,,,,,,3,16,,,,F,801,,,,108.5,1000,100,85,5,5,3,9,,,,,,, ,
X,5,20,2022,802,115452,40.9743,-71.0489,359,324, , ,,, , , ,, ,,,,,,, , ,,,,,,,,,,,,,,,,,3,16,,,,F,802,,,,107.8,1000,100,85,5,5,3,8,,,,,,, ,
X,5,20,2022,803,115457,40.9773,-71.049,358,324, , ,,, , , ,, ,,,,,,, , ,,,,,,,,,,,,,,,,,3,16,,,,F,803,,,,107.2,1000,100,85,5,5,3,8,,,,,,, ,
Z,5,20,2022,804,115500,40.9789,-71.049,358,324, , ,,, , , ,, ,,,,,,, , ,,,,,,,,,,,,,,,,,3,16,,,,F,804,,,,107.2,1000,100,85,5,5,3,8,,,,,,, ,
X,5,20,2022,805,115502,40.9799,-71.0491,358,324, , ,,, , , ,, ,,,,,,, , ,,,,,,,,,,,,,,,,,3,16,,,,F,805,,,,106.9,1000,100,85,5,5,3,9,,,,,,, ,
X,5,20,2022,806,115507,40.9824,-71.0491,358,325, , ,,, , , ,, ,,,,,,, , ,,,,,,,,,,,,,,,,,3,16,,,,F,806,,,,105.5,1000,100,85,5,5,3,9,,,,,,, ,
X,5,20,2022,807,115512,40.9848,-71.0492,358,324, , ,,, , , ,, ,,,,,,, , ,,,,,,,,,,,,,,,,,3,16,,,,F,807,,,,105.9,1000,100,85,5,5,3,9,,,,,,, ,
X,5,20,2022,808,115517,40.9869,-71.0493,358,322, , ,,, , , ,, ,,,,,,, , ,,,,,,,,,,,,,,,,,3,16,,,,F,808,,,,106.4,1000,100,85,5,5,3,9,,,,,,, ,
X,5,20,2022,809,115522,40.9897,-71.0494,358,317, , ,,, , , ,, ,,,,,,, , ,,,,,,,,,,,,,,,,,3,16,,,,F,809,,,,108.1,1000,100,85,5,5,3,9,,,,,,, ,
X,5,20,2022,810,115527,40.9922,-71.0495,358,316, , ,,, , , ,, ,,,,,,, , ,,,,,,,,,,,,,,,,,3,16,,,,F,810,,,,108.1,1000,100,85,5,5,3,9,,,,,,, ,
X,5,20,2022,811,115532,40.9947,-71.0496,359,317, , ,,, , , ,, ,,,,,,, , ,,,,,,,,,,,,,,,,,3,16,,,,F,811,,,,107.4,1000,100,85,5,5,3,9,,,,,,, ,
X,5,20,2022,812,115537,40.9973,-71.0496,359,318, , ,,, , , ,, ,,,,,,, , ,,,,,,,,,,,,,,,,,3,16,,,,F,812,,,,107.5,1000,100,85,5,5,3,9,,,,,,, ,
Z,5,20,2022,813,115537,40.9974,-71.0496,359,318, , ,,, , , ,, ,,,,,,, , ,,,,,,,,,,,,,,,,,3,16,,,,F,813,,,,106.8,1000,100,85,5,5,3,9,,,,,,, ,
X,5,20,2022,814,115542,40.9996,-71.0496,0,318, , ,,, , , ,, ,,,,,,, , ,,,,,,,,,,,,,,,,,3,16,,,,F,814,,,,107.2,1000,100,85,5,5,3,9,,,,,,, ,
X,5,20,2022,815,115547,41.0023,-71.0496,1,317, , ,,, , , ,, ,,,,,,, , ,,,,,,,,,,,,,,,,,3,16,,,,F,815,,,,106.6,1000,100,85,5,5,3,8,,,,,,, ,
Z,5,20,2022,816,115550,41.0036,-71.0496,0,317, , ,,, , , ,, ,,,,,,, , ,,,,,,,,,,,,,,,,,3,16,,,,F,816,,,,107.3,1000,100,85,5,5,3,9,,,,,,, ,
X,5,20,2022,817,115552,41.0046,-71.0496,0,317, , ,,, , , ,, ,,,,,,, , ,,,,,,,,,,,,,,,,,3,16,,,,F,817,,,,107,1000,100,85,5,5,3,9,,,,,,, ,
X,5,20,2022,818,115557,41.0071,-71.0495,0,319, , ,,, , , ,, ,,,,,,, , ,,,,,,,,,,,,,,,,,3,16,,,,F,818,,,,105.9,1000,100,85,5,5,3,8,,,,,,, ,
X,5,20,2022,819,115602,41.0097,-71.0495,1,319, , ,,, , , ,, ,,,,,,, , ,,,,,,,,,,,,,,,,,3,16,,,,F,819,,,,106.3,1000,100,85,5,5,3,8,,,,,,, ,
X,5,20,2022,820,115607,41.0121,-71.0494,1,318, , ,,, , , ,, ,,,,,,, , ,,,,,,,,,,,,,,,,,3,16,,,,F,820,,,,106.6,1000,100,85,5,5,3,9,,,,,,, ,
X,5,20,2022,821,115612,41.0146,-71.0493,359,316, , ,,, , , ,, ,,,,,,, , ,,,,,,,,,,,,,,,,,3,16,,,,F,821,,,,107,1000,100,85,5,5,3,9,,,,,,, ,
X,5,20,2022,822,115617,41.0167,-71.0494,359,317, , ,,, , , ,, ,,,,,,, , ,,,,,,,,,,,,,,,,,3,16,,,,F,822,,,,106.6,1000,100,85,5,5,3,9,,,,,,, ,
X,5,20,2022,823,115622,41.0194,-71.0494,359,318, , ,,, , , ,, ,,,,,,, , ,,,,,,,,,,,,,,,,,3,16,,,,F,823,,,,106.2,1000,100,85,5,5,3,9,,,,,,, ,
X,5,20,2022,824,115627,41.022,-71.0494,359,315, , ,,, , , ,, ,,,,,,, , ,,,,,,,,,,,,,,,,,3,16,,,,F,824,,,,106.2,1000,100,85,5,5,3,9,,,,,,, ,
Z,5,20,2022,825,115627,41.022,-71.0494,359,315, , ,,, , , ,, ,,,,,,, , ,,,,,,,,,,,,,,,,,3,16,,,,F,825,,,,106.2,1000,100,85,5,5,3,9,,,,,,, ,
X,5,20,2022,826,115632,41.0243,-71.0494,359,310, , ,,, , , ,, ,,,,,,, , ,,,,,,,,,,,,,,,,,3,16,,,,F,826,,,,107.9,1000,100,85,5,5,3,9,,,,,,, ,
X,5,20,2022,827,115637,41.027,-71.0494,359,308, , ,,, , , ,, ,,,,,,, , ,,,,,,,,,,,,,,,,,3,16,,,,F,827,,,,108.6,1000,100,85,5,5,3,9,,,,,,, ,
Z,5,20,2022,828,115639,41.0282,-71.0495,359,308, , ,,, , , ,, ,,,,,,, , ,,,,,,,,,,,,,,,,,3,16,,,,F,828,,,,108.2,1000,100,85,5,5,3,9,,,,,,, ,
X,5,20,2022,829,115642,41.0295,-71.0495,359,308, , ,,, , , ,, ,,,,,,, , ,,,,,,,,,,,,,,,,,3,16,,,,F,829,,,,107.2,1000,100,85,5,5,3,9,,,,,,, ,
X,5,20,2022,830,115647,41.0317,-71.0495,359,310, , ,,, , , ,, ,,,,,,, , ,,,,,,,,,,,,,,,,,3,16,,,,F,830,,,,106.9,1000,100,85,5,5,3,9,,,,,,, ,
X,5,20,2022,831,115652,41.0343,-71.0495,359,309, , ,,, , , ,, ,,,,,,, , ,,,,,,,,,,,,,,,,,3,16,,,,F,831,,,,106.8,1000,100,85,5,5,3,9,,,,,,, ,
X,5,20,2022,832,115657,41.0368,-71.0495,0,306, , ,,, , , ,, ,,,,,,, , ,,,,,,,,,,,,,,,,,3,16,,,,F,832,,,,107.4,1000,100,85,5,5,3,9,,,,,,, ,
X,5,20,2022,833,115702,41.0393,-71.0495,0,304, , ,,, , , ,, ,,,,,,, , ,,,,,,,,,,,,,,,,,3,16,,,,T,833,,,,108.2,1000,100,85,5,5,3,9,,,,,,, ,
P,5,20,2022,834,115703,41.0393,-71.0495,0,304, , ,,, , , ,, ,20,,,,,, , ,,,,,,,,,,,,,,,,,4,16,,,,T,834,,,,108.2,1000,100,85,5,5,3,9,,,,,,, ,
X,5,20,2022,835,115703,41.0399,-71.0495,0,304, , ,,, , , ,, ,,,,,,, , ,,,,,,,,,,,,,,,,,4,16,,,,T,835,,,,107.7,1000,100,85,5,5,3,9,,,,,,, ,
X,5,20,2022,836,115707,41.0419,-71.0495,359,304, , ,,, , , ,, ,,,,,,, , ,,,,,,,,,,,,,,,,,4,16,,,,F,836,,,,107.5,1000,100,85,5,5,3,10,,,,,,, ,
X,5,20,2022,837,115712,41.0444,-71.0495,359,304, , ,,, , , ,, ,,,,,,, , ,,,,,,,,,,,,,,,,,4,16,,,,F,837,,,,107.1,1000,100,85,5,5,3,10,,,,,,, ,
X,5,20,2022,838,115717,41.0464,-71.0495,359,304, , ,,, , , ,, ,,,,,,, , ,,,,,,,,,,,,,,,,,4,16,,,,F,838,,,,107.3,1000,100,85,5,5,3,10,,,,,,, ,
X,5,20,2022,839,115722,41.0494,-71.0495,0,305, , ,,, , , ,, ,,,,,,, , ,,,,,,,,,,,,,,,,,4,16,,,,T,839,,,,106.8,1000,100,85,5,5,3,10,,,,,,, ,
P,5,20,2022,840,115725,41.0494,-71.0495,0,305, , ,,, , , ,, ,21,,,,,, , ,,,,,,,,,,,,,,,,,5,16,,,,T,840,,,,106.8,1000,100,85,5,5,N,10,,,,,,, ,
X,5,20,2022,841,115725,41.0509,-71.0495,359,305, , ,,, , , ,, ,,,,,,, , ,,,,,,,,,,,,,,,,,5,16,,,,T,841,,,,105.3,1000,100,85,5,5,3,10,,,,,,, ,
X,5,20,2022,842,115727,41.0518,-71.0496,359,306, , ,,, , , ,, ,,,,,,, , ,,,,,,,,,,,,,,,,,5,16,,,,F,842,,,,104.4,1000,100,85,5,5,3,10,,,,,,, ,
X,5,20,2022,843,115732,41.0539,-71.0496,359,308, , ,,, , , ,, ,,,,,,, , ,,,,,,,,,,,,,,,,,5,16,,,,F,843,,,,102.3,1000,100,85,5,5,3,10,,,,,,, ,
X,5,20,2022,844,115737,41.0564,-71.0496,0,310, , ,,, , , ,, ,,,,,,, , ,,,,,,,,,,,,,,,,,5,16,,,,F,844,,,,99.4,1000,100,85,5,5,3,10,,,,,,, ,
X,5,20,2022,845,115742,41.0586,-71.0496,359,312, , ,,, , , ,, ,,,,,,, , ,,,,,,,,,,,,,,,,,5,16,,,,F,845,,,,97.9,1000,100,85,5,5,3,9,,,,,,, ,
X,5,20,2022,846,115747,41.0609,-71.0497,359,313, , ,,, , , ,, ,,,,,,, , ,,,,,,,,,,,,,,,,,5,16,,,,F,846,,,,95.8,1000,100,85,5,5,3,9,,,,,,, ,
X,5,20,2022,847,115752,41.0633,-71.0497,359,312, , ,,, , , ,, ,,,,,,, , ,,,,,,,,,,,,,,,,,5,16,,,,F,847,,,,95.5,1000,100,85,5,5,3,10,,,,,,, ,
Z,5,20,2022,848,115754,41.064,-71.0497,359,311, , ,,, , , ,, ,,,,,,, , ,,,,,,,,,,,,,,,,,5,16,,,,F,848,,,,95.3,1000,100,85,5,5,3,10,,,,,,, ,
X,5,20,2022,849,115757,41.0655,-71.0497,0,311, , ,,, , , ,, ,,,,,,, , ,,,,,,,,,,,,,,,,,5,16,,,,F,849,,,,95.5,1000,100,85,5,5,3,10,,,,,,, ,
X,5,20,2022,850,115802,41.0674,-71.0497,0,311, , ,,, , , ,, ,,,,,,, , ,,,,,,,,,,,,,,,,,5,16,,,,F,850,,,,94.5,1000,100,85,5,5,3,10,,,,,,, ,
X,5,20,2022,851,115807,41.0696,-71.0497,359,313, , ,,, , , ,, ,,,,,,, , ,,,,,,,,,,,,,,,,,5,16,,,,F,851,,,,93.6,1000,100,85,5,5,3,10,,,,,,, ,
X,5,20,2022,852,115812,41.0719,-71.0497,0,313, , ,,, , , ,, ,,,,,,, , ,,,,,,,,,,,,,,,,,5,16,,,,F,852,,,,93.1,1000,100,85,5,5,3,10,,,,,,, ,
X,5,20,2022,853,115817,41.074,-71.0497,0,314, , ,,, , , ,, ,,,,,,, , ,,,,,,,,,,,,,,,,,5,16,,,,F,853,,,,93.5,1000,100,85,5,5,3,10,,,,,,, ,
X,5,20,2022,854,115822,41.0762,-71.0496,0,316, , ,,, , , ,, ,,,,,,, , ,,,,,,,,,,,,,,,,,5,16,,,,F,854,,,,93.2,1000,100,85,5,5,3,10,,,,,,, ,
X,5,20,2022,855,115827,41.0783,-71.0496,0,315, , ,,, , , ,, ,,,,,,, , ,,,,,,,,,,,,,,,,,5,16,,,,F,855,,,,94.2,1000,100,85,5,5,3,10,,,,,,, ,
X,5,20,2022,856,115832,41.0807,-71.0496,0,314, , ,,, , , ,, ,,,,,,, , ,,,,,,,,,,,,,,,,,5,16,,,,F,856,,,,95.2,1000,100,85,5,5,3,10,,,,,,, ,
X,5,20,2022,857,115837,41.0828,-71.0496,1,315, , ,,, , , ,, ,,,,,,, , ,,,,,,,,,,,,,,,,,5,16,,,,F,857,,,,95.6,1000,100,85,5,5,3,10,,,,,,, ,
X,5,20,2022,858,115842,41.0851,-71.0495,0,319, , ,,, , , ,, ,,,,,,, , ,,,,,,,,,,,,,,,,,5,16,,,,F,858,,,,94.5,1000,100,85,5,5,3,10,,,,,,, ,
Z,5,20,2022,859,115844,41.0858,-71.0495,0,321, , ,,, , , ,, ,,,,,,, , ,,,,,,,,,,,,,,,,,5,16,,,,F,859,,,,93.8,1000,100,85,5,5,3,10,,,,,,, ,
X,5,20,2022,860,115847,41.0873,-71.0495,359,323, , ,,, , , ,, ,,,,,,, , ,,,,,,,,,,,,,,,,,5,16,,,,F,860,,,,93.6,1000,100,85,5,5,3,10,,,,,,, ,
X,5,20,2022,861,115852,41.0895,-71.0495,359,323, , ,,, , , ,, ,,,,,,, , ,,,,,,,,,,,,,,,,,5,16,,,,F,861,,,,94.4,1000,100,85,5,5,3,10,,,,,,, ,
X,5,20,2022,862,115857,41.0917,-71.0495,359,322, , ,,, , , ,, ,,,,,,, , ,,,,,,,,,,,,,,,,,5,16,,,,F,862,,,,95.2,1000,100,85,5,5,3,10,,,,,,, ,
X,5,20,2022,863,115902,41.0937,-71.0496,359,322, , ,,, , , ,, ,,,,,,, , ,,,,,,,,,,,,,,,,,5,16,,,,F,863,,,,96.3,1000,100,85,5,5,3,10,,,,,,, ,
X,5,20,2022,864,115907,41.096,-71.0496,359,321, , ,,, , , ,, ,,,,,,, , ,,,,,,,,,,,,,,,,,5,16,,,,F,864,,,,97.2,1000,100,85,5,5,3,10,,,,,,, ,
X,5,20,2022,865,115912,41.0983,-71.0496,359,319, , ,,, , , ,, ,,,,,,, , ,,,,,,,,,,,,,,,,,5,16,,,,F,865,,,,98.7,1000,100,85,5,5,3,10,,,,,,, ,
X,5,20,2022,866,115917,41.1006,-71.0496,359,317, , ,,, , , ,, ,,,,,,, , ,,,,,,,,,,,,,,,,,5,16,,,,T,866,,,,100,1000,100,85,5,5,3,10,,,,,,, ,
