rectype,month,day,year,eventno,time,lat,long,heading,alt,legtype,legstage,legno,visiblty,glarel,glarer,beaufort,cloud,wx,sightno,strip,speccode,number,numcalf,anhead,photos,idrel,confidnc,behav1,behav2,behav3,behav4,behav5,behav6,behav7,behav8,behav9,behav10,behav11,behav12,behav13,behav14,behav15,psightings,ssightings,pnum,snum,legflag,view,refno,stratum,utc,radalt,gpsspeed,setalt,setvel,lensfl,ggf,int,gpsq,gpssats,roll,pitch,yaw,maghead,notes,edits,glarev,ph_qual
"Z","03","23",2022,1,"090309",41.6730,-70.9602,355,22," "," ","",""," "," "," ",""," ","","","","","",""," "," ","","","","","","","","","","","","","","","","",0,0,"","","/",F,1,"","","","000.5",1000,100,85,5,5.00,"3","8","","","","","",""," ",""
"Z","03","23",2022,2,"090318",41.6730,-70.9602,352,22," "," ","",""," "," "," ",""," ","","","","","",""," "," ","","","","","","","","","","","","","","","","",0,0,"","","/",F,2,"","","","000.0",1000,100,85,5,5.00,"3","8","","","","","",""," ",""
"Z","03","23",2022,3,"090322",41.6730,-70.9602,339,22," "," ","",""," "," "," ",""," ","","","","","",""," "," ","","","","","","","","","","","","","","","","",0,0,"","","/",F,3,"","","","000.2",1000,100,85,5,5.00,"3","8","","","","","",""," ",""
"Z","03","23",2022,4,"090326",41.6730,-70.9602,354,21," "," ","",""," "," "," ",""," ","","","","","",""," "," ","","","","","","","","","","","","","","","","",0,0,"","","/",F,4,"","","","000.2",1000,100,85,5,5.00,"3","8","","","","","",""," ",""
"Z","03","23",2022,5,"090330",41.6730,-70.9602,353,21," "," ","",""," "," "," ",""," ","","","","","",""," "," ","","","","","","","","","","","","","","","","",0,0,"","","/",F,5,"","","","000.0",1000,100,85,5,5.00,"3","8","","","","","",""," ",""
"Z","03","23",2022,6,"090334",41.6730,-70.9602,338,21," "," ","",""," "," "," ",""," ","","","","","",""," "," ","","","","","","","","","","","","","","","","",0,0,"","","/",F,6,"","","","000.4",1000,100,85,5,5.00,"3","8","","","","","",""," ",""
"Z","03","23",2022,7,"090342",41.6730,-70.9602,351,22," "," ","",""," "," "," ",""," ","","","","","",""," "," ","","","","","","","","","","","","","","","","",0,0,"","","/",F,7,"","","","000.1",1000,100,85,5,5.00,"3","8","","","","","",""," ",""
"Z","03","23",2022,8,"090346",41.6730,-70.9602,349,23," "," ","",""," "," "," ",""," ","","","","","",""," "," ","","","","","","","","","","","","","","","","",0,0,"","","/",T,8,"","","","000.1",1000,100,85,5,5.00,"3","8","","","","","",""," ",""
"Z","03","23",2022,9,"090350",41.6730,-70.9602,349,25," "," ","",""," "," "," ",""," ","","","","","",""," "," ","","","","","","","","","","","","","","","","",1,0,"","","/",T,10,"","","","000.1",1000,100,85,5,5.00,"3","8","","","","","",""," ",""
"Z","03","23",2022,10,"090354",41.6730,-70.9602,4,25," "," ","",""," "," "," ",""," ","","","","","",""," "," ","","","","","","","","","","","","","","","","",1,0,"","","/",T,11,"","","","000.1",1000,100,85,5,5.00,"3","8","","","","","",""," ",""
"Z","03","23",2022,11,"090403",41.6730,-70.9602,326,24," "," ","",""," "," "," ",""," ","","","","","",""," "," ","","","","","","","","","","","","","","","","",1,1,"","","/",T,13,"","","","000.4",1000,100,85,5,5.00,"3","8","","","","","",""," ",""
"Z","03","23",2022,12,"090407",41.6730,-70.9602,335,23," "," ","",""," "," "," ",""," ","","","","","",""," "," ","","","","","","","","","","","","","","","","",1,1,"","","/",F,14,"","","","000.1",1000,100,85,5,5.00,"3","8","","","","","",""," ",""
"Z","03","23",2022,13,"090411",41.6730,-70.9602,341,23," "," ","",""," "," "," ",""," ","","","","","",""," "," ","","","","","","","","","","","","","","","","",1,1,"","","/",F,15,"","","","000.2",1000,100,85,5,5.00,"3","8","","","","","",""," ",""
"Z","03","23",2022,14,"090415",41.6730,-70.9602,333,23," "," ","",""," "," "," ",""," ","","","","","",""," "," ","","","","","","","","","","","","","","","","",1,1,"","","/",F,16,"","","","000.3",1000,100,85,5,5.00,"3","8","","","","","",""," ",""
"Z","03","23",2022,15,"090419",41.6730,-70.9602,336,24," "," ","",""," "," "," ",""," ","","","","","",""," "," ","","","","","","","","","","","","","","","","",1,1,"","","/",F,17,"","","","000.0",1000,100,85,5,5.00,"3","9","","","","","",""," ",""
"Z","03","23",2022,16,"090427",41.6730,-70.9602,340,25," "," ","",""," "," "," ",""," ","","","","","",""," "," ","","","","","","","","","","","","","","","","",1,1,"","","/",F,18,"","","","000.6",1000,100,85,5,5.00,"3","9","","","","","",""," ",""
"Z","03","23",2022,17,"090431",41.6730,-70.9602,339,24," "," ","",""," "," "," ",""," ","","","","","",""," "," ","","","","","","","","","","","","","","","","",1,1,"","","/",F,19,"","","","000.2",1000,100,85,5,5.00,"3","9","","","","","",""," ",""
"Z","03","23",2022,18,"090435",41.6730,-70.9602,310,23," "," ","",""," "," "," ",""," ","","","","","",""," "," ","","","","","","","","","","","","","","","","",1,1,"","","/",F,20,"","","","000.2",1000,100,85,5,5.00,"3","10","","","","","",""," ",""
"Z","03","23",2022,19,"090440",41.6730,-70.9602,325,23," "," ","",""," "," "," ",""," ","","","","","",""," "," ","","","","","","","","","","","","","","","","",1,1,"","","/",F,21,"","","","000.5",1000,100,85,5,5.00,"3","10","","","","","",""," ",""
"Z","03","23",2022,20,"090448",41.6730,-70.9602,341,24," "," ","",""," "," "," ",""," ","","","","","",""," "," ","","","","","","","","","","","","","","","","",1,1,"","","/",F,22,"","","","000.0",1000,100,85,5,5.00,"3","10","","","","","",""," ",""
"Z","03","23",2022,21,"090452",41.6730,-70.9602,331,25," "," ","",""," "," "," ",""," ","","","","","",""," "," ","","","","","","","","","","","","","","","","",1,1,"","","/",F,23,"","","","000.0",1000,100,85,5,5.00,"3","10","","","","","",""," ",""
"Z","03","23",2022,22,"090456",41.6730,-70.9602,348,26," "," ","",""," "," "," ",""," ","","","","","",""," "," ","","","","","","","","","","","","","","","","",1,1,"","","/",F,24,"","","","000.2",1000,100,85,5,5.00,"3","10","","","","","",""," ",""
"Z","03","23",2022,23,"090500",41.6730,-70.9602,0,26," "," ","",""," "," "," ",""," ","","","","","",""," "," ","","","","","","","","","","","","","","","","",1,1,"","","/",F,25,"","","","000.0",1000,100,85,5,5.00,"3","10","","","","","",""," ",""
"Z","03","23",2022,24,"090504",41.6730,-70.9602,343,26," "," ","",""," "," "," ",""," ","","","","","",""," "," ","","","","","","","","","","","","","","","","",1,1,"","","/",F,26,"","","","000.1",1000,100,85,5,5.00,"3","10","","","","","",""," ",""
"Z","03","23",2022,25,"090512",41.6730,-70.9602,349,26," "," ","",""," "," "," ",""," ","","","","","",""," "," ","","","","","","","","","","","","","","","","",1,1,"","","/",F,27,"","","","000.1",1000,100,85,5,5.00,"3","10","","","","","",""," ",""
"Z","03","23",2022,26,"090516",41.6730,-70.9602,356,26," "," ","",""," "," "," ",""," ","","","","","",""," "," ","","","","","","","","","","","","","","","","",1,1,"","","/",F,28,"","","","000.3",1000,100,85,5,5.00,"3","10","","","","","",""," ",""
"Z","03","23",2022,27,"090521",41.6730,-70.9602,351,25," "," ","",""," "," "," ",""," ","","","","","",""," "," ","","","","","","","","","","","","","","","","",1,1,"","","/",F,29,"","","","000.3",1000,100,85,5,5.00,"3","9","","","","","",""," ",""
"Z","03","23",2022,28,"090525",41.6730,-70.9602,356,28," "," ","",""," "," "," ",""," ","","","","","",""," "," ","","","","","","","","","","","","","","","","",1,1,"","","/",F,30,"","","","000.4",1000,100,85,5,5.00,"3","10","","","","","",""," ",""
"Z","03","23",2022,29,"090533",41.6730,-70.9602,339,25," "," ","",""," "," "," ",""," ","","","","","",""," "," ","","","","","","","","","","","","","","","","",1,1,"","","/",F,31,"","","","000.1",1000,100,85,5,5.00,"3","10","","","","","",""," ",""
"Z","03","23",2022,30,"090537",41.6730,-70.9602,329,25," "," ","",""," "," "," ",""," ","","","","","",""," "," ","","","","","","","","","","","","","","","","",1,1,"","","/",F,32,"","","","000.1",1000,100,85,5,5.00,"3","10","","","","","",""," ",""
"Z","03","23",2022,31,"090541",41.6730,-70.9602,326,24," "," ","",""," "," "," ",""," ","","","","","",""," "," ","","","","","","","","","","","","","","","","",1,1,"","","/",F,33,"","","","000.1",1000,100,85,5,5.00,"3","10","","","","","",""," ",""
"Z","03","23",2022,32,"090545",41.6730,-70.9602,328,23," "," ","",""," "," "," ",""," ","","","","","",""," "," ","","","","","","","","","","","","","","","","",1,1,"","","/",F,34,"","","","000.0",1000,100,85,5,5.00,"3","10","","","","","",""," ",""
"Z","03","23",2022,33,"090549",41.6730,-70.9602,323,23," "," ","",""," "," "," ",""," ","","","","","",""," "," ","","","","","","","","","","","","","","","","",1,1,"","","/",F,35,"","","","000.3",1000,100,85,5,5.00,"3","9","","","","","",""," ",""
"Z","03","23",2022,34,"090558",41.6730,-70.9602,0,23," "," ","",""," "," "," ",""," ","","","","","",""," "," ","","","","","","","","","","","","","","","","",1,1,"","","/",F,36,"","","","000.2",1000,100,85,5,5.00,"3","10","","","","","",""," ",""
"Z","03","23",2022,35,"090602",41.6730,-70.9602,358,23," "," ","",""," "," "," ",""," ","","","","","",""," "," ","","","","","","","","","","","","","","","","",1,1,"","","/",F,37,"","","","000.0",1000,100,85,5,5.00,"3","9","","","","","",""," ",""
"Z","03","23",2022,36,"090606",41.6730,-70.9602,2,23," "," ","",""," "," "," ",""," ","","","","","",""," "," ","","","","","","","","","","","","","","","","",1,1,"","","/",F,38,"","","","000.0",1000,100,85,5,5.00,"3","10","","","","","",""," ",""
"Z","03","23",2022,37,"090610",41.6730,-70.9602,359,23," "," ","",""," "," "," ",""," ","","","","","",""," "," ","","","","","","","","","","","","","","","","",1,1,"","","/",F,39,"","","","000.2",1000,100,85,5,5.00,"3","10","","","","","",""," ",""
"Z","03","23",2022,38,"090618",41.6730,-70.9602,7,25," "," ","",""," "," "," ",""," ","","","","","",""," "," ","","","","","","","","","","","","","","","","",1,1,"","","/",F,40,"","","","000.1",1000,100,85,5,5.00,"3","10","","","","","",""," ",""
"Z","03","23",2022,39,"090622",41.6730,-70.9602,18,26," "," ","",""," "," "," ",""," ","","","","","",""," "," ","","","","","","","","","","","","","","","","",1,1,"","","/",F,41,"","","","000.2",1000,100,85,5,5.00,"3","10","","","","","",""," ",""
"Z","03","23",2022,40,"090626",41.6730,-70.9602,9,25," "," ","",""," "," "," ",""," ","","","","","",""," "," ","","","","","","","","","","","","","","","","",1,1,"","","/",F,42,"","","","000.1",1000,100,85,5,5.00,"3","10","","","","","",""," ",""
"Z","03","23",2022,41,"090630",41.6730,-70.9602,2,25," "," ","",""," "," "," ",""," ","","","","","",""," "," ","","","","","","","","","","","","","","","","",1,1,"","","/",F,43,"","","","000.1",1000,100,85,5,5.00,"3","10","","","","","",""," ",""
"Z","03","23",2022,42,"090638",41.6730,-70.9602,353,23," "," ","",""," "," "," ",""," ","","","","","",""," "," ","","","","","","","","","","","","","","","","",1,1,"","","/",F,44,"","","","000.0",1000,100,85,5,5.00,"3","10","","","","","",""," ",""
"Z","03","23",2022,43,"090643",41.6730,-70.9602,5,23," "," ","",""," "," "," ",""," ","","","","","",""," "," ","","","","","","","","","","","","","","","","",1,1,"","","/",F,45,"","","","000.2",1000,100,85,5,5.00,"3","10","","","","","",""," ",""
"Z","03","23",2022,44,"090647",41.6730,-70.9602,341,22," "," ","",""," "," "," ",""," ","","","","","",""," "," ","","","","","","","","","","","","","","","","",1,1,"","","/",F,46,"","","","000.4",1000,100,85,5,5.00,"3","9","","","","","",""," ",""
"Z","03","23",2022,45,"090651",41.6730,-70.9602,355,22," "," ","",""," "," "," ",""," ","","","","","",""," "," ","","","","","","","","","","","","","","","","",1,1,"","","/",F,47,"","","","000.4",1000,100,85,5,5.00,"3","9","","","","","",""," ",""
"Z","03","23",2022,46,"090655",41.6730,-70.9602,36,22," "," ","",""," "," "," ",""," ","","","","","",""," "," ","","","","","","","","","","","","","","","","",1,1,"","","/",F,48,"","","","000.1",1000,100,85,5,5.00,"3","10","","","","","",""," ",""
"Z","03","23",2022,47,"090703",41.6730,-70.9602,18,24," "," ","",""," "," "," ",""," ","","","","","",""," "," ","","","","","","","","","","","","","","","","",1,1,"","","/",F,49,"","","","000.2",1000,100,85,5,5.00,"3","10","","","","","",""," ",""
"Z","03","23",2022,48,"090707",41.6730,-70.9602,15,23," "," ","",""," "," "," ",""," ","","","","","",""," "," ","","","","","","","","","","","","","","","","",1,1,"","","/",F,50,"","","","000.4",1000,100,85,5,5.00,"3","10","","","","","",""," ",""
"Z","03","23",2022,49,"090711",41.6730,-70.9602,7,24," "," ","",""," "," "," ",""," ","","","","","",""," "," ","","","","","","","","","","","","","","","","",1,1,"","","/",F,51,"","","","000.5",1000,100,85,5,5.00,"3","9","","","","","",""," ",""
"Z","03","23",2022,50,"090715",41.6730,-70.9602,13,25," "," ","",""," "," "," ",""," ","","","","","",""," "," ","","","","","","","","","","","","","","","","",1,1,"","","/",F,52,"","","","000.3",1000,100,85,5,5.00,"3","10","","","","","",""," ",""
"Z","03","23",2022,51,"090724",41.6730,-70.9602,20,23," "," ","",""," "," "," ",""," ","","","","","",""," "," ","","","","","","","","","","","","","","","","",1,1,"","","/",F,53,"","","","000.2",1000,100,85,5,5.00,"3","9","","","","","",""," ",""
"Z","03","23",2022,52,"090728",41.6730,-70.9602,31,24," "," ","",""," "," "," ",""," ","","","","","",""," "," ","","","","","","","","","","","","","","","","",1,1,"","","/",F,54,"","","","000.1",1000,100,85,5,5.00,"3","9","","","","","",""," ",""
"Z","03","23",2022,53,"090732",41.6730,-70.9602,29,25," "," ","",""," "," "," ",""," ","","","","","",""," "," ","","","","","","","","","","","","","","","","",1,1,"","","/",F,55,"","","","000.5",1000,100,85,5,5.00,"3","10","","","","","",""," ",""
"Z","03","23",2022,54,"090736",41.6730,-70.9602,46,25," "," ","",""," "," "," ",""," ","","","","","",""," "," ","","","","","","","","","","","","","","","","",1,1,"","","/",F,56,"","","","002.0",1000,100,85,5,5.00,"3","10","","","","","",""," ",""
"Z","03","23",2022,55,"090740",41.6731,-70.9601,19,24," "," ","",""," "," "," ",""," ","","","","","",""," "," ","","","","","","","","","","","","","","","","",1,1,"","","/",F,57,"","","","003.8",1000,100,85,5,5.00,"3","10","","","","","",""," ",""
"Z","03","23",2022,56,"090748",41.6733,-70.9601,331,24," "," ","",""," "," "," ",""," ","","","","","",""," "," ","","","","","","","","","","","","","","","","",1,1,"","","/",F,58,"","","","006.1",1000,100,85,5,5.00,"3","10","","","","","",""," ",""
"Z","03","23",2022,57,"090752",41.6733,-70.9602,281,24," "," ","",""," "," "," ",""," ","","","","","",""," "," ","","","","","","","","","","","","","","","","",1,1,"","","/",F,59,"","","","006.3",1000,100,85,5,5.00,"3","10","","","","","",""," ",""
"Z","03","23",2022,58,"090756",41.6733,-70.9604,228,24," "," ","",""," "," "," ",""," ","","","","","",""," "," ","","","","","","","","","","","","","","","","",1,1,"","","/",F,60,"","","","007.0",1000,100,85,5,5.00,"3","10","","","","","",""," ",""
"Z","03","23",2022,59,"090801",41.6732,-70.9605,219,25," "," ","",""," "," "," ",""," ","","","","","",""," "," ","","","","","","","","","","","","","","","","",1,1,"","","/",F,61,"","","","009.0",1000,100,85,5,5.00,"3","10","","","","","",""," ",""
"Z","03","23",2022,60,"090809",41.6729,-70.9609,219,25," "," ","",""," "," "," ",""," ","","","","","",""," "," ","","","","","","","","","","","","","","","","",1,1,"","","/",F,62,"","","","012.0",1000,100,85,5,5.00,"3","10","","","","","",""," ",""
"Z","03","23",2022,61,"090813",41.6727,-70.9611,216,25," "," ","",""," "," "," ",""," ","","","","","",""," "," ","","","","","","","","","","","","","","","","",1,1,"","","/",F,63,"","","","013.0",1000,100,85,5,5.00,"3","10","","","","","",""," ",""
"Z","03","23",2022,62,"090817",41.6725,-70.9613,219,25," "," ","",""," "," "," ",""," ","","","","","",""," "," ","","","","","","","","","","","","","","","","",1,1,"","","/",F,64,"","","","014.4",1000,100,85,5,5.00,"3","10","","","","","",""," ",""
"Z","03","23",2022,63,"090821",41.6723,-70.9615,218,24," "," ","",""," "," "," ",""," ","","","","","",""," "," ","","","","","","","","","","","","","","","","",1,1,"","","/",F,65,"","","","014.9",1000,100,85,5,5.00,"3","10","","","","","",""," ",""
"Z","03","23",2022,64,"090825",41.6720,-70.9617,216,24," "," ","",""," "," "," ",""," ","","","","","",""," "," ","","","","","","","","","","","","","","","","",1,1,"","","/",F,66,"","","","015.1",1000,100,85,5,5.00,"3","10","","","","","",""," ",""
"Z","03","23",2022,65,"090833",41.6716,-70.9622,218,25," "," ","",""," "," "," ",""," ","","","","","",""," "," ","","","","","","","","","","","","","","","","",1,1,"","","/",F,67,"","","","015.4",1000,100,85,5,5.00,"3","10","","","","","",""," ",""
"Z","03","23",2022,66,"090837",41.6713,-70.9625,229,24," "," ","",""," "," "," ",""," ","","","","","",""," "," ","","","","","","","","","","","","","","","","",1,1,"","","/",F,68,"","","","014.4",1000,100,85,5,5.00,"3","10","","","","","",""," ",""
"Z","03","23",2022,67,"090842",41.6712,-70.9628,248,24," "," ","",""," "," "," ",""," ","","","","","",""," "," ","","","","","","","","","","","","","","","","",1,1,"","","/",F,69,"","","","013.8",1000,100,85,5,5.00,"3","10","","","","","",""," ",""
"Z","03","23",2022,68,"090846",41.6711,-70.9631,248,24," "," ","",""," "," "," ",""," ","","","","","",""," "," ","","","","","","","","","","","","","","","","",1,1,"","","/",F,70,"","","","014.2",1000,100,85,5,5.00,"3","10","","","","","",""," ",""
"Z","03","23",2022,69,"090854",41.6709,-70.9638,246,24," "," ","",""," "," "," ",""," ","","","","","",""," "," ","","","","","","","","","","","","","","","","",1,1,"","","/",F,71,"","","","011.3",1000,100,85,5,5.00,"3","10","","","","","",""," ",""
"Z","03","23",2022,70,"090858",41.6709,-70.9640,253,23," "," ","",""," "," "," ",""," ","","","","","",""," "," ","","","","","","","","","","","","","","","","",1,1,"","","/",F,72,"","","","008.2",1000,100,85,5,5.00,"3","10","","","","","",""," ",""
"Z","03","23",2022,71,"090902",41.6709,-70.9641,308,23," "," ","",""," "," "," ",""," ","","","","","",""," "," ","","","","","","","","","","","","","","","","",1,1,"","","/",F,73,"","","","000.1",1000,100,85,5,5.00,"3","10","","","","","",""," ",""
"Z","03","23",2022,72,"090906",41.6709,-70.9641,316,24," "," ","",""," "," "," ",""," ","","","","","",""," "," ","","","","","","","","","","","","","","","","",1,1,"","","/",F,74,"","","","000.3",1000,100,85,5,5.00,"3","10","","","","","",""," ",""
"Z","03","23",2022,73,"090910",41.6709,-70.9641,324,24," "," ","",""," "," "," ",""," ","","","","","",""," "," ","","","","","","","","","","","","","","","","",1,1,"","","/",F,75,"","","","000.3",1000,100,85,5,5.00,"3","10","","","","","",""," ",""
"Z","03","23",2022,74,"090918",41.6709,-70.9641,248,24," "," ","",""," "," "," ",""," ","","","","","",""," "," ","","","","","","","","","","","","","","","","",1,1,"","","/",F,76,"","","","000.0",1000,100,85,5,5.00,"3","10","","","","","",""," ",""
"Z","03","23",2022,75,"090923",41.6709,-70.9641,200,24," "," ","",""," "," "," ",""," ","","","","","",""," "," ","","","","","","","","","","","","","","","","",1,1,"","","/",F,77,"","","","000.3",1000,100,85,5,5.00,"3","10","","","","","",""," ",""
"Z","03","23",2022,76,"090927",41.6709,-70.9641,203,24," "," ","",""," "," "," ",""," ","","","","","",""," "," ","","","","","","","","","","","","","","","","",1,1,"","","/",F,78,"","","","000.3",1000,100,85,5,5.00,"3","10","","","","","",""," ",""
"Z","03","23",2022,77,"090931",41.6709,-70.9641,186,24," "," ","",""," "," "," ",""," ","","","","","",""," "," ","","","","","","","","","","","","","","","","",1,1,"","","/",F,79,"","","","000.1",1000,100,85,5,5.00,"3","9","","","","","",""," ",""
"Z","03","23",2022,78,"090939",41.6709,-70.9641,191,24," "," ","",""," "," "," ",""," ","","","","","",""," "," ","","","","","","","","","","","","","","","","",1,1,"","","/",F,80,"","","","000.4",1000,100,85,5,5.00,"3","10","","","","","",""," ",""
"Z","03","23",2022,79,"090943",41.6709,-70.9641,172,24," "," ","",""," "," "," ",""," ","","","","","",""," "," ","","","","","","","","","","","","","","","","",1,1,"","","/",F,81,"","","","000.1",1000,100,85,5,5.00,"3","10","","","","","",""," ",""
"Z","03","23",2022,80,"090947",41.6709,-70.9641,159,24," "," ","",""," "," "," ",""," ","","","","","",""," "," ","","","","","","","","","","","","","","","","",1,1,"","","/",F,82,"","","","000.1",1000,100,85,5,5.00,"3","10","","","","","",""," ",""
"Z","03","23",2022,81,"090951",41.6709,-70.9641,175,25," "," ","",""," "," "," ",""," ","","","","","",""," "," ","","","","","","","","","","","","","","","","",1,1,"","","/",F,83,"","","","000.1",1000,100,85,5,5.00,"3","10","","","","","",""," ",""
"Z","03","23",2022,82,"090955",41.6709,-70.9641,167,25," "," ","",""," "," "," ",""," ","","","","","",""," "," ","","","","","","","","","","","","","","","","",1,1,"","","/",F,84,"","","","000.0",1000,100,85,5,5.00,"3","10","","","","","",""," ",""
"Z","03","23",2022,83,"091004",41.6709,-70.9641,186,24," "," ","",""," "," "," ",""," ","","","","","",""," "," ","","","","","","","","","","","","","","","","",1,1,"","","/",F,85,"","","","000.3",1000,100,85,5,5.00,"3","10","","","","","",""," ",""
"Z","03","23",2022,84,"091008",41.6709,-70.9641,176,24," "," ","",""," "," "," ",""," ","","","","","",""," "," ","","","","","","","","","","","","","","","","",1,1,"","","/",F,86,"","","","000.2",1000,100,85,5,5.00,"3","10","","","","","",""," ",""
"Z","03","23",2022,85,"091012",41.6709,-70.9641,162,24," "," ","",""," "," "," ",""," ","","","","","",""," "," ","","","","","","","","","","","","","","","","",1,1,"","","/",F,87,"","","","000.3",1000,100,85,5,5.00,"3","10","","","","","",""," ",""
"Z","03","23",2022,86,"091016",41.6709,-70.9641,171,24," "," ","",""," "," "," ",""," ","","","","","",""," "," ","","","","","","","","","","","","","","","","",1,1,"","","/",F,88,"","","","000.3",1000,100,85,5,5.00,"3","10","","","","","",""," ",""
"Z","03","23",2022,87,"091024",41.6709,-70.9641,158,24," "," ","",""," "," "," ",""," ","","","","","",""," "," ","","","","","","","","","","","","","","","","",1,1,"","","/",F,89,"","","","000.2",1000,100,85,5,5.00,"3","10","","","","","",""," ",""
"Z","03","23",2022,88,"091028",41.6709,-70.9641,174,24," "," ","",""," "," "," ",""," ","","","","","",""," "," ","","","","","","","","","","","","","","","","",1,1,"","","/",F,90,"","","","000.3",1000,100,85,5,5.00,"3","10","","","","","",""," ",""
"Z","03","23",2022,89,"091032",41.6709,-70.9641,166,24," "," ","",""," "," "," ",""," ","","","","","",""," "," ","","","","","","","","","","","","","","","","",1,1,"","","/",F,91,"","","","000.2",1000,100,85,5,5.00,"3","10","","","","","",""," ",""
"Z","03","23",2022,90,"091036",41.6709,-70.9641,142,24," "," ","",""," "," "," ",""," ","","","","","",""," "," ","","","","","","","","","","","","","","","","",1,1,"","","/",F,92,"","","","000.4",1000,100,85,5,5.00,"3","10","","","","","",""," ",""
"Z","03","23",2022,91,"091040",41.6709,-70.9641,162,24," "," ","",""," "," "," ",""," ","","","","","",""," "," ","","","","","","","","","","","","","","","","",1,1,"","","/",F,93,"","","","000.3",1000,100,85,5,5.00,"3","10","","","","","",""," ",""
"Z","03","23",2022,92,"091049",41.6709,-70.9641,134,24," "," ","",""," "," "," ",""," ","","","","","",""," "," ","","","","","","","","","","","","","","","","",1,1,"","","/",F,94,"","","","000.3",1000,100,85,5,5.00,"3","10","","","","","",""," ",""
"Z","03","23",2022,93,"091053",41.6709,-70.9641,182,24," "," ","",""," "," "," ",""," ","","","","","",""," "," ","","","","","","","","","","","","","","","","",1,1,"","","/",F,95,"","","","000.5",1000,100,85,5,5.00,"3","10","","","","","",""," ",""
"Z","03","23",2022,94,"091057",41.6709,-70.9641,191,24," "," ","",""," "," "," ",""," ","","","","","",""," "," ","","","","","","","","","","","","","","","","",1,1,"","","/",F,96,"","","","000.4",1000,100,85,5,5.00,"3","10","","","","","",""," ",""
"Z","03","23",2022,95,"091101",41.6709,-70.9641,179,25," "," ","",""," "," "," ",""," ","","","","","",""," "," ","","","","","","","","","","","","","","","","",1,1,"","","/",F,97,"","","","000.2",1000,100,85,5,5.00,"3","10","","","","","",""," ",""
"Z","03","23",2022,96,"091109",41.6709,-70.9641,175,24," "," ","",""," "," "," ",""," ","","","","","",""," "," ","","","","","","","","","","","","","","","","",1,1,"","","/",F,98,"","","","000.1",1000,100,85,5,5.00,"3","10","","","","","",""," ",""
"Z","03","23",2022,97,"091113",41.6709,-70.9641,159,24," "," ","",""," "," "," ",""," ","","","","","",""," "," ","","","","","","","","","","","","","","","","",1,1,"","","/",F,99,"","","","000.1",1000,100,85,5,5.00,"3","10","","","","","",""," ",""
"Z","03","23",2022,98,"091117",41.6709,-70.9641,175,24," "," ","",""," "," "," ",""," ","","","","","",""," "," ","","","","","","","","","","","","","","","","",1,1,"","","/",F,100,"","","","000.2",1000,100,85,5,5.00,"3","10","","","","","",""," ",""
"Z","03","23",2022,99,"091121",41.6709,-70.9640,129,24," "," ","",""," "," "," ",""," ","","","","","",""," "," ","","","","","","","","","","","","","","","","",1,1,"","","/",F,101,"","","","000.4",1000,100,85,5,5.00,"3","10","","","","","",""," ",""
"Z","03","23",2022,100,"091126",41.6709,-70.9640,108,25," "," ","",""," "," "," ",""," ","","","","","",""," "," ","","","","","","","","","","","","","","","","",1,1,"","","/",F,102,"","","","000.0",1000,100,85,5,5.00,"3","9","","","","","",""," ",""
"Z","03","23",2022,101,"091134",41.6709,-70.9640,135,26," "," ","",""," "," "," ",""," ","","","","","",""," "," ","","","","","","","","","","","","","","","","",1,1,"","","/",F,103,"","","","000.0",1000,100,85,5,5.00,"3","10","","","","","",""," ",""
"Z","03","23",2022,102,"091138",41.6709,-70.9640,140,26," "," ","",""," "," "," ",""," ","","","","","",""," "," ","","","","","","","","","","","","","","","","",1,1,"","","/",F,104,"","","","000.1",1000,100,85,5,5.00,"3","10","","","","","",""," ",""
"Z","03","23",2022,103,"091142",41.6709,-70.9640,154,27," "," ","",""," "," "," ",""," ","","","","","",""," "," ","","","","","","","","","","","","","","","","",1,1,"","","/",F,105,"","","","000.1",1000,100,85,5,5.00,"3","10","","","","","",""," ",""
"Z","03","23",2022,104,"091146",41.6709,-70.9640,224,26," "," ","",""," "," "," ",""," ","","","","","",""," "," ","","","","","","","","","","","","","","","","",1,1,"","","/",F,106,"","","","000.3",1000,100,85,5,5.00,"3","10","","","","","",""," ",""
"Z","03","23",2022,105,"091154",41.6709,-70.9640,297,28," "," ","",""," "," "," ",""," ","","","","","",""," "," ","","","","","","","","","","","","","","","","",1,1,"","","/",F,107,"","","","000.3",1000,100,85,5,5.00,"3","9","","","","","",""," ",""
"Z","03","23",2022,106,"091158",41.6709,-70.9640,300,27," "," ","",""," "," "," ",""," ","","","","","",""," "," ","","","","","","","","","","","","","","","","",1,1,"","","/",F,108,"","","","000.2",1000,100,85,5,5.00,"3","9","","","","","",""," ",""
"Z","03","23",2022,107,"091202",41.6709,-70.9640,286,28," "," ","",""," "," "," ",""," ","","","","","",""," "," ","","","","","","","","","","","","","","","","",1,1,"","","/",F,109,"","","","000.1",1000,100,85,5,5.00,"3","9","","","","","",""," ",""
"Z","03","23",2022,108,"091207",41.6709,-70.9640,292,27," "," ","",""," "," "," ",""," ","","","","","",""," "," ","","","","","","","","","","","","","","","","",1,1,"","","/",F,110,"","","","000.2",1000,100,85,5,5.00,"3","10","","","","","",""," ",""
"Z","03","23",2022,109,"091211",41.6709,-70.9640,289,27," "," ","",""," "," "," ",""," ","","","","","",""," "," ","","","","","","","","","","","","","","","","",1,1,"","","/",F,111,"","","","000.1",1000,100,85,5,5.00,"3","10","","","","","",""," ",""
"Z","03","23",2022,110,"091219",41.6709,-70.9640,260,27," "," ","",""," "," "," ",""," ","","","","","",""," "," ","","","","","","","","","","","","","","","","",1,1,"","","/",F,112,"","","","000.2",1000,100,85,5,5.00,"3","9","","","","","",""," ",""
"Z","03","23",2022,111,"091223",41.6709,-70.9640,272,26," "," ","",""," "," "," ",""," ","","","","","",""," "," ","","","","","","","","","","","","","","","","",1,1,"","","/",F,113,"","","","000.1",1000,100,85,5,5.00,"3","10","","","","","",""," ",""
"Z","03","23",2022,112,"091227",41.6709,-70.9640,280,27," "," ","",""," "," "," ",""," ","","","","","",""," "," ","","","","","","","","","","","","","","","","",1,1,"","","/",F,114,"","","","000.1",1000,100,85,5,5.00,"3","10","","","","","",""," ",""
"Z","03","23",2022,113,"091231",41.6709,-70.9640,305,27," "," ","",""," "," "," ",""," ","","","","","",""," "," ","","","","","","","","","","","","","","","","",1,1,"","","/",F,115,"","","","000.1",1000,100,85,5,5.00,"3","10","","","","","",""," ",""
"Z","03","23",2022,114,"091239",41.6709,-70.9640,311,27," "," ","",""," "," "," ",""," ","","","","","",""," "," ","","","","","","","","","","","","","","","","",1,1,"","","/",F,116,"","","","000.1",1000,100,85,5,5.00,"3","10","","","","","",""," ",""
"Z","03","23",2022,115,"091244",41.6709,-70.9640,313,27," "," ","",""," "," "," ",""," ","","","","","",""," "," ","","","","","","","","","","","","","","","","",1,1,"","","/",F,117,"","","","000.0",1000,100,85,5,5.00,"3","10","","","","","",""," ",""
"Z","03","23",2022,116,"091248",41.6709,-70.9640,313,27," "," ","",""," "," "," ",""," ","","","","","",""," "," ","","","","","","","","","","","","","","","","",1,1,"","","/",F,118,"","","","000.2",1000,100,85,5,5.00,"3","10","","","","","",""," ",""
"Z","03","23",2022,117,"091252",41.6709,-70.9641,306,26," "," ","",""," "," "," ",""," ","","","","","",""," "," ","","","","","","","","","","","","","","","","",1,1,"","","/",F,119,"","","","001.6",1000,100,85,5,5.00,"3","10","","","","","",""," ",""
"Z","03","23",2022,118,"091256",41.6709,-70.9641,286,26," "," ","",""," "," "," ",""," ","","","","","",""," "," ","","","","","","","","","","","","","","","","",1,1,"","","/",F,120,"","","","003.1",1000,100,85,5,5.00,"3","9","","","","","",""," ",""
"Z","03","23",2022,119,"091304",41.6710,-70.9644,300,26," "," ","",""," "," "," ",""," ","","","","","",""," "," ","","","","","","","","","","","","","","","","",1,1,"","","/",F,121,"","","","007.3",1000,100,85,5,5.00,"3","9","","","","","",""," ",""
"Z","03","23",2022,120,"091308",41.6711,-70.9645,305,26," "," ","",""," "," "," ",""," ","","","","","",""," "," ","","","","","","","","","","","","","","","","",1,1,"","","/",F,122,"","","","008.9",1000,100,85,5,5.00,"3","9","","","","","",""," ",""
"Z","03","23",2022,121,"091312",41.6712,-70.9647,330,26," "," ","",""," "," "," ",""," ","","","","","",""," "," ","","","","","","","","","","","","","","","","",1,1,"","","/",F,123,"","","","010.2",1000,100,85,5,5.00,"3","9","","","","","",""," ",""
"Z","03","23",2022,122,"091316",41.6714,-70.9647,12,26," "," ","",""," "," "," ",""," ","","","","","",""," "," ","","","","","","","","","","","","","","","","",1,1,"","","/",F,124,"","","","011.0",1000,100,85,5,5.00,"3","10","","","","","",""," ",""
"Z","03","23",2022,123,"091324",41.6719,-70.9643,39,25," "," ","",""," "," "," ",""," ","","","","","",""," "," ","","","","","","","","","","","","","","","","",1,1,"","","/",F,125,"","","","025.7",1000,100,85,5,5.00,"3","10","","","","","",""," ",""
"Z","03","23",2022,124,"091329",41.6725,-70.9637,37,25," "," ","",""," "," "," ",""," ","","","","","",""," "," ","","","","","","","","","","","","","","","","",1,1,"","","/",F,126,"","","","044.2",1000,100,85,5,5.00,"3","10","","","","","",""," ",""
"Z","03","23",2022,125,"091333",41.6732,-70.9630,38,25," "," ","",""," "," "," ",""," ","","","","","",""," "," ","","","","","","","","","","","","","","","","",1,1,"","","/",F,127,"","","","057.4",1000,100,85,5,5.00,"3","10","","","","","",""," ",""
"Z","03","23",2022,126,"091337",41.6742,-70.9619,38,25," "," ","",""," "," "," ",""," ","","","","","",""," "," ","","","","","","","","","","","","","","","","",1,1,"","","/",F,128,"","","","071.1",1000,100,85,5,5.00,"3","10","","","","","",""," ",""
"Z","03","23",2022,127,"091341",41.6753,-70.9607,38,28," "," ","",""," "," "," ",""," ","","","","","",""," "," ","","","","","","","","","","","","","","","","",1,1,"","","/",F,129,"","","","080.3",1000,100,85,5,5.00,"3","10","","","","","",""," ",""
"Z","03","23",2022,128,"091349",41.6778,-70.9581,38,59," "," ","",""," "," "," ",""," ","","","","","",""," "," ","","","","","","","","","","","","","","","","",1,1,"","","/",F,130,"","","","083.8",1000,100,85,5,5.00,"3","9","","","","","",""," ",""
"Z","03","23",2022,129,"091353",41.6791,-70.9567,38,76," "," ","",""," "," "," ",""," ","","","","","",""," "," ","","","","","","","","","","","","","","","","",1,1,"","","/",F,131,"","","","084.8",1000,100,85,5,5.00,"3","10","","","","","",""," ",""
"Z","03","23",2022,130,"091357",41.6804,-70.9554,38,92," "," ","",""," "," "," ",""," ","","","","","",""," "," ","","","","","","","","","","","","","","","","",1,1,"","","/",F,132,"","","","086.1",1000,100,85,5,5.00,"3","9","","","","","",""," ",""
"Z","03","23",2022,131,"091401",41.6817,-70.9540,38,111," "," ","",""," "," "," ",""," ","","","","","",""," "," ","","","","","","","","","","","","","","","","",1,1,"","","/",F,133,"","","","086.7",1000,100,85,5,5.00,"3","9","","","","","",""," ",""
"Z","03","23",2022,132,"091410",41.6842,-70.9514,37,149," "," ","",""," "," "," ",""," ","","","","","",""," "," ","","","","","","","","","","","","","","","","",1,1,"","","/",F,134,"","","","089.7",1000,100,85,5,5.00,"3","9","","","","","",""," ",""
"Z","03","23",2022,133,"091414",41.6857,-70.9498,38,168," "," ","",""," "," "," ",""," ","","","","","",""," "," ","","","","","","","","","","","","","","","","",1,1,"","","/",F,135,"","","","093.3",1000,100,85,5,5.00,"3","9","","","","","",""," ",""
"Z","03","23",2022,134,"091418",41.6869,-70.9486,36,186," "," ","",""," "," "," ",""," ","","","","","",""," "," ","","","","","","","","","","","","","","","","",1,1,"","","/",F,136,"","","","093.8",1000,100,85,5,5.00,"3","9","","","","","",""," ",""
"Z","03","23",2022,135,"091422",41.6885,-70.9469,39,211," "," ","",""," "," "," ",""," ","","","","","",""," "," ","","","","","","","","","","","","","","","","",1,1,"","","/",F,137,"","","","093.0",1000,100,85,5,5.00,"3","9","","","","","",""," ",""
"Z","03","23",2022,136,"091426",41.6897,-70.9453,51,230," "," ","",""," "," "," ",""," ","","","","","",""," "," ","","","","","","","","","","","","","","","","",1,1,"","","/",F,138,"","","","094.0",1000,100,85,5,5.00,"3","10","","","","","",""," ",""
"Z","03","23",2022,137,"091434",41.6911,-70.9407,83,258," "," ","",""," "," "," ",""," ","","","","","",""," "," ","","","","","","","","","","","","","","","","",1,1,"","","/",F,139,"","","","101.9",1000,100,85,5,5.00,"3","9","","","","","",""," ",""
"Z","03","23",2022,138,"091438",41.6910,-70.9381,100,271," "," ","",""," "," "," ",""," ","","","","","",""," "," ","","","","","","","","","","","","","","","","",1,1,"","","/",F,140,"","","","106.4",1000,100,85,5,5.00,"3","10","","","","","",""," ",""
"Z","03","23",2022,139,"091442",41.6904,-70.9356,109,288," "," ","",""," "," "," ",""," ","","","","","",""," "," ","","","","","","","","","","","","","","","","",1,1,"","","/",F,141,"","","","107.8",1000,100,85,5,5.00,"3","10","","","","","",""," ",""
"Z","03","23",2022,140,"091447",41.6897,-70.9331,114,308," "," ","",""," "," "," ",""," ","","","","","",""," "," ","","","","","","","","","","","","","","","","",1,1,"","","/",F,142,"","","","110.0",1000,100,85,5,5.00,"3","10","","","","","",""," ",""
"Z","03","23",2022,141,"091455",41.6879,-70.9289,121,337," "," ","",""," "," "," ",""," ","","","","","",""," "," ","","","","","","","","","","","","","","","","",1,1,"","","/",F,143,"","","","110.9",1000,100,85,5,5.00,"3","10","","","","","",""," ",""
"Z","03","23",2022,142,"091459",41.6864,-70.9257,124,356," "," ","",""," "," "," ",""," ","","","","","",""," "," ","","","","","","","","","","","","","","","","",1,1,"","","/",F,144,"","","","113.3",1000,100,85,5,5.00,"3","10","","","","","",""," ",""
"Z","03","23",2022,143,"091503",41.6852,-70.9235,124,352," "," ","",""," "," "," ",""," ","","","","","",""," "," ","","","","","","","","","","","","","","","","",1,1,"","","/",F,145,"","","","119.8",1000,100,85,5,5.00,"3","10","","","","","",""," ",""
"Z","03","23",2022,144,"091507",41.6837,-70.9208,126,349," "," ","",""," "," "," ",""," ","","","","","",""," "," ","","","","","","","","","","","","","","","","",1,1,"","","/",F,146,"","","","123.6",1000,100,85,5,5.00,"3","10","","","","","",""," ",""
"Z","03","23",2022,145,"091511",41.6824,-70.9183,126,350," "," ","",""," "," "," ",""," ","","","","","",""," "," ","","","","","","","","","","","","","","","","",1,1,"","","/",F,147,"","","","126.5",1000,100,85,5,5.00,"3","10","","","","","",""," ",""
"Z","03","23",2022,146,"091519",41.6793,-70.9131,129,354," "," ","",""," "," "," ",""," ","","","","","",""," "," ","","","","","","","","","","","","","","","","",1,1,"","","/",F,148,"","","","131.8",1000,100,85,5,5.00,"3","10","","","","","",""," ",""
"Z","03","23",2022,147,"091523",41.6777,-70.9104,129,349," "," ","",""," "," "," ",""," ","","","","","",""," "," ","","","","","","","","","","","","","","","","",1,1,"","","/",F,149,"","","","134.7",1000,100,85,5,5.00,"3","10","","","","","",""," ",""
"Z","03","23",2022,148,"091528",41.6761,-70.9078,129,339," "," ","",""," "," "," ",""," ","","","","","",""," "," ","","","","","","","","","","","","","","","","",1,1,"","","/",F,150,"","","","136.2",1000,100,85,5,5.00,"3","10","","","","","",""," ",""
"Z","03","23",2022,149,"091532",41.6744,-70.9052,129,333," "," ","",""," "," "," ",""," ","","","","","",""," "," ","","","","","","","","","","","","","","","","",1,1,"","","/",F,151,"","","","137.5",1000,100,85,5,5.00,"3","10","","","","","",""," ",""
"Z","03","23",2022,150,"091540",41.6714,-70.9003,129,331," "," ","",""," "," "," ",""," ","","","","","",""," "," ","","","","","","","","","","","","","","","","",1,1,"","","/",F,152,"","","","136.7",1000,100,85,5,5.00,"3","10","","","","","",""," ",""
"Z","03","23",2022,151,"091544",41.6694,-70.8970,129,329," "," ","",""," "," "," ",""," ","","","","","",""," "," ","","","","","","","","","","","","","","","","",1,1,"","","/",F,153,"","","","135.5",1000,100,85,5,5.00,"3","10","","","","","",""," ",""
"Z","03","23",2022,152,"091548",41.6678,-70.8945,130,330," "," ","",""," "," "," ",""," ","","","","","",""," "," ","","","","","","","","","","","","","","","","",1,1,"","","/",F,154,"","","","135.3",1000,100,85,5,5.00,"3","10","","","","","",""," ",""
"Z","03","23",2022,153,"091552",41.6661,-70.8918,131,331," "," ","",""," "," "," ",""," ","","","","","",""," "," ","","","","","","","","","","","","","","","","",1,1,"","","/",F,155,"","","","134.3",1000,100,85,5,5.00,"3","10","","","","","",""," ",""
"Z","03","23",2022,154,"091556",41.6644,-70.8893,130,334," "," ","",""," "," "," ",""," ","","","","","",""," "," ","","","","","","","","","","","","","","","","",1,1,"","","/",F,156,"","","","133.5",1000,100,85,5,5.00,"3","10","","","","","",""," ",""
"Z","03","23",2022,155,"091604",41.6611,-70.8842,131,338," "," ","",""," "," "," ",""," ","","","","","",""," "," ","","","","","","","","","","","","","","","","",1,1,"","","/",F,157,"","","","133.4",1000,100,85,5,5.00,"3","10","","","","","",""," ",""
"Z","03","23",2022,156,"091609",41.6596,-70.8818,131,336," "," ","",""," "," "," ",""," ","","","","","",""," "," ","","","","","","","","","","","","","","","","",1,1,"","","/",F,158,"","","","133.4",1000,100,85,5,5.00,"3","10","","","","","",""," ",""
"Z","03","23",2022,157,"091613",41.6578,-70.8792,131,335," "," ","",""," "," "," ",""," ","","","","","",""," "," ","","","","","","","","","","","","","","","","",1,1,"","","/",F,159,"","","","134.3",1000,100,85,5,5.00,"3","10","","","","","",""," ",""
"Z","03","23",2022,158,"091617",41.6561,-70.8768,132,334," "," ","",""," "," "," ",""," ","","","","","",""," "," ","","","","","","","","","","","","","","","","",1,1,"","","/",F,160,"","","","134.3",1000,100,85,5,5.00,"3","10","","","","","",""," ",""
"Z","03","23",2022,159,"091625",41.6526,-70.8717,133,331," "," ","",""," "," "," ",""," ","","","","","",""," "," ","","","","","","","","","","","","","","","","",1,1,"","","/",F,161,"","","","136.5",1000,100,85,5,5.00,"3","10","","","","","",""," ",""
"Z","03","23",2022,160,"091629",41.6508,-70.8691,133,325," "," ","",""," "," "," ",""," ","","","","","",""," "," ","","","","","","","","","","","","","","","","",1,1,"","","/",F,162,"","","","137.1",1000,100,85,5,5.00,"3","10","","","","","",""," ",""
"Z","03","23",2022,161,"091633",41.6490,-70.8666,133,319," "," ","",""," "," "," ",""," ","","","","","",""," "," ","","","","","","","","","","","","","","","","",1,1,"","","/",F,163,"","","","137.5",1000,100,85,5,5.00,"3","10","","","","","",""," ",""
"Z","03","23",2022,162,"091637",41.6471,-70.8640,133,317," "," ","",""," "," "," ",""," ","","","","","",""," "," ","","","","","","","","","","","","","","","","",1,1,"","","/",F,164,"","","","137.0",1000,100,85,5,5.00,"3","9","","","","","",""," ",""
"Z","03","23",2022,163,"091641",41.6454,-70.8616,133,322," "," ","",""," "," "," ",""," ","","","","","",""," "," ","","","","","","","","","","","","","","","","",1,1,"","","/",F,165,"","","","135.7",1000,100,85,5,5.00,"3","10","","","","","",""," ",""
"Z","03","23",2022,164,"091650",41.6419,-70.8566,133,330," "," ","",""," "," "," ",""," ","","","","","",""," "," ","","","","","","","","","","","","","","","","",1,1,"","","/",F,166,"","","","132.1",1000,100,85,5,5.00,"3","10","","","","","",""," ",""
"Z","03","23",2022,165,"091654",41.6402,-70.8543,133,333," "," ","",""," "," "," ",""," ","","","","","",""," "," ","","","","","","","","","","","","","","","","",1,1,"","","/",F,167,"","","","131.6",1000,100,85,5,5.00,"3","9","","","","","",""," ",""
"Z","03","23",2022,166,"091658",41.6384,-70.8517,133,325," "," ","",""," "," "," ",""," ","","","","","",""," "," ","","","","","","","","","","","","","","","","",1,1,"","","/",F,168,"","","","133.5",1000,100,85,5,5.00,"3","10","","","","","",""," ",""
"Z","03","23",2022,167,"091702",41.6367,-70.8493,132,316," "," ","",""," "," "," ",""," ","","","","","",""," "," ","","","","","","","","","","","","","","","","",1,1,"","","/",F,169,"","","","135.0",1000,100,85,5,5.00,"3","10","","","","","",""," ",""
"Z","03","23",2022,168,"091710",41.6333,-70.8443,133,323," "," ","",""," "," "," ",""," ","","","","","",""," "," ","","","","","","","","","","","","","","","","",1,1,"","","/",F,170,"","","","132.5",1000,100,85,5,5.00,"3","10","","","","","",""," ",""
"Z","03","23",2022,169,"091714",41.6315,-70.8417,133,328," "," ","",""," "," "," ",""," ","","","","","",""," "," ","","","","","","","","","","","","","","","","",1,1,"","","/",F,171,"","","","132.3",1000,100,85,5,5.00,"3","10","","","","","",""," ",""
"Z","03","23",2022,170,"091718",41.6298,-70.8394,133,330," "," ","",""," "," "," ",""," ","","","","","",""," "," ","","","","","","","","","","","","","","","","",1,1,"","","/",F,172,"","","","131.9",1000,100,85,5,5.00,"3","10","","","","","",""," ",""
"Z","03","23",2022,171,"091722",41.6283,-70.8373,133,330," "," ","",""," "," "," ",""," ","","","","","",""," "," ","","","","","","","","","","","","","","","","",1,1,"","","/",F,173,"","","","131.3",1000,100,85,5,5.00,"3","10","","","","","",""," ",""
"Z","03","23",2022,172,"091726",41.6263,-70.8345,132,332," "," ","",""," "," "," ",""," ","","","","","",""," "," ","","","","","","","","","","","","","","","","",1,1,"","","/",F,174,"","","","131.4",1000,100,85,5,5.00,"3","10","","","","","",""," ",""
"Z","03","23",2022,173,"091735",41.6229,-70.8296,134,331," "," ","",""," "," "," ",""," ","","","","","",""," "," ","","","","","","","","","","","","","","","","",1,1,"","","/",F,175,"","","","133.1",1000,100,85,5,5.00,"3","10","","","","","",""," ",""
"Z","03","23",2022,174,"091739",41.6211,-70.8272,134,328," "," ","",""," "," "," ",""," ","","","","","",""," "," ","","","","","","","","","","","","","","","","",1,1,"","","/",F,176,"","","","134.7",1000,100,85,5,5.00,"3","10","","","","","",""," ",""
"Z","03","23",2022,175,"091743",41.6194,-70.8249,135,325," "," ","",""," "," "," ",""," ","","","","","",""," "," ","","","","","","","","","","","","","","","","",1,1,"","","/",F,177,"","","","135.4",1000,100,85,5,5.00,"3","10","","","","","",""," ",""
"Z","03","23",2022,176,"091747",41.6174,-70.8224,135,325," "," ","",""," "," "," ",""," ","","","","","",""," "," ","","","","","","","","","","","","","","","","",1,1,"","","/",F,178,"","","","135.0",1000,100,85,5,5.00,"3","10","","","","","",""," ",""
"Z","03","23",2022,177,"091755",41.6139,-70.8178,137,335," "," ","",""," "," "," ",""," ","","","","","",""," "," ","","","","","","","","","","","","","","","","",1,1,"","","/",F,179,"","","","132.0",1000,100,85,5,5.00,"3","10","","","","","",""," ",""
"Z","03","23",2022,178,"091759",41.6121,-70.8157,137,344," "," ","",""," "," "," ",""," ","","","","","",""," "," ","","","","","","","","","","","","","","","","",1,1,"","","/",F,180,"","","","129.0",1000,100,85,5,5.00,"3","10","","","","","",""," ",""
"Z","03","23",2022,179,"091803",41.6102,-70.8134,138,353," "," ","",""," "," "," ",""," ","","","","","",""," "," ","","","","","","","","","","","","","","","","",1,1,"","","/",F,181,"","","","127.5",1000,100,85,5,5.00,"3","10","","","","","",""," ",""
"Z","03","23",2022,180,"091807",41.6084,-70.8113,138,354," "," ","",""," "," "," ",""," ","","","","","",""," "," ","","","","","","","","","","","","","","","","",1,1,"","","/",F,182,"","","","128.1",1000,100,85,5,5.00,"3","10","","","","","",""," ",""
"Z","03","23",2022,181,"091812",41.6065,-70.8091,137,352," "," ","",""," "," "," ",""," ","","","","","",""," "," ","","","","","","","","","","","","","","","","",1,1,"","","/",F,183,"","","","129.4",1000,100,85,5,5.00,"3","9","","","","","",""," ",""
"Z","03","23",2022,182,"091820",41.6029,-70.8045,135,344," "," ","",""," "," "," ",""," ","","","","","",""," "," ","","","","","","","","","","","","","","","","",1,1,"","","/",F,184,"","","","131.4",1000,100,85,5,5.00,"3","8","","","","","",""," ",""
"Z","03","23",2022,183,"091824",41.6013,-70.8021,124,343," "," ","",""," "," "," ",""," ","","","","","",""," "," ","","","","","","","","","","","","","","","","",1,1,"","","/",F,185,"","","","129.1",1000,100,85,5,5.00,"3","10","","","","","",""," ",""
"Z","03","23",2022,184,"091828",41.6004,-70.7994,106,343," "," ","",""," "," "," ",""," ","","","","","",""," "," ","","","","","","","","","","","","","","","","",1,1,"","","/",F,186,"","","","125.0",1000,100,85,5,5.00,"3","10","","","","","",""," ",""
"Z","03","23",2022,185,"091832",41.6002,-70.7960,83,331," "," ","",""," "," "," ",""," ","","","","","",""," "," ","","","","","","","","","","","","","","","","",1,1,"","","/",F,187,"","","","124.6",1000,100,85,5,5.00,"3","10","","","","","",""," ",""
"Z","03","23",2022,186,"091840",41.6023,-70.7904,45,310," "," ","",""," "," "," ",""," ","","","","","",""," "," ","","","","","","","","","","","","","","","","",1,1,"","","/",F,188,"","","","124.0",1000,100,85,5,5.00,"3","10","","","","","",""," ",""
"Z","03","23",2022,187,"091844",41.6041,-70.7886,29,305," "," ","",""," "," "," ",""," ","","","","","",""," "," ","","","","","","","","","","","","","","","","",1,1,"","","/",F,189,"","","","123.1",1000,100,85,5,5.00,"3","10","","","","","",""," ",""
"Z","03","23",2022,188,"091848",41.6063,-70.7875,10,309," "," ","",""," "," "," ",""," ","","","","","",""," "," ","","","","","","","","","","","","","","","","",1,1,"","","/",F,190,"","","","120.3",1000,100,85,5,5.00,"3","10","","","","","",""," ",""
"Z","03","23",2022,189,"091853",41.6085,-70.7874,351,315," "," ","",""," "," "," ",""," ","","","","","",""," "," ","","","","","","","","","","","","","","","","",1,1,"","","/",F,191,"","","","118.4",1000,100,85,5,5.00,"3","10","","","","","",""," ",""
"Z","03","23",2022,190,"091901",41.6125,-70.7901,315,318," "," ","",""," "," "," ",""," ","","","","","",""," "," ","","","","","","","","","","","","","","","","",1,1,"","","/",F,192,"","","","120.4",1000,100,85,5,5.00,"3","10","","","","","",""," ",""
"Z","03","23",2022,191,"091905",41.6139,-70.7927,295,319," "," ","",""," "," "," ",""," ","","","","","",""," "," ","","","","","","","","","","","","","","","","",1,1,"","","/",F,193,"","","","123.4",1000,100,85,5,5.00,"3","10","","","","","",""," ",""
"Z","03","23",2022,192,"091909",41.6145,-70.7957,275,320," "," ","",""," "," "," ",""," ","","","","","",""," "," ","","","","","","","","","","","","","","","","",1,1,"","","/",F,194,"","","","126.7",1000,100,85,5,5.00,"3","10","","","","","",""," ",""
"Z","03","23",2022,193,"091913",41.6143,-70.7986,256,317," "," ","",""," "," "," ",""," ","","","","","",""," "," ","","","","","","","","","","","","","","","","",1,1,"","","/",F,195,"","","","130.2",1000,100,85,5,5.00,"3","10","","","","","",""," ",""
"Z","03","23",2022,194,"091917",41.6132,-70.8019,235,314," "," ","",""," "," "," ",""," ","","","","","",""," "," ","","","","","","","","","","","","","","","","",1,1,"","","/",F,196,"","","","133.5",1000,100,85,5,5.00,"3","10","","","","","",""," ",""
"Z","03","23",2022,195,"091925",41.6090,-70.8052,188,309," "," ","",""," "," "," ",""," ","","","","","",""," "," ","","","","","","","","","","","","","","","","",1,1,"","","/",F,197,"","","","134.9",1000,100,85,5,5.00,"3","10","","","","","",""," ",""
"Z","03","23",2022,196,"091929",41.6065,-70.8051,168,306," "," ","",""," "," "," ",""," ","","","","","",""," "," ","","","","","","","","","","","","","","","","",1,1,"","","/",F,198,"","","","132.1",1000,100,85,5,5.00,"3","9","","","","","",""," ",""
"Z","03","23",2022,197,"091934",41.6041,-70.8039,149,319," "," ","",""," "," "," ",""," ","","","","","",""," "," ","","","","","","","","","","","","","","","","",1,1,"","","/",F,199,"","","","125.5",1000,100,85,5,5.00,"3","9","","","","","",""," ",""
"Z","03","23",2022,198,"091938",41.6024,-70.8019,128,326," "," ","",""," "," "," ",""," ","","","","","",""," "," ","","","","","","","","","","","","","","","","",1,1,"","","/",F,200,"","","","118.9",1000,100,85,5,5.00,"3","8","","","","","",""," ",""
"Z","03","23",2022,199,"091946",41.6015,-70.7964,78,307," "," ","",""," "," "," ",""," ","","","","","",""," "," ","","","","","","","","","","","","","","","","",1,1,"","","/",F,201,"","","","113.3",1000,100,85,5,5.00,"3","10","","","","","",""," ",""
"Z","03","23",2022,200,"091950",41.6021,-70.7937,73,294," "," ","",""," "," "," ",""," ","","","","","",""," "," ","","","","","","","","","","","","","","","","",1,1,"","","/",F,202,"","","","116.1",1000,100,85,5,5.00,"3","10","","","","","",""," ",""
"Z","03","23",2022,201,"091954",41.6027,-70.7908,70,300," "," ","",""," "," "," ",""," ","","","","","",""," "," ","","","","","","","","","","","","","","","","",1,1,"","","/",F,203,"","","","113.7",1000,100,85,5,5.00,"3","10","","","","","",""," ",""
"Z","03","23",2022,202,"091958",41.6036,-70.7886,51,312," "," ","",""," "," "," ",""," ","","","","","",""," "," ","","","","","","","","","","","","","","","","",1,1,"","","/",F,204,"","","","106.9",1000,100,85,5,5.00,"3","10","","","","","",""," ",""
"Z","03","23",2022,203,"092002",41.6054,-70.7868,21,314," "," ","",""," "," "," ",""," ","","","","","",""," "," ","","","","","","","","","","","","","","","","",1,1,"","","/",F,205,"","","","104.1",1000,100,85,5,5.00,"3","10","","","","","",""," ",""
"Z","03","23",2022,204,"092010",41.6092,-70.7875,322,310," "," ","",""," "," "," ",""," ","","","","","",""," "," ","","","","","","","","","","","","","","","","",1,1,"","","/",F,206,"","","","108.3",1000,100,85,5,5.00,"3","10","","","","","",""," ",""
"Z","03","23",2022,205,"092015",41.6104,-70.7897,294,307," "," ","",""," "," "," ",""," ","","","","","",""," "," ","","","","","","","","","","","","","","","","",1,1,"","","/",F,207,"","","","112.4",1000,100,85,5,5.00,"3","10","","","","","",""," ",""
"Z","03","23",2022,206,"092019",41.6108,-70.7926,265,312," "," ","",""," "," "," ",""," ","","","","","",""," "," ","","","","","","","","","","","","","","","","",1,1,"","","/",F,208,"","","","115.7",1000,100,85,5,5.00,"3","10","","","","","",""," ",""
"Z","03","23",2022,207,"092023",41.6102,-70.7954,245,311," "," ","",""," "," "," ",""," ","","","","","",""," "," ","","","","","","","","","","","","","","","","",1,1,"","","/",F,209,"","","","119.1",1000,100,85,5,5.00,"3","10","","","","","",""," ",""
"Z","03","23",2022,208,"092031",41.6069,-70.7994,195,315," "," ","",""," "," "," ",""," ","","","","","",""," "," ","","","","","","","","","","","","","","","","",1,1,"","","/",F,210,"","","","121.0",1000,100,85,5,5.00,"3","10","","","","","",""," ",""
"Z","03","23",2022,209,"092035",41.6048,-70.7996,171,322," "," ","",""," "," "," ",""," ","","","","","",""," "," ","","","","","","","","","","","","","","","","",1,1,"","","/",F,211,"","","","117.6",1000,100,85,5,5.00,"3","10","","","","","",""," ",""
"Z","03","23",2022,210,"092039",41.6027,-70.7983,139,327," "," ","",""," "," "," ",""," ","","","","","",""," "," ","","","","","","","","","","","","","","","","",1,1,"","","/",F,212,"","","","111.7",1000,100,85,5,5.00,"3","10","","","","","",""," ",""
"Z","03","23",2022,211,"092043",41.6015,-70.7961,109,324," "," ","",""," "," "," ",""," ","","","","","",""," "," ","","","","","","","","","","","","","","","","",1,1,"","","/",F,213,"","","","106.4",1000,100,85,5,5.00,"3","9","","","","","",""," ",""
"Z","03","23",2022,212,"092047",41.6014,-70.7935,77,311," "," ","",""," "," "," ",""," ","","","","","",""," "," ","","","","","","","","","","","","","","","","",1,1,"","","/",F,214,"","","","105.4",1000,100,85,5,5.00,"3","10","","","","","",""," ",""
"Z","03","23",2022,213,"092056",41.6037,-70.7893,31,300," "," ","",""," "," "," ",""," ","","","","","",""," "," ","","","","","","","","","","","","","","","","",1,1,"","","/",F,215,"","","","103.6",1000,100,85,5,5.00,"3","10","","","","","",""," ",""
"Z","03","23",2022,214,"092100",41.6055,-70.7884,9,304," "," ","",""," "," "," ",""," ","","","","","",""," "," ","","","","","","","","","","","","","","","","",1,1,"","","/",F,216,"","","","101.2",1000,100,85,5,5.00,"3","10","","","","","",""," ",""
"Z","03","23",2022,215,"092104",41.6075,-70.7885,345,311," "," ","",""," "," "," ",""," ","","","","","",""," "," ","","","","","","","","","","","","","","","","",1,1,"","","/",F,217,"","","","100.6",1000,100,85,5,5.00,"3","10","","","","","",""," ",""
"Z","03","23",2022,216,"092108",41.6091,-70.7896,324,312," "," ","",""," "," "," ",""," ","","","","","",""," "," ","","","","","","","","","","","","","","","","",1,1,"","","/",F,218,"","","","103.2",1000,100,85,5,5.00,"3","10","","","","","",""," ",""
"Z","03","23",2022,217,"092116",41.6114,-70.7940,286,315," "," ","",""," "," "," ",""," ","","","","","",""," "," ","","","","","","","","","","","","","","","","",1,1,"","","/",F,219,"","","","108.1",1000,100,85,5,5.00,"3","9","","","","","",""," ",""
"Z","03","23",2022,218,"092120",41.6117,-70.7964,271,323," "," ","",""," "," "," ",""," ","","","","","",""," "," ","","","","","","","","","","","","","","","","",1,1,"","","/",F,220,"","","","108.4",1000,100,85,5,5.00,"3","10","","","","","",""," ",""
"Z","03","23",2022,219,"092124",41.6113,-70.7995,252,325," "," ","",""," "," "," ",""," ","","","","","",""," "," ","","","","","","","","","","","","","","","","",1,1,"","","/",F,221,"","","","112.4",1000,100,85,5,5.00,"3","10","","","","","",""," ",""
"Z","03","23",2022,220,"092128",41.6104,-70.8020,236,324," "," ","",""," "," "," ",""," ","","","","","",""," "," ","","","","","","","","","","","","","","","","",1,1,"","","/",F,222,"","","","116.1",1000,100,85,5,5.00,"3","10","","","","","",""," ",""
"Z","03","23",2022,221,"092132",41.6089,-70.8043,225,323," "," ","",""," "," "," ",""," ","","","","","",""," "," ","","","","","","","","","","","","","","","","",1,1,"","","/",F,223,"","","","118.7",1000,100,85,5,5.00,"3","10","","","","","",""," ",""
"Z","03","23",2022,222,"092141",41.6059,-70.8089,230,324," "," ","",""," "," "," ",""," ","","","","","",""," "," ","","","","","","","","","","","","","","","","",1,1,"","","/",F,224,"","","","119.6",1000,100,85,5,5.00,"3","10","","","","","",""," ",""
"Z","03","23",2022,223,"092145",41.6045,-70.8112,231,324," "," ","",""," "," "," ",""," ","","","","","",""," "," ","","","","","","","","","","","","","","","","",1,1,"","","/",F,225,"","","","119.1",1000,100,85,5,5.00,"3","10","","","","","",""," ",""
"Z","03","23",2022,224,"092149",41.6032,-70.8135,232,324," "," ","",""," "," "," ",""," ","","","","","",""," "," ","","","","","","","","","","","","","","","","",1,1,"","","/",F,226,"","","","119.5",1000,100,85,5,5.00,"3","10","","","","","",""," ",""
"Z","03","23",2022,225,"092153",41.6017,-70.8160,231,322," "," ","",""," "," "," ",""," ","","","","","",""," "," ","","","","","","","","","","","","","","","","",1,1,"","","/",F,227,"","","","121.1",1000,100,85,5,5.00,"3","10","","","","","",""," ",""
"Z","03","23",2022,226,"092201",41.5988,-70.8210,232,316," "," ","",""," "," "," ",""," ","","","","","",""," "," ","","","","","","","","","","","","","","","","",1,1,"","","/",F,228,"","","","125.8",1000,100,85,5,5.00,"3","10","","","","","",""," ",""
"Z","03","23",2022,227,"092205",41.5975,-70.8233,233,317," "," ","",""," "," "," ",""," ","","","","","",""," "," ","","","","","","","","","","","","","","","","",1,1,"","","/",F,229,"","","","126.0",1000,100,85,5,5.00,"3","10","","","","","",""," ",""
"Z","03","23",2022,228,"092209",41.5960,-70.8261,233,323," "," ","",""," "," "," ",""," ","","","","","",""," "," ","","","","","","","","","","","","","","","","",1,1,"","","/",F,230,"","","","124.8",1000,100,85,5,5.00,"3","10","","","","","",""," ",""
"Z","03","23",2022,229,"092213",41.5946,-70.8286,233,330," "," ","",""," "," "," ",""," ","","","","","",""," "," ","","","","","","","","","","","","","","","","",1,1,"","","/",F,231,"","","","123.7",1000,100,85,5,5.00,"3","10","","","","","",""," ",""
"Z","03","23",2022,230,"092218",41.5932,-70.8310,232,337," "," ","",""," "," "," ",""," ","","","","","",""," "," ","","","","","","","","","","","","","","","","",1,1,"","","/",F,232,"","","","122.5",1000,100,85,5,5.00,"3","9","","","","","",""," ",""
"Z","03","23",2022,231,"092226",41.5904,-70.8360,232,348," "," ","",""," "," "," ",""," ","","","","","",""," "," ","","","","","","","","","","","","","","","","",1,1,"","","/",F,233,"","","","122.7",1000,100,85,5,5.00,"3","10","","","","","",""," ",""
"Z","03","23",2022,232,"092230",41.5890,-70.8384,231,348," "," ","",""," "," "," ",""," ","","","","","",""," "," ","","","","","","","","","","","","","","","","",1,1,"","","/",F,234,"","","","124.0",1000,100,85,5,5.00,"3","9","","","","","",""," ",""
"Z","03","23",2022,233,"092234",41.5876,-70.8406,230,347," "," ","",""," "," "," ",""," ","","","","","",""," "," ","","","","","","","","","","","","","","","","",1,1,"","","/",F,235,"","","","125.0",1000,100,85,5,5.00,"3","10","","","","","",""," ",""
"Z","03","23",2022,234,"092238",41.5860,-70.8433,231,346," "," ","",""," "," "," ",""," ","","","","","",""," "," ","","","","","","","","","","","","","","","","",1,1,"","","/",F,236,"","","","126.6",1000,100,85,5,5.00,"3","10","","","","","",""," ",""
"Z","03","23",2022,235,"092246",41.5830,-70.8485,233,338," "," ","",""," "," "," ",""," ","","","","","",""," "," ","","","","","","","","","","","","","","","","",1,1,"","","/",F,237,"","","","129.9",1000,100,85,5,5.00,"3","10","","","","","",""," ",""
"Z","03","23",2022,236,"092250",41.5817,-70.8510,233,338," "," ","",""," "," "," ",""," ","","","","","",""," "," ","","","","","","","","","","","","","","","","",1,1,"","","/",F,238,"","","","130.4",1000,100,85,5,5.00,"3","10","","","","","",""," ",""
